{
  "version": 0.6,
  "generator": "Overpass API 0.7.62.5 1bd436f1",
  "osm3s": {
    "timestamp_osm_base": "2025-04-08T18:53:34Z",
    "timestamp_areas_base": "2025-02-06T02:17:44Z",
    "copyright": "The data included in this document is from www.openstreetmap.org. The data is made available under ODbL."
  },
  "elements": [
    {
      "type": "node",
      "id": 28110976,
      "lat": 29.9759983,
      "lon": -90.0782127,
      "tags": {
        "alt_name:uk": "Ню Орлєанс",
        "alt_name:vi": "New Orleans;Tân Linh",
        "capital": "6",
        "ele": "2",
        "loc_name": "NOLA",
        "loc_name:en": "NOLA",
        "loc_name:vi": "Ngọc Lân;Níu Liên",
        "name": "New Orleans",
        "name:bn": "নিয় অরলিন্স",
        "name:br": "Orleañs Nevez",
        "name:ca": "Nova Orleans",
        "name:chr": "ᏄᎣᎵᏂᏏᏱ",
        "name:en": "New Orleans",
        "name:en:pronunciation": "nu ˈɔːrlənz",
        "name:es": "Nueva Orleans",
        "name:fr": "La Nouvelle-Orléans",
        "name:ja": "ニューオーリンズ",
        "name:kn": "ಹೊಸ ಒರ್ಲೀನ್ಸ್",
        "name:oc": "Nòva Orleans",
        "name:pronunciation": "nu ˈɔːrlənz",
        "name:ru": "Новый Орлеан",
        "name:sr": "Њу Орлеанс",
        "name:uk": "Новий Орлеан",
        "name:vi": "Ngọc Lân",
        "name:zh": "新奥尔良/紐奧良",
        "name:zh-Hans": "新奥尔良",
        "name:zh-Hant": "紐奧良",
        "name:zh-Hant-CN": "新奧爾良",
        "official_name:vi": "New Orleans",
        "place": "city",
        "population": "383997",
        "population:date": "2020",
        "short_name": "N.O.",
        "source:name:oc": "Lo Congrès",
        "source:population": "https://www.census.gov/quickfacts/fact/table/neworleanscitylouisiana/POP010220",
        "wikidata": "Q34404",
        "wikipedia": "en:New Orleans"
      }
    },
    {
      "type": "node",
      "id": 29405948,
      "lat": 32.5135356,
      "lon": -93.7477839,
      "tags": {
        "capital": "6",
        "ele": "43",
        "name": "Shreveport",
        "name:en": "Shreveport",
        "name:ru": "Шривпорт",
        "name:sr": "Шривпорт",
        "name:uk": "Шривпорт",
        "place": "city",
        "population": "187593",
        "population:date": "2020",
        "source:population": "US Census",
        "wikidata": "Q80517",
        "wikipedia": "en:Shreveport, Louisiana"
      }
    },
    {
      "type": "node",
      "id": 114813051,
      "lat": 32.4078274,
      "lon": -93.6210837,
      "tags": {
        "ele": "47",
        "gnis:feature_id": "555255",
        "name": "Mayers",
        "place": "hamlet"
      }
    },
    {
      "type": "node",
      "id": 151321908,
      "lat": 29.9990924,
      "lon": -90.4123042,
      "tags": {
        "ele": "3",
        "gnis:feature_id": "1627782",
        "name": "Norco",
        "place": "village",
        "wikidata": "Q2228038",
        "wikipedia": "en:Norco, Louisiana"
      }
    },
    {
      "type": "node",
      "id": 151322003,
      "lat": 31.7429451,
      "lon": -92.7590407,
      "tags": {
        "ele": "73",
        "gnis:feature_id": "547343",
        "name": "Emden",
        "place": "hamlet"
      }
    },
    {
      "type": "node",
      "id": 151322398,
      "lat": 30.202141,
      "lon": -91.0112121,
      "tags": {
        "ele": "7",
        "gnis:feature_id": "543495",
        "name": "Mount Houmas",
        "place": "hamlet"
      }
    },
    {
      "type": "node",
      "id": 151322594,
      "lat": 30.7268518,
      "lon": -91.5859483,
      "tags": {
        "ele": "10",
        "gnis:feature_id": "533443",
        "name": "Brownview",
        "place": "hamlet"
      }
    },
    {
      "type": "node",
      "id": 151322663,
      "lat": 30.6207439,
      "lon": -91.450945,
      "tags": {
        "ele": "10",
        "gnis:feature_id": "543338",
        "name": "Jarreau",
        "place": "hamlet"
      }
    },
    {
      "type": "node",
      "id": 151322850,
      "lat": 32.8926308,
      "lon": -91.7904035,
      "tags": {
        "ele": "42",
        "gnis:feature_id": "543742",
        "name": "Twin Oaks",
        "place": "hamlet"
      }
    },
    {
      "type": "node",
      "id": 151322857,
      "lat": 30.5218554,
      "lon": -91.0326037,
      "tags": {
        "ele": "16",
        "gnis:feature_id": "559121",
        "name": "Oak Shadows Place",
        "place": "hamlet"
      }
    },
    {
      "type": "node",
      "id": 151322876,
      "lat": 30.5896315,
      "lon": -91.093161,
      "tags": {
        "ele": "21",
        "gnis:feature_id": "559212",
        "name": "Ski Stone",
        "place": "hamlet"
      }
    },
    {
      "type": "node",
      "id": 151322886,
      "lat": 30.4663012,
      "lon": -91.0401036,
      "tags": {
        "ele": "13",
        "gnis:feature_id": "559286",
        "name": "Windsor Place",
        "place": "hamlet"
      }
    },
    {
      "type": "node",
      "id": 151322895,
      "lat": 29.8574278,
      "lon": -91.6323366,
      "tags": {
        "ele": "3",
        "gnis:feature_id": "1627382",
        "name": "Julien",
        "place": "hamlet"
      }
    },
    {
      "type": "node",
      "id": 151323458,
      "lat": 32.1607105,
      "lon": -92.0962466,
      "tags": {
        "ele": "21",
        "gnis:feature_id": "543625",
        "name": "Riverton",
        "place": "hamlet"
      }
    },
    {
      "type": "node",
      "id": 151323566,
      "lat": 30.7254622,
      "lon": -91.5040038,
      "tags": {
        "ele": "11",
        "gnis:feature_id": "543705",
        "name": "Stonewell Plantation",
        "place": "hamlet"
      }
    },
    {
      "type": "node",
      "id": 151323574,
      "lat": 31.7462773,
      "lon": -92.8393215,
      "tags": {
        "ele": "72",
        "gnis:feature_id": "548140",
        "name": "Wheeling",
        "place": "hamlet"
      }
    },
    {
      "type": "node",
      "id": 151323600,
      "lat": 31.5793328,
      "lon": -91.481785,
      "tags": {
        "ele": "18",
        "gnis:feature_id": "543475",
        "name": "Minorca",
        "place": "hamlet"
      }
    },
    {
      "type": "node",
      "id": 151323625,
      "lat": 32.5487529,
      "lon": -92.0101315,
      "tags": {
        "ele": "24",
        "gnis:feature_id": "548584",
        "name": "Shenandoah",
        "place": "hamlet"
      }
    },
    {
      "type": "node",
      "id": 151323644,
      "lat": 30.9418481,
      "lon": -91.7220627,
      "tags": {
        "ele": "14",
        "gnis:feature_id": "536153",
        "name": "Keller",
        "place": "hamlet"
      }
    },
    {
      "type": "node",
      "id": 151323664,
      "lat": 30.3074181,
      "lon": -90.4048073,
      "tags": {
        "ele": "1",
        "gnis:feature_id": "549727",
        "name": "North Pass",
        "place": "hamlet"
      }
    },
    {
      "type": "node",
      "id": 151323679,
      "lat": 32.4370987,
      "lon": -93.8001801,
      "tags": {
        "ele": "61",
        "gnis:feature_id": "552102",
        "name": "Chateau Village",
        "place": "hamlet"
      }
    },
    {
      "type": "node",
      "id": 151323685,
      "lat": 32.3987664,
      "lon": -93.8074027,
      "tags": {
        "ele": "65",
        "gnis:feature_id": "552128",
        "name": "Hadley",
        "place": "hamlet"
      }
    },
    {
      "type": "node",
      "id": 151323803,
      "lat": 32.267102,
      "lon": -93.1765554,
      "tags": {
        "ele": "59",
        "gnis:feature_id": "549058",
        "name": "Anderson",
        "place": "hamlet"
      }
    },
    {
      "type": "node",
      "id": 151323811,
      "lat": 32.7556982,
      "lon": -94.0371271,
      "tags": {
        "ele": "58",
        "gnis:feature_id": "543008",
        "name": "Bonham Landing",
        "place": "hamlet"
      }
    },
    {
      "type": "node",
      "id": 151323825,
      "lat": 32.2668241,
      "lon": -93.125998,
      "tags": {
        "ele": "82",
        "gnis:feature_id": "549093",
        "name": "Old Castor",
        "place": "hamlet"
      }
    },
    {
      "type": "node",
      "id": 151323829,
      "lat": 32.2087677,
      "lon": -92.6407055,
      "tags": {
        "ele": "78",
        "gnis:feature_id": "541297",
        "name": "Spring Hill",
        "place": "hamlet"
      }
    },
    {
      "type": "node",
      "id": 151323835,
      "lat": 30.5451881,
      "lon": -91.0059363,
      "tags": {
        "ele": "17",
        "gnis:feature_id": "559292",
        "name": "Woodland View",
        "place": "hamlet"
      }
    },
    {
      "type": "node",
      "id": 151324205,
      "lat": 30.4068607,
      "lon": -90.1423005,
      "tags": {
        "ele": "1",
        "gnis:feature_id": "1627306",
        "name": "Houltonville",
        "place": "hamlet"
      }
    },
    {
      "type": "node",
      "id": 151324476,
      "lat": 30.0479778,
      "lon": -91.0676009,
      "tags": {
        "ele": "4",
        "gnis:feature_id": "555195",
        "name": "Lula",
        "place": "hamlet"
      }
    },
    {
      "type": "node",
      "id": 151324520,
      "lat": 32.7920758,
      "lon": -91.413449,
      "tags": {
        "ele": "38",
        "gnis:feature_id": "543213",
        "name": "Forest",
        "place": "village",
        "population": "304",
        "population:date": "2020",
        "source:population": "US Census",
        "wikidata": "Q1896580",
        "wikipedia": "fr:Forest (Louisiane)"
      }
    },
    {
      "type": "node",
      "id": 151325210,
      "lat": 31.8198705,
      "lon": -93.5142864,
      "tags": {
        "ele": "87",
        "gnis:feature_id": "555680",
        "name": "Pleasant Hill",
        "place": "village",
        "population": "722",
        "population:date": "2006",
        "source:population": "US Census",
        "wikidata": "Q3056855",
        "wikipedia": "en:Pleasant Hill, Sabine Parish, Louisiana"
      }
    },
    {
      "type": "node",
      "id": 151325219,
      "lat": 30.609077,
      "lon": -91.3742774,
      "tags": {
        "ele": "9",
        "gnis:feature_id": "555842",
        "name": "Rougon",
        "place": "hamlet"
      }
    },
    {
      "type": "node",
      "id": 151325237,
      "lat": 32.8001413,
      "lon": -93.9785145,
      "tags": {
        "ele": "60",
        "gnis:feature_id": "556031",
        "name": "Shoreline",
        "place": "hamlet"
      }
    },
    {
      "type": "node",
      "id": 151325294,
      "lat": 31.4157323,
      "lon": -92.702926,
      "tags": {
        "ele": "28",
        "gnis:feature_id": "543803",
        "name": "Zimmerman",
        "place": "hamlet"
      }
    },
    {
      "type": "node",
      "id": 151325304,
      "lat": 30.3238053,
      "lon": -90.8409303,
      "tags": {
        "ele": "4",
        "gnis:feature_id": "542531",
        "name": "Summerfield",
        "place": "hamlet"
      }
    },
    {
      "type": "node",
      "id": 151325318,
      "lat": 30.3457561,
      "lon": -92.1934586,
      "tags": {
        "ele": "14",
        "gnis:feature_id": "554709",
        "name": "Higginbotham",
        "place": "hamlet"
      }
    },
    {
      "type": "node",
      "id": 151325500,
      "lat": 31.954881,
      "lon": -91.656791,
      "tags": {
        "ele": "21",
        "gnis:feature_id": "543168",
        "name": "Elam",
        "place": "hamlet"
      }
    },
    {
      "type": "node",
      "id": 151325508,
      "lat": 30.1396531,
      "lon": -93.592661,
      "tags": {
        "ele": "3",
        "gnis:feature_id": "543229",
        "name": "Ged",
        "place": "hamlet"
      }
    },
    {
      "type": "node",
      "id": 151325997,
      "lat": 30.6513075,
      "lon": -92.1167874,
      "tags": {
        "ele": "17",
        "gnis:feature_id": "1628249",
        "name": "Soileau",
        "place": "hamlet"
      }
    },
    {
      "type": "node",
      "id": 151326118,
      "lat": 30.4382579,
      "lon": -92.87737,
      "tags": {
        "ele": "12",
        "gnis:feature_id": "543210",
        "name": "Fontenot",
        "place": "hamlet"
      }
    },
    {
      "type": "node",
      "id": 151326259,
      "lat": 30.6337077,
      "lon": -92.4197754,
      "tags": {
        "ele": "19",
        "gnis:feature_id": "543438",
        "name": "Mamou",
        "place": "village",
        "population": "3464",
        "population:date": "2006",
        "source:population": "US Census"
      }
    },
    {
      "type": "node",
      "id": 151326284,
      "lat": 29.7143742,
      "lon": -91.2542711,
      "tags": {
        "ele": "3",
        "gnis:feature_id": "560835",
        "name": "Glenwild",
        "place": "hamlet"
      }
    },
    {
      "type": "node",
      "id": 151326451,
      "lat": 31.8615497,
      "lon": -91.3578929,
      "tags": {
        "ele": "21",
        "gnis:feature_id": "541069",
        "name": "Chamblee",
        "place": "hamlet"
      }
    },
    {
      "type": "node",
      "id": 151326460,
      "lat": 30.1263093,
      "lon": -91.2764961,
      "tags": {
        "ele": "3",
        "gnis:feature_id": "543083",
        "name": "Choctaw",
        "place": "hamlet"
      }
    },
    {
      "type": "node",
      "id": 151326494,
      "lat": 31.9404364,
      "lon": -91.28178,
      "tags": {
        "ele": "21",
        "gnis:feature_id": "542943",
        "name": "Avondale",
        "place": "hamlet"
      }
    },
    {
      "type": "node",
      "id": 151326505,
      "lat": 30.4218671,
      "lon": -92.3129067,
      "tags": {
        "ele": "14",
        "gnis:feature_id": "538582",
        "name": "Richard",
        "place": "hamlet"
      }
    },
    {
      "type": "node",
      "id": 151326703,
      "lat": 30.5285221,
      "lon": -91.1781631,
      "tags": {
        "ele": "18",
        "gnis:feature_id": "559049",
        "name": "Jordan Terrace",
        "place": "hamlet"
      }
    },
    {
      "type": "node",
      "id": 151326713,
      "lat": 30.2476958,
      "lon": -91.2873308,
      "tags": {
        "ele": "4",
        "gnis:feature_id": "558201",
        "name": "Crescent",
        "place": "hamlet"
      }
    },
    {
      "type": "node",
      "id": 151326718,
      "lat": 30.5213,
      "lon": -91.1292729,
      "tags": {
        "ele": "19",
        "gnis:feature_id": "559246",
        "name": "Timberlane",
        "place": "hamlet"
      }
    },
    {
      "type": "node",
      "id": 151326729,
      "lat": 30.5687988,
      "lon": -91.1042724,
      "tags": {
        "ele": "20",
        "gnis:feature_id": "559265",
        "name": "Waters Edge",
        "place": "hamlet"
      }
    },
    {
      "type": "node",
      "id": 151326844,
      "lat": 32.3957084,
      "lon": -92.6929289,
      "tags": {
        "ele": "61",
        "gnis:feature_id": "542931",
        "name": "Ansley",
        "place": "hamlet"
      }
    },
    {
      "type": "node",
      "id": 151326850,
      "lat": 29.414942,
      "lon": -90.7000895,
      "tags": {
        "ele": "1",
        "gnis:feature_id": "543013",
        "name": "Boudreaux",
        "place": "hamlet"
      }
    },
    {
      "type": "node",
      "id": 151326859,
      "lat": 32.6526382,
      "lon": -91.8862391,
      "tags": {
        "ele": "23",
        "gnis:feature_id": "543791",
        "name": "Windsor",
        "place": "hamlet"
      }
    },
    {
      "type": "node",
      "id": 151326865,
      "lat": 31.9879401,
      "lon": -93.4432309,
      "tags": {
        "ele": "40",
        "gnis:feature_id": "554371",
        "name": "Evelyn",
        "place": "hamlet"
      }
    },
    {
      "type": "node",
      "id": 151326872,
      "lat": 30.0046469,
      "lon": -90.1081284,
      "tags": {
        "ele": "-1",
        "gnis:feature_id": "550535",
        "name": "Lakeview",
        "place": "village",
        "wikidata": "Q12061083",
        "wikipedia": "en:Lakeview, New Orleans"
      }
    },
    {
      "type": "node",
      "id": 151326879,
      "lat": 32.454598,
      "lon": -93.7140672,
      "tags": {
        "ele": "50",
        "gnis:feature_id": "552231",
        "name": "Broadmoor Terrace",
        "place": "hamlet"
      }
    },
    {
      "type": "node",
      "id": 151326888,
      "lat": 30.1699194,
      "lon": -91.1470487,
      "tags": {
        "ele": "7",
        "gnis:feature_id": "558345",
        "name": "White Castle",
        "place": "village",
        "population": "1880",
        "population:date": "2006",
        "source:population": "US Census",
        "wikidata": "Q2093663",
        "wikipedia": "en:White Castle, Louisiana"
      }
    },
    {
      "type": "node",
      "id": 151326897,
      "lat": 30.3871388,
      "lon": -90.0797984,
      "tags": {
        "ele": "6",
        "gnis:feature_id": "560422",
        "name": "Chinchuba",
        "place": "hamlet"
      }
    },
    {
      "type": "node",
      "id": 151327312,
      "lat": 32.320148,
      "lon": -91.8695733,
      "tags": {
        "ele": "21",
        "gnis:feature_id": "541251",
        "name": "Four Forks",
        "place": "hamlet"
      }
    },
    {
      "type": "node",
      "id": 151327326,
      "lat": 30.0260404,
      "lon": -92.5084692,
      "tags": {
        "ele": "2",
        "gnis:feature_id": "543266",
        "name": "Gueydan",
        "place": "village",
        "population": "1629",
        "population:date": "2006",
        "source:population": "US Census",
        "wikidata": "Q1553305",
        "wikipedia": "en:Gueydan, Louisiana"
      }
    },
    {
      "type": "node",
      "id": 151327369,
      "lat": 30.3079732,
      "lon": -90.5878679,
      "tags": {
        "ele": "1",
        "gnis:feature_id": "541065",
        "name": "Carthage Bluff Landing",
        "place": "hamlet"
      }
    },
    {
      "type": "node",
      "id": 151327384,
      "lat": 32.7943094,
      "lon": -93.5354526,
      "tags": {
        "ele": "70",
        "gnis:feature_id": "543336",
        "name": "Ivan",
        "place": "hamlet"
      }
    },
    {
      "type": "node",
      "id": 151327397,
      "lat": 31.4179584,
      "lon": -93.6446237,
      "tags": {
        "ele": "60",
        "gnis:feature_id": "541559",
        "name": "Turtle Beach",
        "place": "hamlet"
      }
    },
    {
      "type": "node",
      "id": 151327413,
      "lat": 31.6068364,
      "lon": -91.7098467,
      "tags": {
        "ele": "18",
        "gnis:feature_id": "541578",
        "name": "Moro",
        "place": "hamlet"
      }
    },
    {
      "type": "node",
      "id": 151327428,
      "lat": 32.3270954,
      "lon": -92.2556948,
      "tags": {
        "ele": "49",
        "gnis:feature_id": "548614",
        "name": "Tama",
        "place": "hamlet"
      }
    },
    {
      "type": "node",
      "id": 151327441,
      "lat": 30.4673956,
      "lon": -90.5772249,
      "tags": {
        "ele": "9",
        "gnis:feature_id": "552027",
        "name": "Hungarian Settlement",
        "place": "hamlet"
      }
    },
    {
      "type": "node",
      "id": 151327907,
      "lat": 29.6088236,
      "lon": -90.8567606,
      "tags": {
        "ele": "1",
        "gnis:feature_id": "543317",
        "name": "Humphreys",
        "place": "hamlet"
      }
    },
    {
      "type": "node",
      "id": 151327919,
      "lat": 31.9808719,
      "lon": -92.1756551,
      "tags": {
        "ele": "36",
        "gnis:feature_id": "536160",
        "name": "Kelly",
        "place": "hamlet"
      }
    },
    {
      "type": "node",
      "id": 151327933,
      "lat": 30.48269,
      "lon": -91.2103861,
      "tags": {
        "ele": "7",
        "gnis:feature_id": "542928",
        "name": "Anchorage",
        "place": "hamlet"
      }
    },
    {
      "type": "node",
      "id": 151328053,
      "lat": 30.7343507,
      "lon": -91.4331693,
      "tags": {
        "ele": "10",
        "gnis:feature_id": "555694",
        "name": "Pointe Coupee",
        "place": "hamlet"
      }
    },
    {
      "type": "node",
      "id": 151328354,
      "lat": 31.7637749,
      "lon": -93.1368322,
      "tags": {
        "ele": "40",
        "gnis:feature_id": "548889",
        "name": "Oakleaf Estates",
        "place": "hamlet"
      }
    },
    {
      "type": "node",
      "id": 151328419,
      "lat": 30.5176888,
      "lon": -91.0501041,
      "tags": {
        "ele": "17",
        "gnis:feature_id": "558934",
        "name": "Comite Hills",
        "place": "hamlet"
      }
    },
    {
      "type": "node",
      "id": 151328446,
      "lat": 29.9513159,
      "lon": -90.360636,
      "tags": {
        "ele": "3",
        "gnis:feature_id": "552945",
        "name": "Rost",
        "place": "hamlet"
      }
    },
    {
      "type": "node",
      "id": 151328459,
      "lat": 29.7232665,
      "lon": -90.1236852,
      "tags": {
        "ele": "1",
        "gnis:feature_id": "542949",
        "name": "Barataria",
        "place": "hamlet"
      }
    },
    {
      "type": "node",
      "id": 151328473,
      "lat": 30.8026822,
      "lon": -91.3117778,
      "tags": {
        "ele": "60",
        "gnis:feature_id": "550178",
        "name": "Hamilton",
        "place": "hamlet"
      }
    },
    {
      "type": "node",
      "id": 151328504,
      "lat": 32.3223733,
      "lon": -92.2498613,
      "tags": {
        "ele": "62",
        "gnis:feature_id": "541277",
        "name": "Cypress",
        "place": "hamlet"
      }
    },
    {
      "type": "node",
      "id": 151328524,
      "lat": 32.9717947,
      "lon": -91.6967901,
      "tags": {
        "ele": "26",
        "gnis:feature_id": "543282",
        "name": "Haynes Landing",
        "place": "hamlet"
      }
    },
    {
      "type": "node",
      "id": 151328536,
      "lat": 31.014078,
      "lon": -92.0184549,
      "tags": {
        "ele": "17",
        "gnis:feature_id": "543413",
        "name": "Long Bridge",
        "place": "hamlet"
      }
    },
    {
      "type": "node",
      "id": 151328570,
      "lat": 30.3432106,
      "lon": -91.7965584,
      "tags": {
        "ele": "2",
        "gnis:feature_id": "560859",
        "name": "Grand Annse",
        "place": "hamlet"
      }
    },
    {
      "type": "node",
      "id": 151328596,
      "lat": 32.2851478,
      "lon": -91.5267864,
      "tags": {
        "ele": "15",
        "gnis:feature_id": "543710",
        "name": "Sunrise Landing",
        "place": "hamlet"
      }
    },
    {
      "type": "node",
      "id": 151328612,
      "lat": 31.4760113,
      "lon": -92.2737445,
      "tags": {
        "ele": "22",
        "gnis:feature_id": "545748",
        "name": "Bob",
        "place": "hamlet"
      }
    },
    {
      "type": "node",
      "id": 151329274,
      "lat": 29.6673476,
      "lon": -91.0636729,
      "tags": {
        "ele": "2",
        "gnis:feature_id": "543749",
        "name": "Ursa",
        "place": "hamlet"
      }
    },
    {
      "type": "node",
      "id": 151329334,
      "lat": 31.9515506,
      "lon": -93.2823925,
      "tags": {
        "ele": "46",
        "gnis:feature_id": "538124",
        "name": "Piermont",
        "place": "hamlet"
      }
    },
    {
      "type": "node",
      "id": 151329352,
      "lat": 30.9043461,
      "lon": -91.5190052,
      "tags": {
        "ele": "17",
        "gnis:feature_id": "543019",
        "name": "Brandon",
        "place": "hamlet"
      }
    },
    {
      "type": "node",
      "id": 151329357,
      "lat": 31.8365504,
      "lon": -91.451229,
      "tags": {
        "ele": "20",
        "gnis:feature_id": "541174",
        "name": "Richland",
        "place": "hamlet"
      }
    },
    {
      "type": "node",
      "id": 151329367,
      "lat": 32.4679273,
      "lon": -92.4698665,
      "tags": {
        "ele": "61",
        "gnis:feature_id": "541288",
        "name": "Cartwright",
        "place": "hamlet"
      }
    },
    {
      "type": "node",
      "id": 151329591,
      "lat": 32.0534887,
      "lon": -91.5806775,
      "tags": {
        "ele": "20",
        "gnis:feature_id": "543147",
        "name": "Dixie Landing",
        "place": "hamlet"
      }
    },
    {
      "type": "node",
      "id": 151329599,
      "lat": 31.7690528,
      "lon": -91.5592878,
      "tags": {
        "ele": "16",
        "gnis:feature_id": "543800",
        "name": "Young Landing",
        "place": "hamlet"
      }
    },
    {
      "type": "node",
      "id": 151329607,
      "lat": 30.5121336,
      "lon": -91.1612182,
      "tags": {
        "ele": "18",
        "gnis:feature_id": "557620",
        "name": "Monte Sano Trailer Park",
        "place": "hamlet"
      }
    },
    {
      "type": "node",
      "id": 151329611,
      "lat": 32.3482114,
      "lon": -93.5526756,
      "tags": {
        "ele": "46",
        "gnis:feature_id": "554352",
        "name": "Elm Grove",
        "place": "hamlet"
      }
    },
    {
      "type": "node",
      "id": 151329619,
      "lat": 30.6029766,
      "lon": -92.7754242,
      "tags": {
        "ele": "20",
        "gnis:feature_id": "556686",
        "name": "Le Jeune",
        "place": "hamlet"
      }
    },
    {
      "type": "node",
      "id": 151329653,
      "lat": 30.2901963,
      "lon": -90.4017516,
      "tags": {
        "ele": "1",
        "gnis:feature_id": "540636",
        "name": "Akers",
        "place": "hamlet"
      }
    },
    {
      "type": "node",
      "id": 151329666,
      "lat": 30.2388068,
      "lon": -91.0856589,
      "tags": {
        "ele": "5",
        "gnis:feature_id": "555008",
        "name": "LeBlanc",
        "place": "hamlet"
      }
    },
    {
      "type": "node",
      "id": 151329676,
      "lat": 29.7613205,
      "lon": -90.0181265,
      "tags": {
        "ele": "2",
        "gnis:feature_id": "558724",
        "name": "Woodlawn",
        "place": "hamlet"
      }
    },
    {
      "type": "node",
      "id": 151329687,
      "lat": 30.069644,
      "lon": -91.0159331,
      "tags": {
        "ele": "5",
        "gnis:feature_id": "553589",
        "name": "Belle Terre",
        "place": "hamlet"
      }
    },
    {
      "type": "node",
      "id": 151329700,
      "lat": 32.48702,
      "lon": -92.1543141,
      "tags": {
        "ele": "25",
        "gnis:feature_id": "553795",
        "name": "Brownsville",
        "place": "hamlet",
        "population": "4353",
        "population:date": "2020",
        "source:population": "US Census"
      }
    },
    {
      "type": "node",
      "id": 151329717,
      "lat": 30.5326956,
      "lon": -91.9528946,
      "tags": {
        "ele": "8",
        "gnis:feature_id": "560413",
        "name": "Chiasson",
        "place": "hamlet"
      }
    },
    {
      "type": "node",
      "id": 151330294,
      "lat": 32.7173585,
      "lon": -91.9909637,
      "tags": {
        "ele": "24",
        "gnis:feature_id": "543443",
        "name": "Marcarco",
        "place": "hamlet"
      }
    },
    {
      "type": "node",
      "id": 151330428,
      "lat": 30.7976866,
      "lon": -91.8017827,
      "tags": {
        "ele": "13",
        "gnis:feature_id": "559922",
        "name": "Bayou Current",
        "place": "hamlet"
      }
    },
    {
      "type": "node",
      "id": 151330560,
      "lat": 30.040758,
      "lon": -91.8003943,
      "tags": {
        "ele": "3",
        "gnis:feature_id": "543128",
        "name": "Daspit",
        "place": "hamlet"
      }
    },
    {
      "type": "node",
      "id": 151330588,
      "lat": 31.9234985,
      "lon": -93.6279585,
      "tags": {
        "ele": "81",
        "gnis:feature_id": "555576",
        "name": "Oxford",
        "place": "hamlet"
      }
    },
    {
      "type": "node",
      "id": 151330609,
      "lat": 32.6559679,
      "lon": -91.1817762,
      "tags": {
        "ele": "30",
        "gnis:feature_id": "535426",
        "name": "Grimes",
        "place": "hamlet"
      }
    },
    {
      "type": "node",
      "id": 151330992,
      "lat": 30.1051938,
      "lon": -90.9875923,
      "tags": {
        "capital": "6",
        "ele": "8",
        "gnis:feature_id": "1629933",
        "name": "Donaldsonville",
        "place": "town",
        "population": "7733",
        "population:date": "2006",
        "source:population": "US Census",
        "wikidata": "Q2355094",
        "wikipedia": "en:Donaldsonville, Louisiana"
      }
    },
    {
      "type": "node",
      "id": 151331048,
      "lat": 31.961269,
      "lon": -91.4248398,
      "tags": {
        "ele": "20",
        "gnis:feature_id": "541188",
        "name": "Shady Grove",
        "place": "hamlet"
      }
    },
    {
      "type": "node",
      "id": 151331060,
      "lat": 30.3001953,
      "lon": -90.6484249,
      "tags": {
        "ele": "1",
        "gnis:feature_id": "543064",
        "name": "Catfish Landing",
        "place": "hamlet"
      }
    },
    {
      "type": "node",
      "id": 151331070,
      "lat": 30.6053925,
      "lon": -91.8796676,
      "tags": {
        "ele": "5",
        "gnis:feature_id": "560580",
        "name": "Darbonne",
        "place": "hamlet"
      }
    },
    {
      "type": "node",
      "id": 151331238,
      "lat": 30.0918658,
      "lon": -91.0381562,
      "tags": {
        "ele": "6",
        "gnis:feature_id": "537954",
        "name": "Palo Alto",
        "place": "hamlet"
      }
    },
    {
      "type": "node",
      "id": 151331275,
      "lat": 30.2885287,
      "lon": -90.7003707,
      "tags": {
        "ele": "3",
        "gnis:feature_id": "556409",
        "name": "Whitehall",
        "place": "village",
        "wikidata": "Q28997643",
        "wikipedia": "en:Whitehall, Livingston Parish, Louisiana"
      }
    },
    {
      "type": "node",
      "id": 151331303,
      "lat": 30.0565906,
      "lon": -91.7370595,
      "tags": {
        "ele": "6",
        "gnis:feature_id": "555165",
        "name": "Loreauville",
        "place": "village",
        "population": "965",
        "population:date": "2006",
        "source:population": "US Census"
      }
    },
    {
      "type": "node",
      "id": 151331312,
      "lat": 32.0873837,
      "lon": -93.6207349,
      "tags": {
        "ele": "74",
        "gnis:feature_id": "553897",
        "name": "Carmel",
        "place": "hamlet"
      }
    },
    {
      "type": "node",
      "id": 151331660,
      "lat": 31.6701713,
      "lon": -92.5662554,
      "tags": {
        "ele": "77",
        "gnis:feature_id": "548152",
        "name": "Williana",
        "place": "hamlet"
      }
    },
    {
      "type": "node",
      "id": 151331667,
      "lat": 30.5599123,
      "lon": -90.4828676,
      "tags": {
        "ele": "17",
        "gnis:feature_id": "554521",
        "name": "Genessee",
        "place": "hamlet"
      }
    },
    {
      "type": "node",
      "id": 151331675,
      "lat": 30.4052282,
      "lon": -91.0395737,
      "tags": {
        "ele": "13",
        "gnis:feature_id": "559207",
        "name": "Sherwood Oaks South",
        "place": "hamlet"
      }
    },
    {
      "type": "node",
      "id": 151331834,
      "lat": 29.8935369,
      "lon": -91.0067653,
      "tags": {
        "ele": "3",
        "gnis:feature_id": "555948",
        "name": "Saint Thomas",
        "place": "hamlet"
      }
    },
    {
      "type": "node",
      "id": 151331875,
      "lat": 32.1940476,
      "lon": -93.4810084,
      "tags": {
        "ele": "44",
        "gnis:feature_id": "556423",
        "name": "Williams",
        "place": "hamlet"
      }
    },
    {
      "type": "node",
      "id": 151331885,
      "lat": 31.1671311,
      "lon": -92.2756862,
      "tags": {
        "ele": "21",
        "gnis:feature_id": "538313",
        "name": "Poland",
        "place": "hamlet"
      }
    },
    {
      "type": "node",
      "id": 151331894,
      "lat": 31.6314113,
      "lon": -93.6430702,
      "tags": {
        "ele": "62",
        "gnis:feature_id": "540611",
        "name": "Zwolle",
        "place": "town",
        "population": "1773",
        "population:date": "2006",
        "source:population": "US Census"
      }
    },
    {
      "type": "node",
      "id": 151332099,
      "lat": 29.5246602,
      "lon": -90.7395354,
      "tags": {
        "ele": "1",
        "gnis:feature_id": "551961",
        "name": "Sunshine",
        "place": "hamlet"
      }
    },
    {
      "type": "node",
      "id": 151332104,
      "lat": 32.7645801,
      "lon": -92.1356902,
      "tags": {
        "ele": "40",
        "gnis:feature_id": "544875",
        "name": "Upco",
        "place": "hamlet"
      }
    },
    {
      "type": "node",
      "id": 151332108,
      "lat": 32.5798718,
      "lon": -93.7132337,
      "tags": {
        "ele": "52",
        "gnis:feature_id": "550762",
        "name": "Airline Park Estates",
        "place": "hamlet"
      }
    },
    {
      "type": "node",
      "id": 151332114,
      "lat": 31.4046133,
      "lon": -91.483451,
      "tags": {
        "ele": "6",
        "gnis:feature_id": "543188",
        "name": "Esperance Landing",
        "place": "hamlet"
      }
    },
    {
      "type": "node",
      "id": 151332132,
      "lat": 30.8324034,
      "lon": -91.425114,
      "tags": {
        "ele": "38",
        "gnis:feature_id": "543678",
        "name": "Solitude",
        "place": "hamlet"
      }
    },
    {
      "type": "node",
      "id": 151332137,
      "lat": 32.6009822,
      "lon": -93.7343452,
      "tags": {
        "ele": "54",
        "gnis:feature_id": "543754",
        "name": "Vanceville",
        "place": "hamlet"
      }
    },
    {
      "type": "node",
      "id": 151332637,
      "lat": 30.4696345,
      "lon": -91.0959384,
      "tags": {
        "ele": "15",
        "gnis:feature_id": "559289",
        "name": "Wooddale East",
        "place": "hamlet"
      }
    },
    {
      "type": "node",
      "id": 151332742,
      "lat": 29.6204895,
      "lon": -90.9037062,
      "tags": {
        "ele": "0",
        "gnis:feature_id": "543260",
        "name": "Greenwood",
        "place": "hamlet"
      }
    },
    {
      "type": "node",
      "id": 151332749,
      "lat": 30.7210182,
      "lon": -91.5331704,
      "tags": {
        "ele": "9",
        "gnis:feature_id": "542165",
        "name": "Stewart Plantation",
        "place": "hamlet"
      }
    },
    {
      "type": "node",
      "id": 151332785,
      "lat": 32.4962562,
      "lon": -92.1673581,
      "tags": {
        "ele": "30",
        "gnis:feature_id": "543702",
        "name": "Steven",
        "place": "hamlet"
      }
    },
    {
      "type": "node",
      "id": 151332798,
      "lat": 30.4829699,
      "lon": -90.4375876,
      "tags": {
        "ele": "10",
        "gnis:feature_id": "549753",
        "name": "Southwood Ridge",
        "place": "hamlet"
      }
    },
    {
      "type": "node",
      "id": 151332821,
      "lat": 29.5768814,
      "lon": -90.6862007,
      "tags": {
        "ele": "3",
        "gnis:feature_id": "551921",
        "name": "Mechanicville",
        "place": "hamlet"
      }
    },
    {
      "type": "node",
      "id": 151332826,
      "lat": 29.994369,
      "lon": -90.8412055,
      "tags": {
        "ele": "5",
        "gnis:feature_id": "560244",
        "name": "Bon Secours Plantation",
        "place": "hamlet"
      }
    },
    {
      "type": "node",
      "id": 151333087,
      "lat": 29.6938195,
      "lon": -91.1020449,
      "tags": {
        "ele": "1",
        "gnis:feature_id": "1627694",
        "name": "Morgan City Beach",
        "place": "hamlet"
      }
    },
    {
      "type": "node",
      "id": 151333298,
      "lat": 32.9237404,
      "lon": -91.8842948,
      "tags": {
        "ele": "35",
        "gnis:feature_id": "546882",
        "name": "Beekman",
        "place": "hamlet"
      }
    },
    {
      "type": "node",
      "id": 151333300,
      "lat": 29.6535444,
      "lon": -90.8737054,
      "tags": {
        "ele": "1",
        "gnis:feature_id": "543043",
        "name": "Bull Run",
        "place": "hamlet"
      }
    },
    {
      "type": "node",
      "id": 151333303,
      "lat": 30.874082,
      "lon": -93.2176615,
      "tags": {
        "ele": "49",
        "gnis:feature_id": "543325",
        "name": "Ikes",
        "place": "hamlet"
      }
    },
    {
      "type": "node",
      "id": 151333306,
      "lat": 32.8329103,
      "lon": -91.8776277,
      "tags": {
        "ele": "36",
        "gnis:feature_id": "543409",
        "name": "Log Cabin",
        "place": "hamlet"
      }
    },
    {
      "type": "node",
      "id": 151333311,
      "lat": 32.9615174,
      "lon": -91.7173462,
      "tags": {
        "ele": "25",
        "gnis:feature_id": "543545",
        "name": "Oak Landing",
        "place": "hamlet"
      }
    },
    {
      "type": "node",
      "id": 151333325,
      "lat": 30.1685409,
      "lon": -93.4348791,
      "tags": {
        "ele": "2",
        "gnis:feature_id": "551246",
        "name": "Choupique",
        "place": "hamlet"
      }
    },
    {
      "type": "node",
      "id": 151333328,
      "lat": 30.1935325,
      "lon": -91.7462248,
      "tags": {
        "ele": "5",
        "gnis:feature_id": "560376",
        "name": "Catahoula Cove",
        "place": "hamlet"
      }
    },
    {
      "type": "node",
      "id": 151333347,
      "lat": 30.5146357,
      "lon": -90.4870337,
      "tags": {
        "ele": "14",
        "gnis:feature_id": "549773",
        "name": "Westdale",
        "place": "hamlet"
      }
    },
    {
      "type": "node",
      "id": 151333401,
      "lat": 31.7107201,
      "lon": -91.4626179,
      "tags": {
        "ele": "20",
        "gnis:feature_id": "548794",
        "name": "Cool Coosa",
        "place": "hamlet"
      }
    },
    {
      "type": "node",
      "id": 151333412,
      "lat": 30.0074255,
      "lon": -91.8390067,
      "tags": {
        "ele": "6",
        "gnis:feature_id": "546457",
        "name": "Georgetown",
        "place": "hamlet"
      }
    },
    {
      "type": "node",
      "id": 151333423,
      "lat": 30.4085249,
      "lon": -91.0431589,
      "tags": {
        "ele": "14",
        "gnis:feature_id": "559140",
        "name": "Parkview East",
        "place": "hamlet"
      }
    },
    {
      "type": "node",
      "id": 151333903,
      "lat": 29.730211,
      "lon": -90.3325798,
      "tags": {
        "ele": "0",
        "gnis:feature_id": "560410",
        "name": "Chaudiere Casse",
        "place": "hamlet"
      }
    },
    {
      "type": "node",
      "id": 151334042,
      "lat": 31.1362951,
      "lon": -93.2690537,
      "tags": {
        "ele": "83",
        "gnis:feature_id": "549991",
        "name": "Dixie",
        "place": "hamlet"
      }
    },
    {
      "type": "node",
      "id": 151334050,
      "lat": 29.9443691,
      "lon": -91.0237103,
      "tags": {
        "ele": "6",
        "gnis:feature_id": "543609",
        "name": "Ratliff",
        "place": "hamlet"
      }
    },
    {
      "type": "node",
      "id": 151334056,
      "lat": 30.7185183,
      "lon": -91.5384481,
      "tags": {
        "ele": "9",
        "gnis:feature_id": "546272",
        "name": "Seibert",
        "place": "hamlet"
      }
    },
    {
      "type": "node",
      "id": 151334063,
      "lat": 31.1485178,
      "lon": -92.8465402,
      "tags": {
        "ele": "72",
        "gnis:feature_id": "555010",
        "name": "Leander",
        "place": "hamlet"
      }
    },
    {
      "type": "node",
      "id": 151334068,
      "lat": 30.9335146,
      "lon": -91.7048402,
      "tags": {
        "ele": "12",
        "gnis:feature_id": "555026",
        "name": "Lettsworth",
        "place": "hamlet"
      }
    },
    {
      "type": "node",
      "id": 151334079,
      "lat": 32.3857112,
      "lon": -93.8018471,
      "tags": {
        "ele": "59",
        "gnis:feature_id": "552180",
        "name": "Southport Country",
        "place": "hamlet"
      }
    },
    {
      "type": "node",
      "id": 151334085,
      "lat": 32.43821,
      "lon": -93.8599036,
      "tags": {
        "ele": "70",
        "gnis:feature_id": "552183",
        "name": "Steeple Chase",
        "place": "hamlet"
      }
    },
    {
      "type": "node",
      "id": 151334092,
      "lat": 29.9121475,
      "lon": -91.0564888,
      "tags": {
        "ele": "3",
        "gnis:feature_id": "556422",
        "name": "Wildwood",
        "place": "hamlet"
      }
    },
    {
      "type": "node",
      "id": 151334098,
      "lat": 29.6868753,
      "lon": -91.1542686,
      "tags": {
        "ele": "2",
        "gnis:feature_id": "560908",
        "name": "Greenwood",
        "place": "hamlet"
      }
    },
    {
      "type": "node",
      "id": 151334105,
      "lat": 30.4426907,
      "lon": -91.030381,
      "tags": {
        "ele": "13",
        "gnis:feature_id": "559204",
        "name": "Sherwood Manor",
        "place": "hamlet"
      }
    },
    {
      "type": "node",
      "id": 151334110,
      "lat": 30.7782385,
      "lon": -91.2670544,
      "tags": {
        "ele": "35",
        "gnis:feature_id": "543221",
        "name": "Freeland",
        "place": "hamlet"
      }
    },
    {
      "type": "node",
      "id": 151334116,
      "lat": 30.2788058,
      "lon": -91.1306605,
      "tags": {
        "ele": "7",
        "gnis:feature_id": "558326",
        "name": "Sunshine",
        "place": "hamlet"
      }
    },
    {
      "type": "node",
      "id": 151334266,
      "lat": 30.4868564,
      "lon": -90.9562125,
      "tags": {
        "ele": "43",
        "gnis:feature_id": "554225",
        "name": "Denham Springs",
        "name:fr": "Denham Springs",
        "name:frc": "Denham Springs",
        "place": "town",
        "population": "10215",
        "postal_code": "70726",
        "website": "https://www.cityofdenhamsprings.com/",
        "wikidata": "Q2777726",
        "wikipedia": "en:Denham Springs, Louisiana"
      }
    },
    {
      "type": "node",
      "id": 151334330,
      "lat": 30.3924142,
      "lon": -91.1501061,
      "tags": {
        "ele": "12",
        "gnis:feature_id": "543097",
        "name": "College Hills",
        "place": "hamlet"
      }
    },
    {
      "type": "node",
      "id": 151334339,
      "lat": 30.6185322,
      "lon": -93.4251669,
      "tags": {
        "ele": "35",
        "gnis:feature_id": "543347",
        "name": "Juanita",
        "place": "hamlet"
      }
    },
    {
      "type": "node",
      "id": 151334344,
      "lat": 32.4023774,
      "lon": -93.814625,
      "tags": {
        "ele": "67",
        "gnis:feature_id": "543707",
        "name": "Summer Grove",
        "place": "hamlet"
      }
    },
    {
      "type": "node",
      "id": 151334428,
      "lat": 30.6763084,
      "lon": -92.7348679,
      "tags": {
        "ele": "26",
        "gnis:feature_id": "545436",
        "name": "Canton",
        "place": "hamlet"
      }
    },
    {
      "type": "node",
      "id": 151334442,
      "lat": 32.3930515,
      "lon": -91.1756126,
      "tags": {
        "ele": "23",
        "gnis:feature_id": "549262",
        "name": "Richmond",
        "place": "village",
        "population": "511",
        "population:date": "2020",
        "source:population": "US Census",
        "wikidata": "Q3007162",
        "wikipedia": "en:Richmond, Louisiana"
      }
    },
    {
      "type": "node",
      "id": 151334471,
      "lat": 31.7412811,
      "lon": -92.3870841,
      "tags": {
        "ele": "22",
        "gnis:feature_id": "547983",
        "name": "Selma",
        "place": "hamlet"
      }
    },
    {
      "type": "node",
      "id": 151334490,
      "lat": 32.5734832,
      "lon": -93.6376766,
      "tags": {
        "ele": "52",
        "gnis:feature_id": "550791",
        "name": "Brookhaven Estates",
        "place": "hamlet"
      }
    },
    {
      "type": "node",
      "id": 151334498,
      "lat": 32.602371,
      "lon": -93.863514,
      "tags": {
        "ele": "75",
        "gnis:feature_id": "552318",
        "name": "Indian Hills Estates",
        "place": "hamlet"
      }
    },
    {
      "type": "node",
      "id": 151334632,
      "lat": 30.4021277,
      "lon": -91.0903365,
      "tags": {
        "ele": "9",
        "gnis:feature_id": "559032",
        "name": "Inniswold Estates",
        "place": "hamlet"
      }
    },
    {
      "type": "node",
      "id": 151334851,
      "lat": 29.7124309,
      "lon": -91.46261,
      "tags": {
        "ele": "2",
        "gnis:feature_id": "1628827",
        "name": "Maryland",
        "name:ta": "மேரிலாந்து",
        "place": "hamlet"
      }
    },
    {
      "type": "node",
      "id": 151334999,
      "lat": 31.1157418,
      "lon": -92.6901451,
      "tags": {
        "ele": "67",
        "gnis:feature_id": "551704",
        "name": "Elmelhine",
        "place": "hamlet"
      }
    },
    {
      "type": "node",
      "id": 151335594,
      "lat": 32.9209624,
      "lon": -91.9431851,
      "tags": {
        "ele": "31",
        "gnis:feature_id": "546935",
        "name": "Stevenson",
        "place": "hamlet"
      }
    },
    {
      "type": "node",
      "id": 151335675,
      "lat": 32.5943069,
      "lon": -91.9784638,
      "tags": {
        "ele": "30",
        "gnis:feature_id": "548325",
        "name": "County Acres",
        "place": "hamlet"
      }
    },
    {
      "type": "node",
      "id": 151335687,
      "lat": 30.3896365,
      "lon": -91.1464949,
      "tags": {
        "ele": "11",
        "gnis:feature_id": "559297",
        "name": "Woodstone Estates",
        "place": "hamlet"
      }
    },
    {
      "type": "node",
      "id": 151335836,
      "lat": 29.9449261,
      "lon": -91.7081712,
      "tags": {
        "ele": "5",
        "gnis:feature_id": "543311",
        "name": "Hope",
        "place": "hamlet"
      }
    },
    {
      "type": "node",
      "id": 151335906,
      "lat": 30.3990807,
      "lon": -91.0176026,
      "tags": {
        "ele": "12",
        "gnis:feature_id": "542678",
        "name": "Woodlawn",
        "place": "hamlet"
      }
    },
    {
      "type": "node",
      "id": 151335914,
      "lat": 32.5784748,
      "lon": -92.0742999,
      "tags": {
        "ele": "24",
        "gnis:feature_id": "548506",
        "name": "Northside Terrace",
        "place": "hamlet"
      }
    },
    {
      "type": "node",
      "id": 151335919,
      "lat": 32.6631979,
      "lon": -92.3737528,
      "tags": {
        "ele": "61",
        "gnis:feature_id": "548732",
        "name": "Terrals",
        "place": "hamlet"
      }
    },
    {
      "type": "node",
      "id": 151335932,
      "lat": 32.9873628,
      "lon": -93.0334953,
      "tags": {
        "ele": "77",
        "gnis:feature_id": "547407",
        "name": "Gordon",
        "place": "hamlet"
      }
    },
    {
      "type": "node",
      "id": 151335968,
      "lat": 29.3888318,
      "lon": -90.7139785,
      "tags": {
        "ele": "1",
        "gnis:feature_id": "554296",
        "name": "Dulac",
        "place": "hamlet"
      }
    },
    {
      "type": "node",
      "id": 151335976,
      "lat": 30.3013704,
      "lon": -93.1909374,
      "tags": {
        "ele": "7",
        "gnis:feature_id": "543491",
        "name": "Moss Bluff",
        "place": "hamlet"
      }
    },
    {
      "type": "node",
      "id": 151335978,
      "lat": 30.4929673,
      "lon": -91.0870494,
      "tags": {
        "ele": "14",
        "gnis:feature_id": "543709",
        "name": "Sunnybrook",
        "place": "hamlet"
      }
    },
    {
      "type": "node",
      "id": 151335983,
      "lat": 32.3812665,
      "lon": -93.7215676,
      "tags": {
        "ele": "63",
        "gnis:feature_id": "552303",
        "name": "Harwick Place",
        "place": "hamlet"
      }
    },
    {
      "type": "node",
      "id": 151335993,
      "lat": 30.4567744,
      "lon": -91.1240878,
      "tags": {
        "ele": "16",
        "gnis:feature_id": "559087",
        "name": "Melrose East",
        "place": "hamlet"
      }
    },
    {
      "type": "node",
      "id": 151335997,
      "lat": 30.0210354,
      "lon": -90.7525922,
      "tags": {
        "ele": "3",
        "gnis:feature_id": "560146",
        "name": "Bend",
        "place": "hamlet"
      }
    },
    {
      "type": "node",
      "id": 151336005,
      "lat": 30.3654705,
      "lon": -91.1287164,
      "tags": {
        "ele": "5",
        "gnis:feature_id": "559364",
        "name": "Bayou Fountain",
        "place": "hamlet"
      }
    },
    {
      "type": "node",
      "id": 151336306,
      "lat": 31.7929411,
      "lon": -91.5792885,
      "tags": {
        "ele": "20",
        "gnis:feature_id": "543258",
        "name": "Greenville",
        "place": "hamlet"
      }
    },
    {
      "type": "node",
      "id": 151336381,
      "lat": 32.3923731,
      "lon": -92.4240323,
      "tags": {
        "ele": "63",
        "gnis:feature_id": "534834",
        "name": "Eros",
        "place": "village",
        "population": "205",
        "population:date": "2006",
        "source:population": "US Census"
      }
    },
    {
      "type": "node",
      "id": 151336387,
      "lat": 31.6301664,
      "lon": -91.5545649,
      "tags": {
        "ele": "16",
        "gnis:feature_id": "534940",
        "name": "Ferriday",
        "place": "town",
        "population": "3611",
        "population:date": "2006",
        "source:population": "US Census"
      }
    },
    {
      "type": "node",
      "id": 151336824,
      "lat": 32.9443039,
      "lon": -93.6976763,
      "tags": {
        "ele": "108",
        "gnis:feature_id": "543004",
        "name": "Bolinger",
        "place": "hamlet"
      }
    },
    {
      "type": "node",
      "id": 151337135,
      "lat": 32.4584817,
      "lon": -92.359308,
      "tags": {
        "ele": "45",
        "gnis:feature_id": "541145",
        "name": "Mineral Springs",
        "place": "hamlet"
      }
    },
    {
      "type": "node",
      "id": 151337357,
      "lat": 29.7202083,
      "lon": -91.4412205,
      "tags": {
        "ele": "3",
        "gnis:feature_id": "1628829",
        "name": "Balco",
        "place": "hamlet"
      }
    },
    {
      "type": "node",
      "id": 151337552,
      "lat": 29.7707791,
      "lon": -93.4593223,
      "tags": {
        "ele": "2",
        "gnis:feature_id": "543303",
        "name": "Holly Beach",
        "name:fr": "La Plaï Holly",
        "name:frc": "La Plaï Holly",
        "place": "hamlet"
      }
    },
    {
      "type": "node",
      "id": 151337571,
      "lat": 31.8959985,
      "lon": -92.4879217,
      "tags": {
        "ele": "36",
        "gnis:feature_id": "543502",
        "name": "Murray Junction",
        "place": "hamlet"
      }
    },
    {
      "type": "node",
      "id": 151337577,
      "lat": 32.5693167,
      "lon": -93.7899018,
      "tags": {
        "ele": "61",
        "gnis:feature_id": "543534",
        "name": "North Highlands",
        "place": "hamlet"
      }
    },
    {
      "type": "node",
      "id": 151337785,
      "lat": 32.3573674,
      "lon": -91.0698302,
      "tags": {
        "ele": "27",
        "gnis:feature_id": "539888",
        "name": "Thomastown",
        "place": "hamlet"
      }
    },
    {
      "type": "node",
      "id": 151337886,
      "lat": 31.7323868,
      "lon": -93.0409957,
      "tags": {
        "ele": "35",
        "gnis:feature_id": "549580",
        "name": "Vienna Bend",
        "place": "hamlet"
      }
    },
    {
      "type": "node",
      "id": 151337893,
      "lat": 29.8846502,
      "lon": -90.0361821,
      "tags": {
        "ele": "-1",
        "gnis:feature_id": "559305",
        "name": "Bellemeade",
        "place": "hamlet"
      }
    },
    {
      "type": "node",
      "id": 151337951,
      "lat": 30.3388048,
      "lon": -90.8631534,
      "tags": {
        "ele": "5",
        "gnis:feature_id": "543089",
        "name": "Claybank",
        "place": "hamlet"
      }
    },
    {
      "type": "node",
      "id": 151337958,
      "lat": 32.590151,
      "lon": -93.2046108,
      "tags": {
        "ele": "116",
        "gnis:feature_id": "537681",
        "name": "Nine Forks",
        "place": "hamlet"
      }
    },
    {
      "type": "node",
      "id": 151337966,
      "lat": 31.6896167,
      "lon": -93.6840713,
      "tags": {
        "ele": "82",
        "gnis:feature_id": "537692",
        "name": "Noble",
        "place": "village",
        "population": "269",
        "population:date": "2006",
        "source:population": "US Census"
      }
    },
    {
      "type": "node",
      "id": 151337972,
      "lat": 32.5604282,
      "lon": -93.5671195,
      "tags": {
        "ele": "77",
        "gnis:feature_id": "550852",
        "name": "Merrywoods",
        "place": "hamlet"
      }
    },
    {
      "type": "node",
      "id": 151337978,
      "lat": 30.5043583,
      "lon": -90.4611995,
      "tags": {
        "ele": "13",
        "gnis:feature_id": "554653",
        "name": "Hammond",
        "place": "town",
        "population": "19134",
        "population:date": "2006",
        "source:population": "US Census",
        "wikidata": "Q1014071",
        "wikipedia": "en:Hammond, Louisiana"
      }
    },
    {
      "type": "node",
      "id": 151337987,
      "lat": 30.1157539,
      "lon": -91.1903826,
      "tags": {
        "ele": "3",
        "gnis:feature_id": "543243",
        "name": "Goldridge",
        "place": "hamlet"
      }
    },
    {
      "type": "node",
      "id": 151337992,
      "lat": 32.9420811,
      "lon": -93.8890681,
      "tags": {
        "ele": "69",
        "gnis:feature_id": "543476",
        "name": "Mira",
        "place": "hamlet"
      }
    },
    {
      "type": "node",
      "id": 151337998,
      "lat": 29.6793793,
      "lon": -90.4625836,
      "tags": {
        "ele": "1",
        "gnis:feature_id": "554527",
        "name": "Gheens",
        "name:fr": "Greens-Vacherie",
        "name:frc": "Greens-Vacherie",
        "place": "hamlet"
      }
    },
    {
      "type": "node",
      "id": 151338418,
      "lat": 30.6610193,
      "lon": -91.290388,
      "tags": {
        "ele": "27",
        "gnis:feature_id": "543597",
        "name": "Port Hickey",
        "place": "hamlet"
      }
    },
    {
      "type": "node",
      "id": 151338570,
      "lat": 30.5229666,
      "lon": -91.1223282,
      "tags": {
        "ele": "19",
        "gnis:feature_id": "559103",
        "name": "Myrick Place",
        "place": "hamlet"
      }
    },
    {
      "type": "node",
      "id": 151338577,
      "lat": 30.3990807,
      "lon": -91.0431588,
      "tags": {
        "ele": "13",
        "gnis:feature_id": "559141",
        "name": "Parkview Oaks South",
        "place": "hamlet"
      }
    },
    {
      "type": "node",
      "id": 151338587,
      "lat": 30.5301887,
      "lon": -91.1264951,
      "tags": {
        "ele": "19",
        "gnis:feature_id": "558920",
        "name": "Cedar Glen",
        "place": "hamlet"
      }
    },
    {
      "type": "node",
      "id": 151338626,
      "lat": 30.317144,
      "lon": -92.0490096,
      "tags": {
        "ele": "12",
        "gnis:feature_id": "558186",
        "name": "Carencro",
        "place": "town",
        "population": "6434",
        "population:date": "2006",
        "source:population": "US Census",
        "wikidata": "Q729559"
      }
    },
    {
      "type": "node",
      "id": 151338767,
      "lat": 32.3312659,
      "lon": -92.8040434,
      "tags": {
        "ele": "91",
        "gnis:feature_id": "555396",
        "name": "Mount Olive",
        "place": "hamlet"
      }
    },
    {
      "type": "node",
      "id": 151339149,
      "lat": 30.2262187,
      "lon": -92.0178202,
      "tags": {
        "capital": "6",
        "ele": "11",
        "gnis:feature_id": "1629965",
        "name": "Lafayette",
        "name:bn": "লাফায়েট",
        "name:en": "Lafayette",
        "name:ru": "Лафайетт",
        "name:sr": "Лафајет",
        "place": "city",
        "population": "121324",
        "population:date": "2020",
        "wikidata": "Q128891",
        "wikipedia": "en:Lafayette, Louisiana"
      }
    },
    {
      "type": "node",
      "id": 151339533,
      "lat": 29.8585381,
      "lon": -90.9639862,
      "tags": {
        "ele": "5",
        "gnis:feature_id": "553933",
        "name": "Cedar Grove Plantation",
        "place": "hamlet"
      }
    },
    {
      "type": "node",
      "id": 151339540,
      "lat": 32.8301305,
      "lon": -91.4406721,
      "tags": {
        "ele": "32",
        "gnis:feature_id": "540629",
        "name": "Green",
        "place": "hamlet"
      }
    },
    {
      "type": "node",
      "id": 151339544,
      "lat": 30.1793637,
      "lon": -91.1595491,
      "tags": {
        "ele": "7",
        "gnis:feature_id": "558207",
        "name": "Dorcyville",
        "place": "hamlet"
      }
    },
    {
      "type": "node",
      "id": 151339551,
      "lat": 31.900162,
      "lon": -93.1618328,
      "tags": {
        "ele": "47",
        "gnis:feature_id": "548937",
        "name": "Wood",
        "place": "hamlet"
      }
    },
    {
      "type": "node",
      "id": 151339554,
      "lat": 32.3351492,
      "lon": -92.0887458,
      "tags": {
        "ele": "22",
        "gnis:feature_id": "555128",
        "name": "Logtown",
        "place": "hamlet"
      }
    },
    {
      "type": "node",
      "id": 151339559,
      "lat": 29.9584869,
      "lon": -90.0729504,
      "tags": {
        "ele": "0",
        "gnis:feature_id": "549919",
        "name": "Storyville",
        "name:fr": "Storyville",
        "place": "hamlet",
        "wikidata": "Q1969858",
        "wikipedia": "en:Storyville, New Orleans"
      }
    },
    {
      "type": "node",
      "id": 151339584,
      "lat": 30.5199219,
      "lon": -93.0845991,
      "tags": {
        "ele": "24",
        "gnis:feature_id": "542973",
        "name": "Bel",
        "place": "hamlet"
      }
    },
    {
      "type": "node",
      "id": 151339603,
      "lat": 30.4968562,
      "lon": -91.1123279,
      "tags": {
        "ele": "16",
        "gnis:feature_id": "559285",
        "name": "Windfall",
        "place": "hamlet"
      }
    },
    {
      "type": "node",
      "id": 151339841,
      "lat": 32.8867959,
      "lon": -91.4923401,
      "tags": {
        "ele": "30",
        "gnis:feature_id": "543204",
        "name": "Fiske",
        "place": "hamlet"
      }
    },
    {
      "type": "node",
      "id": 151339973,
      "lat": 31.1637948,
      "lon": -92.9145984,
      "tags": {
        "ele": "79",
        "gnis:feature_id": "554959",
        "name": "Lacamp",
        "place": "hamlet"
      }
    },
    {
      "type": "node",
      "id": 151340275,
      "lat": 29.4430567,
      "lon": -90.3002059,
      "tags": {
        "ele": "1",
        "gnis:feature_id": "543225",
        "name": "Galliano",
        "name:fr": "Galianne",
        "name:frc": "Galianne",
        "place": "village"
      }
    },
    {
      "type": "node",
      "id": 151340305,
      "lat": 30.0460351,
      "lon": -90.6564786,
      "tags": {
        "ele": "5",
        "gnis:feature_id": "1629345",
        "name": "Willow Grove",
        "place": "hamlet"
      }
    },
    {
      "type": "node",
      "id": 151340328,
      "lat": 32.5489683,
      "lon": -92.9217754,
      "tags": {
        "capital": "6",
        "ele": "117",
        "gnis:feature_id": "1629912",
        "name": "Arcadia",
        "place": "town",
        "population": "2746",
        "population:date": "2020",
        "source:population": "US Census",
        "wikidata": "Q2251757",
        "wikipedia": "en:Arcadia, Louisiana"
      }
    },
    {
      "type": "node",
      "id": 151340386,
      "lat": 30.1079768,
      "lon": -90.942876,
      "tags": {
        "ele": "5",
        "gnis:feature_id": "532068",
        "name": "Aben",
        "place": "hamlet"
      }
    },
    {
      "type": "node",
      "id": 151340706,
      "lat": 30.9515794,
      "lon": -92.0209538,
      "tags": {
        "ele": "14",
        "gnis:feature_id": "543291",
        "name": "Hickory",
        "place": "hamlet"
      }
    },
    {
      "type": "node",
      "id": 151340855,
      "lat": 30.1588114,
      "lon": -91.8087266,
      "tags": {
        "ele": "6",
        "gnis:feature_id": "1628124",
        "name": "Saint John",
        "name:fr": "Saint-Jean",
        "name:frc": "Saint-Jean",
        "place": "hamlet"
      }
    },
    {
      "type": "node",
      "id": 151340869,
      "lat": 32.4429324,
      "lon": -93.9729615,
      "tags": {
        "ele": "76",
        "gnis:feature_id": "535409",
        "name": "Greenwood",
        "place": "village",
        "population": "3166",
        "population:date": "2020",
        "source:population": "US Census"
      }
    },
    {
      "type": "node",
      "id": 151340877,
      "lat": 32.6787503,
      "lon": -92.2031922,
      "tags": {
        "ele": "49",
        "gnis:feature_id": "538669",
        "name": "Rocky Branch",
        "place": "hamlet"
      }
    },
    {
      "type": "node",
      "id": 151340892,
      "lat": 31.4082354,
      "lon": -92.4845836,
      "tags": {
        "ele": "41",
        "gnis:feature_id": "551790",
        "name": "Timber Trails",
        "place": "hamlet"
      }
    },
    {
      "type": "node",
      "id": 151340898,
      "lat": 32.1204366,
      "lon": -92.8959903,
      "tags": {
        "ele": "67",
        "gnis:feature_id": "556608",
        "name": "Pine Ridge",
        "place": "hamlet"
      }
    },
    {
      "type": "node",
      "id": 151340904,
      "lat": 32.3862667,
      "lon": -93.7910134,
      "tags": {
        "ele": "60",
        "gnis:feature_id": "552165",
        "name": "Ridgewood",
        "place": "hamlet"
      }
    },
    {
      "type": "node",
      "id": 151340941,
      "lat": 31.6243396,
      "lon": -92.0417981,
      "tags": {
        "ele": "27",
        "gnis:feature_id": "556410",
        "name": "Whitehall",
        "place": "hamlet"
      }
    },
    {
      "type": "node",
      "id": 151341049,
      "lat": 31.7129486,
      "lon": -92.3962507,
      "tags": {
        "ele": "18",
        "gnis:feature_id": "547765",
        "name": "Mudville",
        "place": "hamlet"
      }
    },
    {
      "type": "node",
      "id": 151341052,
      "lat": 31.9982129,
      "lon": -91.6198454,
      "tags": {
        "ele": "23",
        "gnis:feature_id": "543547",
        "name": "Oakley",
        "place": "hamlet"
      }
    },
    {
      "type": "node",
      "id": 151341063,
      "lat": 30.8147872,
      "lon": -92.6564081,
      "tags": {
        "ele": "35",
        "gnis:feature_id": "537798",
        "name": "Oakdale",
        "place": "town",
        "population": "6692",
        "population:date": "2020",
        "source:population": "https://www.census.gov/quickfacts/fact/table/oakdalecitylouisiana/POP010220",
        "wikidata": "Q2008489",
        "wikipedia": "en:Oakdale, Louisiana"
      }
    },
    {
      "type": "node",
      "id": 151341069,
      "lat": 32.5834745,
      "lon": -92.0654107,
      "tags": {
        "ele": "24",
        "gnis:feature_id": "548622",
        "name": "Treasure Island",
        "place": "hamlet"
      }
    },
    {
      "type": "node",
      "id": 151341084,
      "lat": 30.984345,
      "lon": -90.9767696,
      "tags": {
        "ele": "105",
        "gnis:feature_id": "541198",
        "name": "Teddy",
        "place": "hamlet"
      }
    },
    {
      "type": "node",
      "id": 151341089,
      "lat": 30.391582,
      "lon": -91.3212204,
      "tags": {
        "ele": "3",
        "gnis:feature_id": "542229",
        "name": "Morley",
        "place": "hamlet"
      }
    },
    {
      "type": "node",
      "id": 151341105,
      "lat": 30.4793566,
      "lon": -91.1217726,
      "tags": {
        "ele": "16",
        "gnis:feature_id": "559256",
        "name": "Victoria Garden",
        "place": "hamlet"
      }
    },
    {
      "type": "node",
      "id": 151341134,
      "lat": 30.7829635,
      "lon": -90.1234164,
      "tags": {
        "ele": "41",
        "gnis:feature_id": "559704",
        "name": "Pine Cliff",
        "place": "hamlet"
      }
    },
    {
      "type": "node",
      "id": 151341385,
      "lat": 30.6926971,
      "lon": -92.3981875,
      "tags": {
        "ele": "21",
        "gnis:feature_id": "540166",
        "name": "Vidrine",
        "place": "hamlet"
      }
    },
    {
      "type": "node",
      "id": 151341609,
      "lat": 30.6838035,
      "lon": -91.9034489,
      "tags": {
        "ele": "10",
        "gnis:feature_id": "1628056",
        "name": "Rideau Settlement",
        "place": "hamlet"
      }
    },
    {
      "type": "node",
      "id": 151341720,
      "lat": 30.3252026,
      "lon": -92.4079103,
      "tags": {
        "ele": "9",
        "gnis:feature_id": "543453",
        "name": "Maxie",
        "place": "hamlet"
      }
    },
    {
      "type": "node",
      "id": 151341725,
      "lat": 30.8685178,
      "lon": -90.0031367,
      "tags": {
        "ele": "68",
        "gnis:feature_id": "556022",
        "name": "Sheridan",
        "place": "hamlet"
      }
    },
    {
      "type": "node",
      "id": 151341731,
      "lat": 30.6871312,
      "lon": -90.5078699,
      "tags": {
        "ele": "28",
        "gnis:feature_id": "543664",
        "name": "Shiloh",
        "place": "hamlet"
      }
    },
    {
      "type": "node",
      "id": 151341762,
      "lat": 31.3904583,
      "lon": -92.2298536,
      "tags": {
        "ele": "24",
        "gnis:feature_id": "541109",
        "name": "Holloway",
        "place": "hamlet"
      }
    },
    {
      "type": "node",
      "id": 151341770,
      "lat": 29.9485386,
      "lon": -91.9653989,
      "tags": {
        "ele": "2",
        "gnis:feature_id": "543001",
        "name": "Bob Acres",
        "place": "hamlet"
      }
    },
    {
      "type": "node",
      "id": 151341778,
      "lat": 30.6910304,
      "lon": -92.6129185,
      "tags": {
        "ele": "27",
        "gnis:feature_id": "543007",
        "name": "Bond",
        "place": "hamlet"
      }
    },
    {
      "type": "node",
      "id": 151341783,
      "lat": 32.0123843,
      "lon": -93.4796207,
      "tags": {
        "ele": "52",
        "gnis:feature_id": "541212",
        "name": "Wemple",
        "place": "hamlet"
      }
    },
    {
      "type": "node",
      "id": 151341789,
      "lat": 31.4376763,
      "lon": -92.6776473,
      "tags": {
        "ele": "28",
        "gnis:feature_id": "545765",
        "name": "Fairmount",
        "place": "hamlet"
      }
    },
    {
      "type": "node",
      "id": 151341847,
      "lat": 30.4785257,
      "lon": -90.0375755,
      "tags": {
        "ele": "9",
        "gnis:feature_id": "559753",
        "name": "Abita Springs",
        "place": "town",
        "population": "2318",
        "population:date": "2006",
        "source:population": "US Census",
        "wikidata": "Q3193360"
      }
    },
    {
      "type": "node",
      "id": 151341856,
      "lat": 29.9790934,
      "lon": -91.9412315,
      "tags": {
        "ele": "2",
        "gnis:feature_id": "555018",
        "name": "Leleux",
        "place": "hamlet"
      }
    },
    {
      "type": "node",
      "id": 151342195,
      "lat": 30.3824145,
      "lon": -91.1376057,
      "tags": {
        "ele": "13",
        "gnis:feature_id": "559017",
        "name": "Highland Park Heights",
        "place": "hamlet"
      }
    },
    {
      "type": "node",
      "id": 151342482,
      "lat": 30.0457559,
      "lon": -90.9884322,
      "tags": {
        "ele": "3",
        "gnis:feature_id": "553798",
        "name": "Brulie Maurin",
        "place": "hamlet"
      }
    },
    {
      "type": "node",
      "id": 151342489,
      "lat": 29.5427168,
      "lon": -90.3381361,
      "tags": {
        "ele": "2",
        "gnis:feature_id": "554153",
        "name": "Cut Off",
        "name:fr": "La Coupe",
        "name:frc": "La Coupe",
        "place": "village"
      }
    },
    {
      "type": "node",
      "id": 151342850,
      "lat": 31.6832271,
      "lon": -92.1337448,
      "tags": {
        "capital": "6",
        "ele": "51",
        "gnis:feature_id": "1629960",
        "name": "Jena",
        "place": "town",
        "population": "2867",
        "population:date": "2006",
        "source:population": "US Census",
        "wikidata": "Q1017042",
        "wikipedia": "en:Jena, Louisiana"
      }
    },
    {
      "type": "node",
      "id": 151342963,
      "lat": 32.2818252,
      "lon": -93.8240703,
      "tags": {
        "ele": "65",
        "gnis:feature_id": "543704",
        "name": "Stonewall",
        "place": "village",
        "population": "2273",
        "population:date": "2020",
        "source:population": "US Census"
      }
    },
    {
      "type": "node",
      "id": 151342976,
      "lat": 32.022941,
      "lon": -93.6896263,
      "tags": {
        "ele": "97",
        "gnis:feature_id": "545633",
        "name": "Highland Park",
        "place": "hamlet"
      }
    },
    {
      "type": "node",
      "id": 151343012,
      "lat": 30.7249198,
      "lon": -91.9710333,
      "tags": {
        "ele": "11",
        "gnis:feature_id": "552614",
        "name": "Immaculata",
        "place": "hamlet"
      }
    },
    {
      "type": "node",
      "id": 151343024,
      "lat": 29.7671535,
      "lon": -90.7659249,
      "tags": {
        "ele": "4",
        "gnis:feature_id": "554967",
        "name": "Lafourche",
        "place": "hamlet"
      }
    },
    {
      "type": "node",
      "id": 151343068,
      "lat": 29.9107615,
      "lon": -90.356747,
      "tags": {
        "ele": "3",
        "gnis:feature_id": "552929",
        "name": "Kellogg",
        "place": "hamlet"
      }
    },
    {
      "type": "node",
      "id": 151343104,
      "lat": 32.993192,
      "lon": -93.4596171,
      "tags": {
        "ele": "70",
        "gnis:feature_id": "544467",
        "name": "White Way Subdivision",
        "place": "hamlet"
      }
    },
    {
      "type": "node",
      "id": 151343115,
      "lat": 31.2110159,
      "lon": -92.8082059,
      "tags": {
        "ele": "55",
        "gnis:feature_id": "556042",
        "name": "Sieper",
        "place": "hamlet"
      }
    },
    {
      "type": "node",
      "id": 151343132,
      "lat": 30.4650346,
      "lon": -91.0606082,
      "tags": {
        "ele": "16",
        "gnis:feature_id": "559125",
        "name": "Oakwood",
        "place": "hamlet"
      }
    },
    {
      "type": "node",
      "id": 151344022,
      "lat": 30.1988185,
      "lon": -93.679886,
      "tags": {
        "ele": "1",
        "gnis:feature_id": "543523",
        "name": "Niblett Bluff",
        "place": "hamlet"
      }
    },
    {
      "type": "node",
      "id": 151344115,
      "lat": 31.4410122,
      "lon": -92.4212486,
      "tags": {
        "ele": "50",
        "gnis:feature_id": "547781",
        "name": "Nugent",
        "place": "hamlet"
      }
    },
    {
      "type": "node",
      "id": 151344134,
      "lat": 32.080993,
      "lon": -92.486812,
      "tags": {
        "ele": "52",
        "gnis:feature_id": "539368",
        "name": "Sikes",
        "place": "hamlet",
        "population": "113",
        "population:date": "2006",
        "source:population": "US Census"
      }
    },
    {
      "type": "node",
      "id": 151344146,
      "lat": 32.1034869,
      "lon": -91.433451,
      "tags": {
        "ele": "11",
        "gnis:feature_id": "555492",
        "name": "Newlight",
        "place": "hamlet"
      }
    },
    {
      "type": "node",
      "id": 151344389,
      "lat": 30.4843661,
      "lon": -93.3232169,
      "tags": {
        "ele": "21",
        "gnis:feature_id": "543248",
        "name": "Gordon",
        "place": "hamlet"
      }
    },
    {
      "type": "node",
      "id": 151344399,
      "lat": 30.9914626,
      "lon": -91.8406797,
      "tags": {
        "ele": "14",
        "gnis:feature_id": "543799",
        "name": "Yellow Bayou",
        "place": "hamlet"
      }
    },
    {
      "type": "node",
      "id": 151344450,
      "lat": 31.9748798,
      "lon": -91.3923389,
      "tags": {
        "ele": "22",
        "gnis:feature_id": "542938",
        "name": "Ashland",
        "place": "hamlet"
      }
    },
    {
      "type": "node",
      "id": 151344896,
      "lat": 30.2613062,
      "lon": -91.2184404,
      "tags": {
        "ele": "5",
        "gnis:feature_id": "557101",
        "name": "Allemania",
        "place": "hamlet"
      }
    },
    {
      "type": "node",
      "id": 151344902,
      "lat": 30.579354,
      "lon": -91.0545488,
      "tags": {
        "ele": "22",
        "gnis:feature_id": "559111",
        "name": "Northeast Place",
        "place": "hamlet"
      }
    },
    {
      "type": "node",
      "id": 151344908,
      "lat": 30.4843565,
      "lon": -91.1164946,
      "tags": {
        "ele": "14",
        "gnis:feature_id": "559255",
        "name": "Victoria Farm",
        "place": "hamlet"
      }
    },
    {
      "type": "node",
      "id": 151345164,
      "lat": 32.4801537,
      "lon": -93.0765516,
      "tags": {
        "ele": "92",
        "gnis:feature_id": "540943",
        "name": "Pleasant Hill",
        "place": "hamlet"
      }
    },
    {
      "type": "node",
      "id": 151345176,
      "lat": 30.2171508,
      "lon": -93.1895976,
      "tags": {
        "ele": "4",
        "gnis:feature_id": "551343",
        "name": "Pine Acres Trailer Park",
        "place": "hamlet"
      }
    },
    {
      "type": "node",
      "id": 151345181,
      "lat": 32.2765871,
      "lon": -92.7163618,
      "tags": {
        "ele": "62",
        "gnis:feature_id": "541290",
        "name": "East Hodge",
        "place": "village",
        "population": "289",
        "wikidata": "Q2788895",
        "wikipedia": "en:East Hodge, Louisiana"
      }
    },
    {
      "type": "node",
      "id": 151345206,
      "lat": 30.5826876,
      "lon": -90.8709331,
      "tags": {
        "ele": "22",
        "gnis:feature_id": "552020",
        "name": "Friendship",
        "place": "hamlet"
      }
    },
    {
      "type": "node",
      "id": 151345249,
      "lat": 31.5683773,
      "lon": -93.4840608,
      "tags": {
        "capital": "6",
        "ele": "84",
        "gnis:feature_id": "1629973",
        "name": "Many",
        "place": "town",
        "population": "2790",
        "population:date": "2006",
        "source:population": "US Census"
      }
    },
    {
      "type": "node",
      "id": 151345361,
      "lat": 30.1252011,
      "lon": -91.8334498,
      "tags": {
        "capital": "6",
        "gnis:feature_id": "1630009",
        "name": "Saint Martinville",
        "name:azb": "سنت مارتینویل",
        "name:es": "Saint Martinville",
        "name:fr": "Saint-Martinville",
        "name:frc": "Saint-Martinville",
        "name:sr": "Сент Мартинвил",
        "name:uk": "Сент-Мартінвілл",
        "place": "town",
        "wikidata": "Q1987082",
        "wikipedia": "en:St. Martinville, Louisiana"
      }
    },
    {
      "type": "node",
      "id": 151345576,
      "lat": 31.5157291,
      "lon": -91.7720693,
      "tags": {
        "ele": "17",
        "gnis:feature_id": "541128",
        "name": "Lismore",
        "place": "hamlet"
      }
    },
    {
      "type": "node",
      "id": 151345608,
      "lat": 31.4937872,
      "lon": -93.4657301,
      "tags": {
        "ele": "105",
        "gnis:feature_id": "534963",
        "name": "Fisher",
        "place": "village",
        "population": "270",
        "population:date": "2006",
        "source:population": "US Census"
      }
    },
    {
      "type": "node",
      "id": 151345626,
      "lat": 30.4590793,
      "lon": -91.1528844,
      "tags": {
        "ele": "17",
        "gnis:feature_id": "558997",
        "name": "Greenville",
        "place": "hamlet"
      }
    },
    {
      "type": "node",
      "id": 151345634,
      "lat": 30.1813136,
      "lon": -92.1417913,
      "tags": {
        "ele": "9",
        "gnis:feature_id": "557323",
        "name": "Judice",
        "place": "hamlet"
      }
    },
    {
      "type": "node",
      "id": 151345642,
      "lat": 30.4301911,
      "lon": -91.1770514,
      "tags": {
        "ele": "16",
        "gnis:feature_id": "559213",
        "name": "South Baton Rouge",
        "place": "hamlet"
      }
    },
    {
      "type": "node",
      "id": 151345647,
      "lat": 30.4099138,
      "lon": -91.1567731,
      "tags": {
        "ele": "11",
        "gnis:feature_id": "559226",
        "name": "Stanford Place",
        "place": "hamlet"
      }
    },
    {
      "type": "node",
      "id": 151345726,
      "lat": 32.4195991,
      "lon": -93.8057359,
      "tags": {
        "ele": "79",
        "gnis:feature_id": "552130",
        "name": "Hickory Place",
        "place": "hamlet"
      }
    },
    {
      "type": "node",
      "id": 151346142,
      "lat": 29.9421491,
      "lon": -91.841785,
      "tags": {
        "ele": "2",
        "gnis:feature_id": "543593",
        "name": "Port of Iberia",
        "place": "hamlet"
      }
    },
    {
      "type": "node",
      "id": 151346148,
      "lat": 32.9126429,
      "lon": -92.8293247,
      "tags": {
        "ele": "70",
        "gnis:feature_id": "548053",
        "name": "Summerfield",
        "place": "hamlet"
      }
    },
    {
      "type": "node",
      "id": 151346850,
      "lat": 31.882388,
      "lon": -93.5860129,
      "tags": {
        "ele": "97",
        "gnis:feature_id": "538048",
        "name": "Pelican",
        "place": "hamlet"
      }
    },
    {
      "type": "node",
      "id": 151346854,
      "lat": 30.5618656,
      "lon": -93.4359995,
      "tags": {
        "ele": "36",
        "gnis:feature_id": "541186",
        "name": "Seale",
        "place": "hamlet"
      }
    },
    {
      "type": "node",
      "id": 151346861,
      "lat": 30.461302,
      "lon": -91.2748314,
      "tags": {
        "ele": "5",
        "gnis:feature_id": "543335",
        "name": "Ithra",
        "place": "hamlet"
      }
    },
    {
      "type": "node",
      "id": 151346881,
      "lat": 32.3029265,
      "lon": -91.894574,
      "tags": {
        "ele": "22",
        "gnis:feature_id": "543236",
        "name": "Gilleyville",
        "place": "hamlet"
      }
    },
    {
      "type": "node",
      "id": 151346893,
      "lat": 32.5320957,
      "lon": -93.7182338,
      "tags": {
        "ele": "52",
        "gnis:feature_id": "543299",
        "name": "Hinkle",
        "place": "hamlet"
      }
    },
    {
      "type": "node",
      "id": 151346903,
      "lat": 32.2620931,
      "lon": -91.5781767,
      "tags": {
        "ele": "28",
        "gnis:feature_id": "543415",
        "name": "Longview",
        "place": "hamlet"
      }
    },
    {
      "type": "node",
      "id": 151346916,
      "lat": 31.7609976,
      "lon": -91.5895665,
      "tags": {
        "ele": "12",
        "gnis:feature_id": "543454",
        "name": "Mayhew Landing",
        "place": "hamlet"
      }
    },
    {
      "type": "node",
      "id": 151346927,
      "lat": 30.9268581,
      "lon": -93.1154365,
      "tags": {
        "ele": "63",
        "gnis:feature_id": "547647",
        "name": "Markee",
        "place": "hamlet"
      }
    },
    {
      "type": "node",
      "id": 151346934,
      "lat": 32.8720384,
      "lon": -93.9855698,
      "tags": {
        "ele": "78",
        "gnis:feature_id": "543762",
        "name": "Vivian",
        "place": "town",
        "population": "3073",
        "population:date": "2020",
        "source:population": "US Census"
      }
    },
    {
      "type": "node",
      "id": 151346976,
      "lat": 30.5043558,
      "lon": -90.9998249,
      "tags": {
        "ele": "14",
        "gnis:feature_id": "558970",
        "name": "Evergreen Hills",
        "place": "hamlet"
      }
    },
    {
      "type": "node",
      "id": 151347341,
      "lat": 31.0549442,
      "lon": -91.5737728,
      "tags": {
        "ele": "17",
        "gnis:feature_id": "541165",
        "name": "Point Breeze",
        "place": "hamlet"
      }
    },
    {
      "type": "node",
      "id": 151347394,
      "lat": 30.2090962,
      "lon": -93.7209985,
      "tags": {
        "ele": "1",
        "gnis:feature_id": "1341905",
        "name": "Morgan Bluff",
        "place": "hamlet"
      }
    },
    {
      "type": "node",
      "id": 151347858,
      "lat": 30.4932454,
      "lon": -91.2537205,
      "tags": {
        "ele": "8",
        "gnis:feature_id": "551045",
        "name": "Lida Grove",
        "place": "hamlet"
      }
    },
    {
      "type": "node",
      "id": 151347957,
      "lat": 32.3170988,
      "lon": -92.6887623,
      "tags": {
        "ele": "92",
        "gnis:feature_id": "542263",
        "name": "Antioch",
        "place": "hamlet"
      }
    },
    {
      "type": "node",
      "id": 151347967,
      "lat": 30.5049135,
      "lon": -90.533146,
      "tags": {
        "ele": "12",
        "gnis:feature_id": "532308",
        "name": "Baptist",
        "place": "hamlet"
      }
    },
    {
      "type": "node",
      "id": 151348007,
      "lat": 31.6957269,
      "lon": -92.1787457,
      "tags": {
        "ele": "62",
        "gnis:feature_id": "543737",
        "name": "Trout",
        "place": "hamlet"
      }
    },
    {
      "type": "node",
      "id": 151348023,
      "lat": 30.5418552,
      "lon": -91.1978859,
      "tags": {
        "ele": "21",
        "gnis:feature_id": "558943",
        "name": "Crestworth",
        "place": "hamlet"
      }
    },
    {
      "type": "node",
      "id": 151348093,
      "lat": 32.588761,
      "lon": -93.4326722,
      "tags": {
        "ele": "69",
        "gnis:feature_id": "541100",
        "name": "Goodwill",
        "place": "hamlet"
      }
    },
    {
      "type": "node",
      "id": 151348104,
      "lat": 31.3574037,
      "lon": -92.1654076,
      "tags": {
        "ele": "23",
        "gnis:feature_id": "543143",
        "name": "Deville",
        "place": "hamlet"
      }
    },
    {
      "type": "node",
      "id": 151348114,
      "lat": 31.6104479,
      "lon": -91.7376253,
      "tags": {
        "ele": "18",
        "gnis:feature_id": "541579",
        "name": "Athlone",
        "place": "hamlet"
      }
    },
    {
      "type": "node",
      "id": 151348124,
      "lat": 31.0035134,
      "lon": -91.722897,
      "tags": {
        "ele": "15",
        "gnis:feature_id": "546241",
        "name": "Merrick",
        "place": "hamlet"
      }
    },
    {
      "type": "node",
      "id": 151348165,
      "lat": 32.400711,
      "lon": -93.8515703,
      "tags": {
        "ele": "58",
        "gnis:feature_id": "552162",
        "name": "Pine Forest South",
        "place": "hamlet"
      }
    },
    {
      "type": "node",
      "id": 151349681,
      "lat": 30.1613152,
      "lon": -92.3123521,
      "tags": {
        "ele": "6",
        "gnis:feature_id": "543161",
        "name": "Ebenezer",
        "place": "hamlet"
      }
    },
    {
      "type": "node",
      "id": 151349700,
      "lat": 32.5165281,
      "lon": -91.1395533,
      "tags": {
        "ele": "27",
        "gnis:feature_id": "541161",
        "name": "Omega",
        "place": "hamlet"
      }
    },
    {
      "type": "node",
      "id": 151349840,
      "lat": 31.6726719,
      "lon": -92.1565228,
      "tags": {
        "ele": "65",
        "gnis:feature_id": "543776",
        "name": "Webb Quarters",
        "place": "hamlet"
      }
    },
    {
      "type": "node",
      "id": 151349902,
      "lat": 30.4085262,
      "lon": -90.6331477,
      "tags": {
        "ele": "3",
        "gnis:feature_id": "552084",
        "name": "Wall Settlement",
        "place": "hamlet"
      }
    },
    {
      "type": "node",
      "id": 151349921,
      "lat": 30.5507438,
      "lon": -91.1195504,
      "tags": {
        "ele": "21",
        "gnis:feature_id": "559048",
        "name": "Klienpeter Terrace",
        "place": "hamlet"
      }
    },
    {
      "type": "node",
      "id": 151349938,
      "lat": 30.4041105,
      "lon": -90.7395064,
      "tags": {
        "ele": "8",
        "gnis:feature_id": "535135",
        "name": "Frost",
        "place": "hamlet"
      }
    },
    {
      "type": "node",
      "id": 151349954,
      "lat": 29.5296604,
      "lon": -90.6756449,
      "tags": {
        "ele": "1",
        "gnis:feature_id": "542937",
        "name": "Ashland",
        "place": "hamlet"
      }
    },
    {
      "type": "node",
      "id": 151349961,
      "lat": 32.1843267,
      "lon": -93.7110132,
      "tags": {
        "ele": "62",
        "gnis:feature_id": "541120",
        "name": "Kingston",
        "place": "hamlet"
      }
    },
    {
      "type": "node",
      "id": 151349964,
      "lat": 30.3701945,
      "lon": -90.4206417,
      "tags": {
        "ele": "1",
        "gnis:feature_id": "541189",
        "name": "Sharkey",
        "place": "hamlet"
      }
    },
    {
      "type": "node",
      "id": 151349970,
      "lat": 32.560706,
      "lon": -93.5732309,
      "tags": {
        "ele": "64",
        "gnis:feature_id": "550898",
        "name": "Wafer Forest",
        "place": "hamlet"
      }
    },
    {
      "type": "node",
      "id": 151349976,
      "lat": 30.7221291,
      "lon": -91.5192816,
      "tags": {
        "ele": "9",
        "gnis:feature_id": "542151",
        "name": "Brunswick Plantation",
        "place": "hamlet"
      }
    },
    {
      "type": "node",
      "id": 151349983,
      "lat": 32.9676278,
      "lon": -91.6481777,
      "tags": {
        "ele": "32",
        "gnis:feature_id": "543346",
        "name": "Jones",
        "place": "hamlet"
      }
    },
    {
      "type": "node",
      "id": 151350347,
      "lat": 30.074646,
      "lon": -90.490363,
      "tags": {
        "ele": "2",
        "gnis:feature_id": "1628062",
        "name": "Riverland Heights",
        "place": "hamlet"
      }
    },
    {
      "type": "node",
      "id": 151350417,
      "lat": 29.7429878,
      "lon": -90.017571,
      "tags": {
        "ele": "2",
        "gnis:feature_id": "537875",
        "name": "Ollie",
        "place": "hamlet"
      }
    },
    {
      "type": "node",
      "id": 151350457,
      "lat": 30.2368721,
      "lon": -93.4293235,
      "tags": {
        "ele": "4",
        "gnis:feature_id": "556144",
        "name": "Stegall",
        "place": "hamlet"
      }
    },
    {
      "type": "node",
      "id": 151350518,
      "lat": 30.5063027,
      "lon": -90.3409185,
      "tags": {
        "ele": "8",
        "gnis:feature_id": "538632",
        "name": "Robert",
        "place": "hamlet",
        "wikidata": "Q7341139"
      }
    },
    {
      "type": "node",
      "id": 151350606,
      "lat": 30.5685318,
      "lon": -92.3220732,
      "tags": {
        "ele": "18",
        "gnis:feature_id": "553956",
        "name": "Chataignier",
        "name:fr": "Châtaignier",
        "name:frc": "Châtaignier",
        "place": "village",
        "population": "384",
        "population:date": "2006",
        "source:population": "US Census"
      }
    },
    {
      "type": "node",
      "id": 151350624,
      "lat": 30.4380415,
      "lon": -91.0483975,
      "tags": {
        "ele": "12",
        "gnis:feature_id": "559219",
        "name": "South Sherwood Forest",
        "place": "hamlet"
      }
    },
    {
      "type": "node",
      "id": 151350633,
      "lat": 29.8379838,
      "lon": -91.612614,
      "tags": {
        "ele": "2",
        "gnis:feature_id": "560234",
        "name": "Bodin",
        "place": "hamlet"
      }
    },
    {
      "type": "node",
      "id": 151350647,
      "lat": 30.7329612,
      "lon": -90.9906589,
      "tags": {
        "ele": "45",
        "gnis:feature_id": "541157",
        "name": "Oaknolia",
        "place": "hamlet"
      }
    },
    {
      "type": "node",
      "id": 151350673,
      "lat": 31.2782352,
      "lon": -92.9554345,
      "tags": {
        "ele": "86",
        "gnis:feature_id": "548069",
        "name": "Temple",
        "place": "hamlet"
      }
    },
    {
      "type": "node",
      "id": 151350679,
      "lat": 31.0465776,
      "lon": -93.2054396,
      "tags": {
        "ele": "97",
        "gnis:feature_id": "548215",
        "name": "Fort Polk",
        "place": "village"
      }
    },
    {
      "type": "node",
      "id": 151350687,
      "lat": 31.5590634,
      "lon": -91.9890186,
      "tags": {
        "ele": "18",
        "gnis:feature_id": "556630",
        "name": "Lavacco",
        "place": "hamlet"
      }
    },
    {
      "type": "node",
      "id": 151350694,
      "lat": 29.9646489,
      "lon": -90.4056374,
      "tags": {
        "ele": "4",
        "gnis:feature_id": "552922",
        "name": "Flagville",
        "place": "hamlet"
      }
    },
    {
      "type": "node",
      "id": 151350703,
      "lat": 32.9481857,
      "lon": -92.1654134,
      "tags": {
        "ele": "30",
        "gnis:feature_id": "555119",
        "name": "Loco",
        "place": "hamlet"
      }
    },
    {
      "type": "node",
      "id": 151350716,
      "lat": 32.0787716,
      "lon": -93.3915622,
      "tags": {
        "ele": "43",
        "gnis:feature_id": "553904",
        "name": "Carroll",
        "place": "hamlet"
      }
    },
    {
      "type": "node",
      "id": 151350754,
      "lat": 30.9601803,
      "lon": -90.295925,
      "tags": {
        "ele": "99",
        "gnis:feature_id": "555392",
        "name": "Mount Hermon",
        "place": "hamlet",
        "wikidata": "Q6921175",
        "wikipedia": "Mount Hermon, Louisiana"
      }
    },
    {
      "type": "node",
      "id": 151350783,
      "lat": 30.5749098,
      "lon": -91.1256618,
      "tags": {
        "ele": "20",
        "gnis:feature_id": "558974",
        "name": "Feliciana",
        "place": "hamlet"
      }
    },
    {
      "type": "node",
      "id": 151351224,
      "lat": 32.7751348,
      "lon": -91.7926256,
      "tags": {
        "ele": "29",
        "gnis:feature_id": "555297",
        "name": "Mer Rouge",
        "name:fr": "Mer-Rouge",
        "name:frc": "Mer-Rouge",
        "place": "village",
        "population": "491",
        "population:date": "2020",
        "source:population": "US Census"
      }
    },
    {
      "type": "node",
      "id": 151351500,
      "lat": 29.6782646,
      "lon": -91.293439,
      "tags": {
        "ele": "3",
        "gnis:feature_id": "1627319",
        "name": "Idlewild",
        "place": "hamlet"
      }
    },
    {
      "type": "node",
      "id": 151351607,
      "lat": 31.8807233,
      "lon": -93.7807407,
      "tags": {
        "ele": "72",
        "gnis:feature_id": "547637",
        "name": "Lula",
        "place": "hamlet"
      }
    },
    {
      "type": "node",
      "id": 151351862,
      "lat": 29.7160418,
      "lon": -91.4539986,
      "tags": {
        "ele": "2",
        "gnis:feature_id": "1628828",
        "name": "Clausen",
        "place": "hamlet"
      }
    },
    {
      "type": "node",
      "id": 151351893,
      "lat": 30.3499152,
      "lon": -91.0259358,
      "tags": {
        "ele": "7",
        "gnis:feature_id": "543358",
        "name": "Kleinpeter",
        "place": "hamlet"
      }
    },
    {
      "type": "node",
      "id": 151352006,
      "lat": 32.8886729,
      "lon": -92.3822339,
      "tags": {
        "ele": "35",
        "gnis:feature_id": "1630798",
        "name": "Tugwell",
        "place": "hamlet"
      }
    },
    {
      "type": "node",
      "id": 151352012,
      "lat": 30.4113095,
      "lon": -92.0684539,
      "tags": {
        "ele": "15",
        "gnis:feature_id": "1628314",
        "name": "Sunset",
        "place": "village",
        "population": "2562",
        "population:date": "2006",
        "source:population": "US Census"
      }
    },
    {
      "type": "node",
      "id": 151352038,
      "lat": 32.1051567,
      "lon": -92.0779129,
      "tags": {
        "capital": "6",
        "ele": "23",
        "gnis:feature_id": "1629925",
        "name": "Columbia",
        "place": "village",
        "population": "465",
        "population:date": "2006",
        "source:population": "US Census"
      }
    },
    {
      "type": "node",
      "id": 151352046,
      "lat": 30.8054726,
      "lon": -92.1745678,
      "tags": {
        "ele": "14",
        "gnis:feature_id": "1628132",
        "name": "Saint Louis",
        "name:fr": "Saint-Louis",
        "name:frc": "Saint-Louis",
        "place": "hamlet"
      }
    },
    {
      "type": "node",
      "id": 151352062,
      "lat": 30.846201,
      "lon": -93.289281,
      "tags": {
        "capital": "6",
        "ele": "62",
        "gnis:feature_id": "1629932",
        "name": "DeRidder",
        "place": "town",
        "wikidata": "Q972748",
        "wikipedia": "en:DeRidder, Louisiana"
      }
    },
    {
      "type": "node",
      "id": 151352724,
      "lat": 31.129631,
      "lon": -93.2621089,
      "tags": {
        "ele": "71",
        "gnis:feature_id": "550076",
        "name": "South End",
        "place": "hamlet"
      }
    },
    {
      "type": "node",
      "id": 151352735,
      "lat": 32.2407051,
      "lon": -91.1214985,
      "tags": {
        "ele": "26",
        "gnis:feature_id": "543354",
        "name": "King",
        "place": "hamlet"
      }
    },
    {
      "type": "node",
      "id": 151352747,
      "lat": 32.5076466,
      "lon": -92.3237512,
      "tags": {
        "ele": "45",
        "gnis:feature_id": "535045",
        "name": "Forksville",
        "place": "hamlet"
      }
    },
    {
      "type": "node",
      "id": 151352769,
      "lat": 30.2279842,
      "lon": -93.1470969,
      "tags": {
        "ele": "4",
        "gnis:feature_id": "541108",
        "name": "Hipple",
        "place": "hamlet"
      }
    },
    {
      "type": "node",
      "id": 151352778,
      "lat": 31.9765468,
      "lon": -91.608734,
      "tags": {
        "ele": "20",
        "gnis:feature_id": "543114",
        "name": "Craig Landing",
        "place": "hamlet"
      }
    },
    {
      "type": "node",
      "id": 151352788,
      "lat": 30.478255,
      "lon": -93.4604428,
      "tags": {
        "ele": "27",
        "gnis:feature_id": "543277",
        "name": "Hargrove",
        "place": "hamlet"
      }
    },
    {
      "type": "node",
      "id": 151352849,
      "lat": 30.5035234,
      "lon": -90.7389846,
      "tags": {
        "ele": "14",
        "gnis:feature_id": "552011",
        "name": "Doyle",
        "place": "hamlet"
      }
    },
    {
      "type": "node",
      "id": 151353156,
      "lat": 29.9896471,
      "lon": -90.7903709,
      "tags": {
        "ele": "5",
        "gnis:feature_id": "1627454",
        "name": "Laurel Ridge Plantation",
        "place": "hamlet"
      }
    },
    {
      "type": "node",
      "id": 151353164,
      "lat": 30.7854722,
      "lon": -92.0403955,
      "tags": {
        "ele": "12",
        "gnis:feature_id": "1627460",
        "name": "Le Moyen",
        "place": "hamlet"
      }
    },
    {
      "type": "node",
      "id": 151353167,
      "lat": 29.8763165,
      "lon": -91.677893,
      "tags": {
        "ele": "2",
        "gnis:feature_id": "1627610",
        "name": "Marguerite",
        "place": "hamlet"
      }
    },
    {
      "type": "node",
      "id": 151353432,
      "lat": 32.3121027,
      "lon": -93.9446285,
      "tags": {
        "ele": "86",
        "gnis:feature_id": "556124",
        "name": "Spring Ridge",
        "place": "hamlet"
      }
    },
    {
      "type": "node",
      "id": 151353440,
      "lat": 30.7621276,
      "lon": -91.3070554,
      "tags": {
        "ele": "44",
        "gnis:feature_id": "556137",
        "name": "Starhill",
        "place": "hamlet"
      }
    },
    {
      "type": "node",
      "id": 151353467,
      "lat": 29.5541043,
      "lon": -90.6725892,
      "tags": {
        "ele": "2",
        "gnis:feature_id": "543797",
        "name": "Woodlawn",
        "place": "hamlet"
      }
    },
    {
      "type": "node",
      "id": 151353472,
      "lat": 30.4496349,
      "lon": -91.0209363,
      "tags": {
        "ele": "13",
        "gnis:feature_id": "559057",
        "name": "Lakeview Estates",
        "place": "hamlet"
      }
    },
    {
      "type": "node",
      "id": 151353497,
      "lat": 30.9526911,
      "lon": -92.1087345,
      "tags": {
        "ele": "19",
        "gnis:feature_id": "543192",
        "name": "Evergreen",
        "place": "village",
        "population": "315",
        "population:date": "2006",
        "source:population": "US Census"
      }
    },
    {
      "type": "node",
      "id": 151353512,
      "lat": 30.5860204,
      "lon": -91.0089922,
      "tags": {
        "ele": "21",
        "gnis:feature_id": "558962",
        "name": "El Ranchito",
        "place": "hamlet"
      }
    },
    {
      "type": "node",
      "id": 151353527,
      "lat": 30.635466,
      "lon": -90.5009245,
      "tags": {
        "ele": "27",
        "gnis:feature_id": "554820",
        "name": "Independence",
        "place": "village",
        "population": "1828",
        "population:date": "2006",
        "source:population": "US Census",
        "wikidata": "Q1661065"
      }
    },
    {
      "type": "node",
      "id": 151353535,
      "lat": 30.87796,
      "lon": -91.6806726,
      "tags": {
        "ele": "13",
        "gnis:feature_id": "554834",
        "name": "Innis",
        "place": "hamlet"
      }
    },
    {
      "type": "node",
      "id": 151353571,
      "lat": 30.2099185,
      "lon": -91.1689942,
      "tags": {
        "ele": "6",
        "gnis:feature_id": "558151",
        "name": "Bayou Goula",
        "place": "hamlet"
      }
    },
    {
      "type": "node",
      "id": 151354320,
      "lat": 32.1876576,
      "lon": -92.8598783,
      "tags": {
        "ele": "65",
        "gnis:feature_id": "549104",
        "name": "Shady",
        "place": "hamlet"
      }
    },
    {
      "type": "node",
      "id": 151354343,
      "lat": 30.4349131,
      "lon": -91.0614929,
      "tags": {
        "ele": "14",
        "gnis:feature_id": "558947",
        "name": "Darius Place",
        "place": "hamlet"
      }
    },
    {
      "type": "node",
      "id": 151354810,
      "lat": 32.0854376,
      "lon": -93.2201681,
      "tags": {
        "ele": "71",
        "gnis:feature_id": "543448",
        "name": "Martin",
        "place": "hamlet",
        "population": "524",
        "population:date": "2020",
        "source:population": "US Census"
      }
    },
    {
      "type": "node",
      "id": 151354899,
      "lat": 33.0031905,
      "lon": -93.8326779,
      "tags": {
        "ele": "61",
        "gnis:feature_id": "1629906",
        "name": "Missionary",
        "place": "hamlet"
      }
    },