{
  "version": 0.6,
  "generator": "Overpass API 0.7.62.5 1bd436f1",
  "osm3s": {
    "timestamp_osm_base": "2025-04-08T18:55:37Z",
    "timestamp_areas_base": "2025-02-06T02:17:44Z",
    "copyright": "The data included in this document is from www.openstreetmap.org. The data is made available under ODbL."
  },
  "elements": [
    {
      "type": "node",
      "id": 25779941,
      "lat": 41.7936822,
      "lon": -88.0102281,
      "tags": {
        "name": "Downers Grove",
        "place": "town",
        "population": "49437",
        "wikidata": "Q1007011",
        "wikipedia": "en:Downers Grove, Illinois"
      }
    },
    {
      "type": "node",
      "id": 29857143,
      "lat": 42.1722503,
      "lon": -88.42692,
      "tags": {
        "name": "Huntley",
        "place": "village",
        "wikidata": "Q2255383",
        "wikipedia": "en:Huntley, Illinois"
      }
    },
    {
      "type": "node",
      "id": 29885166,
      "lat": 42.3147529,
      "lon": -88.4474302,
      "tags": {
        "capital": "6",
        "name": "Woodstock",
        "place": "town",
        "population": "25630",
        "population:date": "2020",
        "source:population": "US Census",
        "website": "https://www.woodstockil.gov/",
        "wikidata": "Q991162",
        "wikipedia": "en:Woodstock, Illinois"
      }
    },
    {
      "type": "node",
      "id": 29885301,
      "lat": 42.250149,
      "lon": -88.6081303,
      "tags": {
        "name": "Marengo",
        "name:ru": "Маренго",
        "place": "town",
        "wikidata": "Q575288",
        "wikipedia": "en:Marengo, Illinois"
      }
    },
    {
      "type": "node",
      "id": 29885845,
      "lat": 42.2579991,
      "lon": -88.841734,
      "tags": {
        "capital": "6",
        "name": "Belvidere",
        "place": "town",
        "population": "25585",
        "wikidata": "Q185609",
        "wikipedia": "en:Belvidere, Illinois"
      }
    },
    {
      "type": "node",
      "id": 29885927,
      "lat": 42.2335612,
      "lon": -88.5428571,
      "tags": {
        "name": "Union",
        "place": "village",
        "wikidata": "Q2372676",
        "wikipedia": "en:Union, Illinois"
      }
    },
    {
      "type": "node",
      "id": 29899038,
      "lat": 42.2392959,
      "lon": -88.9597115,
      "tags": {
        "name": "Cherry Valley",
        "place": "village",
        "wikidata": "Q1020605",
        "wikipedia": "en:Cherry Valley, Illinois"
      }
    },
    {
      "type": "node",
      "id": 59896445,
      "lat": 40.5092961,
      "lon": -88.9843937,
      "tags": {
        "is_in": "Mc Lean County, Illinois, Ill., IL, USA",
        "name": "Normal",
        "name:ru": "Нормал",
        "place": "town",
        "population": "52497",
        "wikidata": "Q575407",
        "wikipedia": "en:Normal, Illinois"
      }
    },
    {
      "type": "node",
      "id": 151321358,
      "lat": 38.5878281,
      "lon": -90.0520508,
      "tags": {
        "ele": "172",
        "gnis:feature_id": "426579",
        "name": "Woodcrest",
        "place": "hamlet"
      }
    },
    {
      "type": "node",
      "id": 151321396,
      "lat": 38.9556031,
      "lon": -90.1867765,
      "tags": {
        "ele": "186",
        "gnis:feature_id": "409107",
        "name": "Godfrey",
        "place": "town",
        "population": "17825",
        "wikidata": "Q1533793"
      }
    },
    {
      "type": "node",
      "id": 151322218,
      "lat": 38.9494939,
      "lon": -90.5887314,
      "tags": {
        "ele": "159",
        "gnis:feature_id": "405068",
        "name": "Brussels",
        "place": "village",
        "population": "145",
        "population:date": "2006",
        "source:population": "US Census"
      }
    },
    {
      "type": "node",
      "id": 151322225,
      "lat": 40.4124541,
      "lon": -90.8368406,
      "tags": {
        "ele": "209",
        "gnis:feature_id": "419594",
        "name": "Tennessee",
        "place": "village",
        "population": "134",
        "population:date": "2006",
        "source:population": "US Census",
        "wikidata": "Q2302102",
        "wikipedia": "en:Tennessee, Illinois"
      }
    },
    {
      "type": "node",
      "id": 151323072,
      "lat": 39.1933811,
      "lon": -90.5787321,
      "tags": {
        "ele": "128",
        "gnis:feature_id": "423246",
        "name": "Titus",
        "place": "hamlet"
      }
    },
    {
      "type": "node",
      "id": 151325866,
      "lat": 39.7069907,
      "lon": -91.2068089,
      "tags": {
        "ele": "143",
        "gnis:feature_id": "410669",
        "name": "Hull",
        "place": "village",
        "population": "444",
        "population:date": "2006",
        "source:population": "US Census",
        "wikidata": "Q2298464",
        "wikipedia": "en:Hull, Illinois"
      }
    },
    {
      "type": "node",
      "id": 151325881,
      "lat": 39.0694909,
      "lon": -90.1073301,
      "tags": {
        "ele": "205",
        "gnis:feature_id": "424162",
        "name": "Miles Station",
        "place": "hamlet"
      }
    },
    {
      "type": "node",
      "id": 151325943,
      "lat": 41.4427871,
      "lon": -90.7202327,
      "tags": {
        "ele": "175",
        "gnis:feature_id": "403496",
        "name": "Andalusia",
        "place": "village",
        "population": "1184",
        "population:date": "2020",
        "source:population": "US Census",
        "wikidata": "Q2671217",
        "wikipedia": "en:Andalusia, Illinois"
      }
    },
    {
      "type": "node",
      "id": 151326909,
      "lat": 38.6003279,
      "lon": -90.0501062,
      "tags": {
        "ele": "142",
        "gnis:feature_id": "426345",
        "name": "French Village",
        "place": "hamlet"
      }
    },
    {
      "type": "node",
      "id": 151327521,
      "lat": 39.7343697,
      "lon": -90.228782,
      "tags": {
        "capital": "6",
        "ele": "186",
        "gnis:feature_id": "411012",
        "name": "Jacksonville",
        "place": "town",
        "population": "17616",
        "population:date": "2020",
        "source:population": "US Census",
        "wikidata": "Q577853",
        "wikipedia": "en:Jacksonville, Illinois"
      }
    },
    {
      "type": "node",
      "id": 151328117,
      "lat": 41.5561473,
      "lon": -90.4096858,
      "tags": {
        "ele": "179",
        "gnis:feature_id": "409723",
        "name": "Hampton",
        "place": "village",
        "population": "1863",
        "population:date": "2020",
        "source:population": "US Census",
        "wikidata": "Q2178330",
        "wikipedia": "en:Hampton, Illinois"
      }
    },
    {
      "type": "node",
      "id": 151328251,
      "lat": 41.0644816,
      "lon": -90.0542816,
      "tags": {
        "ele": "238",
        "gnis:feature_id": "422537",
        "name": "Centerville",
        "place": "hamlet"
      }
    },
    {
      "type": "node",
      "id": 151328267,
      "lat": 42.2936254,
      "lon": -90.2787398,
      "tags": {
        "ele": "194",
        "gnis:feature_id": "423026",
        "name": "North Hanover",
        "place": "hamlet"
      }
    },
    {
      "type": "node",
      "id": 151329116,
      "lat": 42.3969539,
      "lon": -90.2054049,
      "tags": {
        "ele": "258",
        "gnis:feature_id": "418074",
        "name": "Schapville",
        "place": "hamlet"
      }
    },
    {
      "type": "node",
      "id": 151329243,
      "lat": 40.8044833,
      "lon": -90.4017954,
      "tags": {
        "ele": "229",
        "gnis:feature_id": "403320",
        "name": "Abingdon",
        "name:ru": "Абингдон",
        "name:uk": "Абінгдон",
        "place": "village",
        "population": "3352",
        "population:date": "2006",
        "source:population": "US Census",
        "wikidata": "Q579672",
        "wikipedia": "en:Abingdon, Illinois"
      }
    },
    {
      "type": "node",
      "id": 151329750,
      "lat": 38.9575488,
      "lon": -90.5059509,
      "tags": {
        "ele": "126",
        "gnis:feature_id": "422944",
        "name": "Marshall Landing",
        "place": "hamlet"
      }
    },
    {
      "type": "node",
      "id": 151330778,
      "lat": 38.8482602,
      "lon": -90.0768875,
      "tags": {
        "admin_level": "8",
        "ele": "136",
        "gnis:feature_id": "417013",
        "name": "Roxana",
        "place": "village",
        "population": "1495",
        "population:date": "2006",
        "source:population": "US Census",
        "wikidata": "Q2670479",
        "wikipedia": "en:Roxana, Illinois"
      }
    },
    {
      "type": "node",
      "id": 151332302,
      "lat": 41.0458703,
      "lon": -90.6370805,
      "tags": {
        "ele": "195",
        "gnis:feature_id": "423181",
        "name": "Shaw",
        "place": "hamlet"
      }
    },
    {
      "type": "node",
      "id": 151332310,
      "lat": 40.7475379,
      "lon": -90.0987294,
      "tags": {
        "ele": "208",
        "gnis:feature_id": "423267",
        "name": "Uniontown",
        "place": "hamlet"
      }
    },
    {
      "type": "node",
      "id": 151332317,
      "lat": 39.9706017,
      "lon": -91.396261,
      "tags": {
        "ele": "183",
        "gnis:feature_id": "414650",
        "name": "North Quincy",
        "place": "hamlet"
      }
    },
    {
      "type": "node",
      "id": 151332425,
      "lat": 40.2025457,
      "lon": -90.941245,
      "tags": {
        "ele": "207",
        "gnis:feature_id": "1720626",
        "name": "Pulaski",
        "place": "hamlet"
      }
    },
    {
      "type": "node",
      "id": 151333010,
      "lat": 40.8442042,
      "lon": -90.0431713,
      "tags": {
        "ele": "216",
        "gnis:feature_id": "422660",
        "name": "Elba Center",
        "place": "hamlet"
      }
    },
    {
      "type": "node",
      "id": 151333030,
      "lat": 40.3228201,
      "lon": -90.0520615,
      "tags": {
        "ele": "145",
        "gnis:feature_id": "405998",
        "name": "Chautauqua Park",
        "place": "hamlet"
      }
    },
    {
      "type": "node",
      "id": 151333039,
      "lat": 41.5061454,
      "lon": -90.3148479,
      "tags": {
        "ele": "174",
        "gnis:feature_id": "406244",
        "name": "Cleveland",
        "place": "village",
        "population": "244",
        "population:date": "2006",
        "source:population": "US Census",
        "wikidata": "Q2671756",
        "wikipedia": "en:Cleveland, Illinois"
      }
    },
    {
      "type": "node",
      "id": 151333354,
      "lat": 39.346436,
      "lon": -90.3970639,
      "tags": {
        "ele": "168",
        "gnis:feature_id": "423061",
        "name": "Pegram",
        "place": "hamlet"
      }
    },
    {
      "type": "node",
      "id": 151334541,
      "lat": 40.6363276,
      "lon": -91.1675558,
      "tags": {
        "ele": "166",
        "gnis:feature_id": "406930",
        "name": "Dallas City",
        "place": "village",
        "population": "1034",
        "population:date": "2006",
        "source:population": "US Census",
        "wikidata": "Q578409",
        "wikipedia": "en:Dallas City, Illinois"
      }
    },
    {
      "type": "node",
      "id": 151334546,
      "lat": 38.6808836,
      "lon": -90.1664985,
      "tags": {
        "ele": "126",
        "gnis:feature_id": "414686",
        "name": "North Venice",
        "place": "hamlet"
      }
    },
    {
      "type": "node",
      "id": 151335004,
      "lat": 41.4578121,
      "lon": -90.4565204,
      "tags": {
        "ele": "171",
        "gnis:feature_id": "423076",
        "name": "Poplar Grove",
        "place": "hamlet"
      }
    },
    {
      "type": "node",
      "id": 151335851,
      "lat": 38.9114366,
      "lon": -90.1506643,
      "tags": {
        "ele": "166",
        "gnis:feature_id": "1812371",
        "name": "Upper Alton",
        "place": "hamlet"
      }
    },
    {
      "type": "node",
      "id": 151337723,
      "lat": 40.4664319,
      "lon": -91.0006939,
      "tags": {
        "ele": "190",
        "gnis:feature_id": "420692",
        "name": "Webster",
        "place": "hamlet"
      }
    },
    {
      "type": "node",
      "id": 151338302,
      "lat": 40.7924347,
      "lon": -90.7783252,
      "tags": {
        "ele": "224",
        "gnis:feature_id": "418654",
        "name": "Smithshire",
        "place": "village",
        "wikidata": "Q7545586"
      }
    },
    {
      "type": "node",
      "id": 151338633,
      "lat": 40.8550386,
      "lon": -90.6131898,
      "tags": {
        "ele": "235",
        "gnis:feature_id": "415182",
        "name": "Ormonde",
        "place": "hamlet",
        "wikidata": "Q7103459"
      }
    },
    {
      "type": "node",
      "id": 151338640,
      "lat": 41.4597567,
      "lon": -90.3634607,
      "tags": {
        "ele": "182",
        "gnis:feature_id": "422499",
        "name": "Briar Bluff",
        "place": "hamlet"
      }
    },
    {
      "type": "node",
      "id": 151339422,
      "lat": 41.4136501,
      "lon": -90.5688924,
      "tags": {
        "ele": "220",
        "gnis:feature_id": "414765",
        "name": "Oak Grove",
        "place": "village",
        "population": "715",
        "population:date": "2006",
        "source:population": "US Census",
        "wikidata": "Q2611150",
        "wikipedia": "en:Oak Grove, Illinois"
      }
    },
    {
      "type": "node",
      "id": 151339433,
      "lat": 39.230048,
      "lon": -90.7176242,
      "tags": {
        "ele": "135",
        "gnis:feature_id": "409685",
        "name": "Hamburg",
        "place": "village",
        "population": "125",
        "population:date": "2006",
        "source:population": "US Census"
      }
    },
    {
      "type": "node",
      "id": 151339638,
      "lat": 38.2825524,
      "lon": -90.1420565,
      "tags": {
        "ele": "198",
        "gnis:feature_id": "1821679",
        "name": "Lemens",
        "place": "hamlet"
      }
    },
    {
      "type": "node",
      "id": 151340617,
      "lat": 39.4578257,
      "lon": -90.5962362,
      "tags": {
        "ele": "129",
        "gnis:feature_id": "422750",
        "name": "Grand Pass",
        "place": "hamlet"
      }
    },
    {
      "type": "node",
      "id": 151341486,
      "lat": 40.4911505,
      "lon": -90.0317835,
      "tags": {
        "ele": "193",
        "gnis:feature_id": "407496",
        "name": "Dunfermline",
        "place": "village",
        "population": "304",
        "population:date": "2006",
        "source:population": "US Census",
        "wikidata": "Q2199409",
        "wikipedia": "en:Dunfermline, Illinois"
      }
    },
    {
      "type": "node",
      "id": 151341906,
      "lat": 40.1211577,
      "lon": -90.5631829,
      "tags": {
        "capital": "6",
        "ele": "206",
        "gnis:feature_id": "417057",
        "name": "Rushville",
        "place": "town",
        "population": "3123",
        "population:date": "2006",
        "source:population": "US Census",
        "wikidata": "Q575423",
        "wikipedia": "en:Rushville, Illinois"
      }
    },
    {
      "type": "node",
      "id": 151341926,
      "lat": 40.4928181,
      "lon": -90.1906768,
      "tags": {
        "ele": "208",
        "gnis:feature_id": "424177",
        "name": "Cuba",
        "place": "village",
        "population": "1365",
        "population:date": "2006",
        "source:population": "US Census",
        "wikidata": "Q575260",
        "wikipedia": "en:Cuba, Illinois"
      }
    },
    {
      "type": "node",
      "id": 151341933,
      "lat": 41.6563287,
      "lon": -90.0790166,
      "tags": {
        "ele": "180",
        "gnis:feature_id": "408054",
        "name": "Erie",
        "place": "village",
        "population": "1569",
        "population:date": "2006",
        "source:population": "US Census",
        "wikidata": "Q1353764",
        "wikipedia": "en:Erie, Illinois"
      }
    },
    {
      "type": "node",
      "id": 151341938,
      "lat": 40.9417043,
      "lon": -90.8637513,
      "tags": {
        "ele": "216",
        "gnis:feature_id": "423138",
        "name": "Rozetta",
        "place": "village",
        "population": "282",
        "population:date": "2006",
        "source:population": "US Census"
      }
    },
    {
      "type": "node",
      "id": 151343673,
      "lat": 40.2300454,
      "lon": -90.9501342,
      "tags": {
        "ele": "202",
        "gnis:feature_id": "403726",
        "name": "Augusta",
        "place": "village",
        "population": "623",
        "population:date": "2006",
        "source:population": "US Census",
        "wikidata": "Q1873355",
        "wikipedia": "en:Augusta, Illinois"
      }
    },
    {
      "type": "node",
      "id": 151343721,
      "lat": 38.5936614,
      "lon": -90.0637178,
      "tags": {
        "ele": "129",
        "gnis:feature_id": "426328",
        "name": "Edgemont",
        "place": "hamlet"
      }
    },
    {
      "type": "node",
      "id": 151343771,
      "lat": 40.5839291,
      "lon": -90.425683,
      "tags": {
        "ele": "197",
        "gnis:feature_id": "422932",
        "name": "Manley",
        "place": "hamlet"
      }
    },
    {
      "type": "node",
      "id": 151345028,
      "lat": 40.554207,
      "lon": -90.3781816,
      "tags": {
        "ele": "189",
        "gnis:feature_id": "422542",
        "name": "Checkrow",
        "place": "hamlet"
      }
    },
    {
      "type": "node",
      "id": 151345757,
      "lat": 42.3280681,
      "lon": -90.3204061,
      "tags": {
        "ele": "207",
        "gnis:feature_id": "423128",
        "name": "Rodden",
        "place": "hamlet",
        "wikidata": "Q7356463",
        "wikipedia": "en:Rodden, Illinois"
      }
    },
    {
      "type": "node",
      "id": 151345823,
      "lat": 38.1536638,
      "lon": -90.1340023,
      "tags": {
        "ele": "208",
        "gnis:feature_id": "416521",
        "name": "Renault",
        "place": "hamlet"
      }
    },
    {
      "type": "node",
      "id": 151345898,
      "lat": 38.4203311,
      "lon": -90.2578928,
      "tags": {
        "ele": "122",
        "gnis:feature_id": "422881",
        "name": "Kise Crossing",
        "place": "hamlet"
      }
    },
    {
      "type": "node",
      "id": 151346445,
      "lat": 39.0475461,
      "lon": -90.0120493,
      "tags": {
        "ele": "195",
        "gnis:feature_id": "421419",
        "name": "Woodburn",
        "place": "hamlet"
      }
    },
    {
      "type": "node",
      "id": 151347105,
      "lat": 39.887548,
      "lon": -90.2012312,
      "tags": {
        "ele": "184",
        "gnis:feature_id": "422917",
        "name": "Little Indian",
        "place": "hamlet"
      }
    },
    {
      "type": "node",
      "id": 151347354,
      "lat": 40.5650388,
      "lon": -90.0234496,
      "tags": {
        "ele": "199",
        "gnis:feature_id": "1773449",
        "name": "Prospect Heights Addition",
        "place": "hamlet"
      }
    },
    {
      "type": "node",
      "id": 151347361,
      "lat": 39.5719909,
      "lon": -91.0434693,
      "tags": {
        "ele": "144",
        "gnis:feature_id": "1747243",
        "name": "Horton",
        "place": "hamlet"
      }
    },
    {
      "type": "node",
      "id": 151347602,
      "lat": 40.4283738,
      "lon": -90.0306723,
      "tags": {
        "ele": "175",
        "gnis:feature_id": "412971",
        "name": "Maples Mill",
        "place": "hamlet"
      }
    },
    {
      "type": "node",
      "id": 151347678,
      "lat": 39.188936,
      "lon": -90.3726163,
      "tags": {
        "ele": "178",
        "gnis:feature_id": "415022",
        "name": "Old Kane",
        "place": "hamlet"
      }
    },
    {
      "type": "node",
      "id": 151347846,
      "lat": 41.3985257,
      "lon": -90.4164396,
      "tags": {
        "ele": "223",
        "gnis:feature_id": "423221",
        "name": "Sunny Hill",
        "place": "hamlet"
      }
    },
    {
      "type": "node",
      "id": 151349018,
      "lat": 40.3303229,
      "lon": -91.2945918,
      "tags": {
        "ele": "204",
        "gnis:feature_id": "422661",
        "name": "Elderville",
        "place": "hamlet"
      }
    },
    {
      "type": "node",
      "id": 151349020,
      "lat": 42.4488972,
      "lon": -90.0515138,
      "tags": {
        "abandoned:place": "hamlet",
        "ele": "255",
        "gnis:feature_id": "422985",
        "historic:place": "hamlet",
        "name": "Millville Town Site",
        "place": "hamlet"
      }
    },
    {
      "type": "node",
      "id": 151349896,
      "lat": 38.1514427,
      "lon": -90.2342839,
      "tags": {
        "ele": "117",
        "gnis:feature_id": "422843",
        "name": "Ivy",
        "place": "hamlet"
      }
    },
    {
      "type": "node",
      "id": 151350174,
      "lat": 40.5580945,
      "lon": -90.0351167,
      "tags": {
        "ele": "197",
        "gnis:feature_id": "405560",
        "name": "Canton",
        "place": "town",
        "population": "14797",
        "population:date": "2006",
        "source:population": "US Census",
        "wikidata": "Q578911",
        "wikipedia": "en:Canton, Illinois"
      }
    },
    {
      "type": "node",
      "id": 151350283,
      "lat": 38.6456062,
      "lon": -90.160943,
      "tags": {
        "ele": "125",
        "gnis:feature_id": "426441",
        "name": "National City",
        "place": "hamlet"
      }
    },
    {
      "type": "node",
      "id": 151350639,
      "lat": 38.7317158,
      "lon": -90.0803839,
      "tags": {
        "ele": "127",
        "gnis:feature_id": "416010",
        "name": "Pontoon Beach",
        "place": "village",
        "population": "5876",
        "population:date": "2020",
        "source:population": "United States Census",
        "wikidata": "Q693035",
        "wikipedia": "fr:Pontoon Beach"
      }
    },
    {
      "type": "node",
      "id": 151350851,
      "lat": 40.8889272,
      "lon": -90.5173549,
      "tags": {
        "ele": "235",
        "gnis:feature_id": "405427",
        "name": "Cameron",
        "place": "village",
        "wikidata": "Q5026152"
      }
    },
    {
      "type": "node",
      "id": 151351248,
      "lat": 38.0797739,
      "lon": -90.0064986,
      "tags": {
        "ele": "173",
        "gnis:feature_id": "422939",
        "name": "Marigold",
        "place": "hamlet"
      }
    },
    {
      "type": "node",
      "id": 151351312,
      "lat": 39.7075473,
      "lon": -90.8476304,
      "tags": {
        "ele": "239",
        "gnis:feature_id": "414457",
        "name": "New Salem",
        "place": "village",
        "population": "210",
        "population:date": "2022",
        "source:population": "Census Reporter"
      }
    },
    {
      "type": "node",
      "id": 151351330,
      "lat": 39.4806033,
      "lon": -90.482902,
      "tags": {
        "ele": "207",
        "gnis:feature_id": "415439",
        "name": "Patterson",
        "place": "village",
        "population": "625",
        "population:date": "2006",
        "source:population": "US Census",
        "wikidata": "Q7148478"
      }
    },
    {
      "type": "node",
      "id": 151351340,
      "lat": 40.346155,
      "lon": -90.9340239,
      "tags": {
        "ele": "174",
        "gnis:feature_id": "417530",
        "name": "Saint Mary",
        "place": "hamlet"
      }
    },
    {
      "type": "node",
      "id": 151351898,
      "lat": 38.8497698,
      "lon": -90.0437161,
      "tags": {
        "ele": "163",
        "gnis:feature_id": "1812276",
        "name": "Kendall Hill",
        "place": "hamlet"
      }
    },
    {
      "type": "node",
      "id": 151352931,
      "lat": 39.3200466,
      "lon": -90.1537229,
      "tags": {
        "ele": "171",
        "gnis:feature_id": "408306",
        "name": "Fayette",
        "place": "hamlet"
      }
    },
    {
      "type": "node",
      "id": 151353039,
      "lat": 39.9356016,
      "lon": -91.4098727,
      "tags": {
        "capital": "6",
        "ele": "173",
        "name": "Quincy",
        "name:en": "Quincy",
        "name:sr": "Квинси",
        "place": "city",
        "population": "40034",
        "population:date": "2006",
        "source:population": "US Census",
        "wikidata": "Q575750",
        "wikipedia": "en:Quincy, Illinois"
      }
    },
    {
      "type": "node",
      "id": 151353811,
      "lat": 39.4600246,
      "lon": -90.6278906,
      "tags": {
        "ele": "140",
        "gnis:feature_id": "415490",
        "name": "Pearl",
        "place": "village",
        "population": "177",
        "population:date": "2006",
        "source:population": "US Census"
      }
    },
    {
      "type": "node",
      "id": 151354825,
      "lat": 39.3056022,
      "lon": -90.0409405,
      "tags": {
        "ele": "175",
        "gnis:feature_id": "423105",
        "name": "Reader",
        "place": "hamlet"
      }
    },
    {
      "type": "node",
      "id": 151355148,
      "lat": 38.0831081,
      "lon": -90.0959463,
      "tags": {
        "ele": "120",
        "gnis:feature_id": "416094",
        "name": "Prairie du Rocher",
        "place": "village",
        "population": "583",
        "population:date": "2006",
        "source:population": "US Census"
      }
    },
    {
      "type": "node",
      "id": 151355760,
      "lat": 40.864483,
      "lon": -90.9612528,
      "tags": {
        "ele": "168",
        "gnis:feature_id": "409047",
        "name": "Gladstone",
        "place": "village",
        "population": "268",
        "population:date": "2006",
        "source:population": "US Census",
        "wikidata": "Q2376888",
        "wikipedia": "en:Gladstone, Illinois"
      }
    },
    {
      "type": "node",
      "id": 151356031,
      "lat": 38.7619054,
      "lon": -90.0851453,
      "tags": {
        "ele": "130",
        "gnis:feature_id": "413681",
        "name": "Mitchell",
        "place": "village",
        "population": "1",
        "wikidata": "Q3471942",
        "wikipedia": "en:Mitchell, Illinois"
      }
    },
    {
      "type": "node",
      "id": 151356286,
      "lat": 40.7183728,
      "lon": -90.4109616,
      "tags": {
        "ele": "196",
        "gnis:feature_id": "417182",
        "name": "Saint Augustine",
        "place": "hamlet",
        "wikidata": "Q2132165",
        "wikipedia": "en:St. Augustine, Illinois"
      }
    },
    {
      "type": "node",
      "id": 151356321,
      "lat": 40.3917076,
      "lon": -90.0009491,
      "tags": {
        "ele": "136",
        "gnis:feature_id": "412450",
        "name": "Liverpool",
        "place": "village",
        "population": "116",
        "population:date": "2006",
        "source:population": "US Census",
        "wikidata": "Q2508102",
        "wikipedia": "en:Liverpool, Illinois"
      }
    },
    {
      "type": "node",
      "id": 151356328,
      "lat": 41.453089,
      "lon": -90.5720803,
      "tags": {
        "ele": "173",
        "gnis:feature_id": "413528",
        "name": "Milan",
        "place": "town",
        "population": "5097",
        "population:date": "2020",
        "source:population": "US Census",
        "wikidata": "Q1022976",
        "wikipedia": "en:Milan, Illinois"
      }
    },
    {
      "type": "node",
      "id": 151356379,
      "lat": 40.8536498,
      "lon": -90.8648617,
      "tags": {
        "ele": "209",
        "gnis:feature_id": "404443",
        "name": "Biggsville",
        "place": "village",
        "population": "323",
        "population:date": "2006",
        "source:population": "US Census",
        "wikidata": "Q2357152",
        "wikipedia": "en:Biggsville, Illinois"
      }
    },
    {
      "type": "node",
      "id": 151356454,
      "lat": 40.7044826,
      "lon": -90.0995628,
      "tags": {
        "ele": "219",
        "gnis:feature_id": "413503",
        "name": "Middlegrove",
        "place": "hamlet"
      }
    },
    {
      "type": "node",
      "id": 151356603,
      "lat": 40.0208796,
      "lon": -91.3070906,
      "tags": {
        "ele": "223",
        "gnis:feature_id": "422477",
        "name": "Bloomfield",
        "place": "hamlet"
      }
    },
    {
      "type": "node",
      "id": 151357005,
      "lat": 40.7150385,
      "lon": -90.1581762,
      "tags": {
        "ele": "212",
        "gnis:feature_id": "416393",
        "name": "Rapatee",
        "place": "hamlet"
      }
    },
    {
      "type": "node",
      "id": 151357219,
      "lat": 41.2311433,
      "lon": -90.9568109,
      "tags": {
        "ele": "174",
        "gnis:feature_id": "422933",
        "name": "Mannon",
        "place": "hamlet",
        "wikidata": "Q6750931"
      }
    },
    {
      "type": "node",
      "id": 151357503,
      "lat": 40.0458793,
      "lon": -91.3995946,
      "tags": {
        "ele": "148",
        "gnis:feature_id": "423125",
        "name": "Rock Creek",
        "place": "hamlet"
      }
    },
    {
      "type": "node",
      "id": 151357839,
      "lat": 41.0672589,
      "lon": -90.6384695,
      "tags": {
        "ele": "198",
        "gnis:feature_id": "422396",
        "name": "Alexis Junction",
        "place": "hamlet"
      }
    },
    {
      "type": "node",
      "id": 151358418,
      "lat": 38.590186,
      "lon": -90.1692755,
      "tags": {
        "ele": "125",
        "gnis:feature_id": "426520",
        "name": "Sauget",
        "place": "village",
        "population": "242",
        "population:date": "2006",
        "source:population": "US Census",
        "wikidata": "Q2516597",
        "wikipedia": "en:Sauget, Illinois"
      }
    },
    {
      "type": "node",
      "id": 151358435,
      "lat": 39.6003247,
      "lon": -90.9634665,
      "tags": {
        "ele": "219",
        "gnis:feature_id": "423233",
        "name": "Taylor",
        "place": "hamlet"
      }
    },
    {
      "type": "node",
      "id": 151362956,
      "lat": 42.0539132,
      "lon": -90.1156824,
      "tags": {
        "ele": "184",
        "gnis:feature_id": "422426",
        "name": "Ayers",
        "place": "hamlet"
      }
    },
    {
      "type": "node",
      "id": 151363014,
      "lat": 39.8794914,
      "lon": -91.1079163,
      "tags": {
        "ele": "229",
        "gnis:feature_id": "411982",
        "name": "Liberty",
        "place": "village",
        "population": "515",
        "population:date": "2006",
        "source:population": "US Census"
      }
    },
    {
      "type": "node",
      "id": 151363128,
      "lat": 41.1660682,
      "lon": -90.0455662,
      "tags": {
        "ele": "259",
        "gnis:feature_id": "428372",
        "name": "Galva",
        "place": "town",
        "population": "2470",
        "population:date": "2020",
        "source:population": "US Census",
        "wikidata": "Q578470",
        "wikipedia": "en:Galva, Illinois"
      }
    },
    {
      "type": "node",
      "id": 151363413,
      "lat": 42.0944672,
      "lon": -90.1567944,
      "tags": {
        "ele": "183",
        "gnis:feature_id": "418038",
        "name": "Savanna",
        "place": "town",
        "population": "2783",
        "population:date": "2020",
        "source:population": "US Census",
        "wikidata": "Q539292",
        "wikipedia": "en:Savanna, Illinois"
      }
    },
    {
      "type": "node",
      "id": 151363498,
      "lat": 40.3642095,
      "lon": -90.4251258,
      "tags": {
        "ele": "221",
        "gnis:feature_id": "419515",
        "name": "Table Grove",
        "place": "village",
        "population": "384",
        "population:date": "2006",
        "source:population": "US Census",
        "wikidata": "Q2672057",
        "wikipedia": "en:Table Grove, Illinois"
      }
    },
    {
      "type": "node",
      "id": 151363503,
      "lat": 42.0511357,
      "lon": -90.036792,
      "tags": {
        "ele": "229",
        "gnis:feature_id": "422516",
        "name": "Burke",
        "place": "hamlet"
      }
    },
    {
      "type": "node",
      "id": 151363880,
      "lat": 42.1700197,
      "lon": -90.2265178,
      "tags": {
        "ele": "186",
        "gnis:feature_id": "422416",
        "name": "Arnold",
        "place": "hamlet"
      }
    },
    {
      "type": "node",
      "id": 151363961,
      "lat": 41.3975305,
      "lon": -90.8995898,
      "tags": {
        "ele": "233",
        "gnis:feature_id": "410764",
        "name": "Illinois City",
        "place": "hamlet"
      }
    },
    {
      "type": "node",
      "id": 151363980,
      "lat": 38.3358857,
      "lon": -90.1498341,
      "tags": {
        "capital": "6",
        "ele": "216",
        "gnis:feature_id": "420634",
        "name": "Waterloo",
        "place": "town",
        "population": "9435",
        "population:date": "2006",
        "source:population": "US Census",
        "wikidata": "Q535870",
        "wikipedia": "en:Waterloo, Illinois"
      }
    },
    {
      "type": "node",
      "id": 151364020,
      "lat": 40.3300422,
      "lon": -90.0473392,
      "tags": {
        "ele": "143",
        "gnis:feature_id": "416324",
        "name": "Quiver Beach",
        "place": "hamlet"
      }
    },
    {
      "type": "node",
      "id": 151364069,
      "lat": 39.8472692,
      "lon": -90.5545708,
      "tags": {
        "ele": "138",
        "gnis:feature_id": "1720945",
        "name": "Shady Acres",
        "place": "hamlet"
      }
    },
    {
      "type": "node",
      "id": 151364136,
      "lat": 39.9500484,
      "lon": -90.7412402,
      "tags": {
        "ele": "213",
        "gnis:feature_id": "410113",
        "name": "Hersman",
        "place": "hamlet"
      }
    },
    {
      "type": "node",
      "id": 151364592,
      "lat": 41.4525168,
      "lon": -90.1548364,
      "tags": {
        "ele": "198",
        "gnis:feature_id": "408940",
        "name": "Geneseo",
        "place": "town",
        "population": "6539",
        "population:date": "2020",
        "source:population": "US Census",
        "wikidata": "Q577536",
        "wikipedia": "en:Geneseo, Illinois"
      }
    },
    {
      "type": "node",
      "id": 151364624,
      "lat": 38.4931082,
      "lon": -90.2237243,
      "tags": {
        "ele": "125",
        "gnis:feature_id": "426272",
        "name": "Bixby",
        "place": "hamlet"
      }
    },
    {
      "type": "node",
      "id": 151364725,
      "lat": 40.7992058,
      "lon": -90.5384656,
      "tags": {
        "ele": "216",
        "gnis:feature_id": "404232",
        "name": "Berwick",
        "place": "village",
        "population": "358",
        "population:date": "2006",
        "source:population": "US Census",
        "wikidata": "Q4895960"
      }
    },
    {
      "type": "node",
      "id": 151364740,
      "lat": 38.9406427,
      "lon": -90.2881508,
      "tags": {
        "ele": "131",
        "gnis:feature_id": "412472",
        "name": "Lockhaven",
        "place": "hamlet"
      }
    },
    {
      "type": "node",
      "id": 151365014,
      "lat": 42.4878856,
      "lon": -90.5328697,
      "tags": {
        "ele": "232",
        "gnis:feature_id": "413407",
        "name": "Menominee",
        "place": "village",
        "population": "233",
        "population:date": "2006",
        "source:population": "US Census",
        "wikidata": "Q613781",
        "wikipedia": "en:Menominee, Illinois"
      }
    },
    {
      "type": "node",
      "id": 151365401,
      "lat": 40.3453214,
      "lon": -90.8912451,
      "tags": {
        "ele": "167",
        "gnis:feature_id": "406391",
        "name": "Colmar",
        "place": "hamlet"
      }
    },
    {
      "type": "node",
      "id": 151365411,
      "lat": 40.0000271,
      "lon": -90.1493584,
      "tags": {
        "ele": "185",
        "gnis:feature_id": "423053",
        "name": "Palmerton",
        "place": "hamlet"
      }
    },
    {
      "type": "node",
      "id": 151365423,
      "lat": 39.386992,
      "lon": -90.4954004,
      "tags": {
        "ele": "175",
        "gnis:feature_id": "420422",
        "name": "Walkerville",
        "place": "village",
        "population": "220",
        "population:date": "2006",
        "source:population": "US Census"
      }
    },
    {
      "type": "node",
      "id": 151365836,
      "lat": 40.4950406,
      "lon": -90.5645735,
      "tags": {
        "ele": "205",
        "gnis:feature_id": "403894",
        "name": "Bardolph",
        "place": "village",
        "population": "235",
        "population:date": "2006",
        "source:population": "US Census",
        "wikidata": "Q542519",
        "wikipedia": "en:Bardolph, Illinois"
      }
    },
    {
      "type": "node",
      "id": 151366644,
      "lat": 39.7075474,
      "lon": -90.799296,
      "tags": {
        "ele": "216",
        "gnis:feature_id": "422955",
        "name": "Maysville",
        "place": "hamlet"
      }
    },
    {
      "type": "node",
      "id": 151366750,
      "lat": 42.2564051,
      "lon": -90.2795734,
      "tags": {
        "ele": "191",
        "gnis:feature_id": "409751",
        "name": "Hanover",
        "place": "village",
        "population": "793",
        "population:date": "2006",
        "source:population": "US Census",
        "wikidata": "Q2672128",
        "wikipedia": "en:Hanover, Illinois"
      }
    },
    {
      "type": "node",
      "id": 151367082,
      "lat": 39.4047692,
      "lon": -90.1042777,
      "tags": {
        "ele": "203",
        "gnis:feature_id": "422436",
        "name": "Barr",
        "place": "village",
        "population": "359",
        "population:date": "2006",
        "source:population": "US Census"
      }
    },
    {
      "type": "node",
      "id": 151368319,
      "lat": 38.9522701,
      "lon": -90.2584452,
      "tags": {
        "ele": "171",
        "gnis:feature_id": "1812324",
        "name": "Piasa Hills",
        "place": "hamlet"
      }
    },
    {
      "type": "node",
      "id": 151368470,
      "lat": 39.0317139,
      "lon": -90.2612233,
      "tags": {
        "ele": "178",
        "gnis:feature_id": "1747840",
        "name": "New Delhi",
        "place": "hamlet"
      }
    },
    {
      "type": "node",
      "id": 151369486,
      "lat": 41.318924,
      "lon": -90.505966,
      "tags": {
        "ele": "244",
        "gnis:feature_id": "418376",
        "name": "Sherrard",
        "place": "village",
        "population": "659",
        "population:date": "2006",
        "source:population": "US Census",
        "wikidata": "Q2193504",
        "wikipedia": "en:Sherrard, Illinois"
      }
    },
    {
      "type": "node",
      "id": 151369507,
      "lat": 40.2678221,
      "lon": -90.2784557,
      "tags": {
        "ele": "190",
        "gnis:feature_id": "419359",
        "name": "Summum",
        "place": "hamlet"
      }
    },
    {
      "type": "node",
      "id": 151369514,
      "lat": 38.796993,
      "lon": -90.1014957,
      "tags": {
        "ele": "131",
        "gnis:feature_id": "423040",
        "name": "Oldenburg",
        "place": "hamlet"
      }
    },
    {
      "type": "node",
      "id": 151369526,
      "lat": 39.1889367,
      "lon": -90.5506759,
      "tags": {
        "ele": "129",
        "gnis:feature_id": "423194",
        "name": "Spankey",
        "place": "hamlet"
      }
    },
    {
      "type": "node",
      "id": 151370102,
      "lat": 38.675328,
      "lon": -90.1459422,
      "tags": {
        "ele": "126",
        "gnis:feature_id": "1736067",
        "name": "Madison Station",
        "place": "hamlet"
      }
    },
    {
      "type": "node",
      "id": 151371286,
      "lat": 40.8876638,
      "lon": -90.0141736,
      "tags": {
        "ele": "214",
        "gnis:feature_id": "1815949",
        "name": "Eugene",
        "place": "hamlet"
      }
    },
    {
      "type": "node",
      "id": 151372631,
      "lat": 40.1478242,
      "lon": -91.002913,
      "tags": {
        "ele": "216",
        "gnis:feature_id": "1669475",
        "name": "La Prairie",
        "place": "hamlet",
        "population": "59",
        "population:date": "2006",
        "source:population": "US Census",
        "wikidata": "Q2666729",
        "wikipedia": "en:La Prairie, Illinois"
      }
    },
    {
      "type": "node",
      "id": 151375676,
      "lat": 40.9576831,
      "lon": -90.0426076,
      "tags": {
        "ele": "208",
        "gnis:feature_id": "423255",
        "name": "Truro",
        "place": "village",
        "population:date": "2006",
        "source:population": "US Census"
      }
    },
    {
      "type": "node",
      "id": 151376825,
      "lat": 42.3497355,
      "lon": -90.0067917,
      "tags": {
        "ele": "303",
        "gnis:feature_id": "419153",
        "name": "Stockton",
        "place": "village",
        "population": "1818",
        "population:date": "2006",
        "source:population": "US Census",
        "wikidata": "Q2001633",
        "wikipedia": "en:Stockton, Illinois"
      }
    },
    {
      "type": "node",
      "id": 151377202,
      "lat": 41.3478134,
      "lon": -90.280401,
      "tags": {
        "ele": "235",
        "gnis:feature_id": "415194",
        "name": "Osco",
        "place": "village",
        "population": "499",
        "population:date": "2006",
        "source:population": "US Census",
        "wikidata": "Q7106426"
      }
    },
    {
      "type": "node",
      "id": 151377242,
      "lat": 39.7458798,
      "lon": -90.3279008,
      "tags": {
        "ele": "180",
        "gnis:feature_id": "422941",
        "name": "Markham",
        "place": "hamlet"
      }
    },
    {
      "type": "node",
      "id": 151378320,
      "lat": 38.532552,
      "lon": -90.1867782,
      "tags": {
        "ele": "126",
        "gnis:feature_id": "426339",
        "name": "Falling Spring",
        "place": "hamlet"
      }
    },
    {
      "type": "node",
      "id": 151379512,
      "lat": 39.7208791,
      "lon": -90.4965142,
      "tags": {
        "ele": "169",
        "gnis:feature_id": "408143",
        "name": "Exeter",
        "place": "hamlet",
        "population": "68",
        "population:date": "2006",
        "source:population": "US Census"
      }
    },
    {
      "type": "node",
      "id": 151379662,
      "lat": 42.0597464,
      "lon": -90.0676259,
      "tags": {
        "ele": "210",
        "gnis:feature_id": "422804",
        "name": "Hickory Grove",
        "place": "hamlet"
      }
    },
    {
      "type": "node",
      "id": 151380766,
      "lat": 39.6764352,
      "lon": -91.1673629,
      "tags": {
        "ele": "142",
        "gnis:feature_id": "423183",
        "name": "Shinn",
        "place": "hamlet"
      }
    },
    {
      "type": "node",
      "id": 151381302,
      "lat": 38.9093789,
      "lon": -90.0406568,
      "tags": {
        "admin_level": "8",
        "ele": "160",
        "gnis:feature_id": "404239",
        "name": "Bethalto",
        "name:ar": "بيثالتو",
        "name:de": "Bethalto",
        "name:en": "Bethalto",
        "name:fr": "Bethalto",
        "name:ja": "ベザルト",
        "name:ko": "베탈토",
        "name:ru": "Беталто",
        "name:uk": "Бетальто",
        "name:zh": "贝瑟尔托",
        "place": "town",
        "population": "9310",
        "wikidata": "Q383168",
        "wikipedia": "en:Bethalto, Illinois"
      }
    },
    {
      "type": "node",
      "id": 151381383,
      "lat": 38.3625537,
      "lon": -90.2828941,
      "tags": {
        "ele": "125",
        "gnis:feature_id": "408577",
        "name": "Fountain",
        "place": "hamlet"
      }
    },
    {
      "type": "node",
      "id": 151381584,
      "lat": 39.4597685,
      "lon": -91.035136,
      "tags": {
        "ele": "138",
        "gnis:feature_id": "415661",
        "name": "Pike",
        "place": "hamlet"
      }
    },
    {
      "type": "node",
      "id": 151382324,
      "lat": 38.6400502,
      "lon": -90.1073301,
      "tags": {
        "ele": "126",
        "gnis:feature_id": "426489",
        "name": "Rose Lake",
        "place": "hamlet"
      }
    },
    {
      "type": "node",
      "id": 151384373,
      "lat": 38.5289414,
      "lon": -90.2423357,
      "tags": {
        "ele": "125",
        "gnis:feature_id": "426564",
        "name": "Vulcan",
        "place": "hamlet"
      }
    },
    {
      "type": "node",
      "id": 151385109,
      "lat": 41.2692031,
      "lon": -90.1462283,
      "tags": {
        "ele": "221",
        "gnis:feature_id": "420006",
        "name": "Ulah",
        "place": "hamlet"
      }
    },
    {
      "type": "node",
      "id": 151385116,
      "lat": 40.227545,
      "lon": -90.3595683,
      "tags": {
        "ele": "217",
        "gnis:feature_id": "403689",
        "name": "Astoria",
        "place": "village",
        "population": "1147",
        "population:date": "2006",
        "source:population": "US Census",
        "wikidata": "Q2073812",
        "wikipedia": "en:Astoria, Illinois"
      }
    },
    {
      "type": "node",
      "id": 151385509,
      "lat": 41.5294782,
      "lon": -90.3959628,
      "tags": {
        "ele": "177",
        "gnis:feature_id": "425768",
        "name": "Babcock",
        "place": "hamlet"
      }
    },
    {
      "type": "node",
      "id": 151386327,
      "lat": 40.0700475,
      "lon": -90.429014,
      "tags": {
        "ele": "136",
        "gnis:feature_id": "408710",
        "name": "Frederick",
        "place": "village",
        "population": "176",
        "population:date": "2006",
        "source:population": "US Census",
        "wikidata": "Q5497200",
        "wikipedia": "en:Frederick, Illinois"
      }
    },
    {
      "type": "node",
      "id": 151386913,
      "lat": 38.7969925,
      "lon": -90.0389936,
      "tags": {
        "ele": "132",
        "gnis:feature_id": "415966",
        "name": "Poag",
        "place": "hamlet"
      }
    },
    {
      "type": "node",
      "id": 151389108,
      "lat": 40.550042,
      "lon": -91.3848749,
      "tags": {
        "ele": "198",
        "gnis:feature_id": "414307",
        "name": "Nauvoo",
        "name:ru": "Наву",
        "place": "town",
        "population": "1162",
        "population:date": "2006",
        "source:population": "US Census",
        "wikidata": "Q576110",
        "wikipedia": "en:Nauvoo, Illinois"
      }
    },
    {
      "type": "node",
      "id": 151389993,
      "lat": 38.5697731,
      "lon": -90.1045528,
      "tags": {
        "ele": "127",
        "gnis:feature_id": "1736319",
        "name": "Lake Siding",
        "place": "hamlet"
      }
    },
    {
      "type": "node",
      "id": 151391210,
      "lat": 39.5158809,
      "lon": -90.8426298,
      "tags": {
        "ele": "219",
        "gnis:feature_id": "422946",
        "name": "Martinsburg",
        "place": "village",
        "population": "425",
        "population:date": "2006",
        "source:population": "US Census"
      }
    },
    {
      "type": "node",
      "id": 151391232,
      "lat": 40.6133748,
      "lon": -91.3020946,
      "tags": {
        "ele": "161",
        "gnis:feature_id": "423037",
        "name": "Old Niota",
        "place": "hamlet"
      }
    },
    {
      "type": "node",
      "id": 151392267,
      "lat": 39.8569928,
      "lon": -90.043725,
      "tags": {
        "ele": "192",
        "gnis:feature_id": "416193",
        "name": "Prentice",
        "place": "hamlet"
      }
    },
    {
      "type": "node",
      "id": 151393125,
      "lat": 38.6367162,
      "lon": -90.0256606,
      "tags": {
        "ele": "138",
        "gnis:feature_id": "426296",
        "name": "Caseyville",
        "place": "village",
        "population": "4400",
        "population:date": "2020",
        "source:population": "United States Census",
        "wikidata": "Q2223570",
        "wikipedia": "en:Caseyville, Illinois"
      }
    },
    {
      "type": "node",
      "id": 151393355,
      "lat": 39.7572681,
      "lon": -91.3220912,
      "tags": {
        "ele": "142",
        "gnis:feature_id": "423007",
        "name": "Munger",
        "place": "hamlet"
      }
    },
    {
      "type": "node",
      "id": 151393377,
      "lat": 39.8781037,
      "lon": -90.1640075,
      "tags": {
        "ele": "184",
        "gnis:feature_id": "423039",
        "name": "Old Princeton",
        "place": "hamlet"
      }
    },
    {
      "type": "node",
      "id": 151393553,
      "lat": 39.9239373,
      "lon": -90.1173394,
      "tags": {
        "ele": "189",
        "gnis:feature_id": "415602",
        "name": "Philadelphia",
        "place": "village",
        "population": "236",
        "population:date": "2006",
        "source:population": "US Census",
        "wikidata": "Q7182598"
      }
    },
    {
      "type": "node",
      "id": 151393689,
      "lat": 40.6258354,
      "lon": -90.032144,
      "tags": {
        "ele": "222",
        "gnis:feature_id": "414554",
        "name": "Norris",
        "place": "village",
        "population": "188",
        "population:date": "2006",
        "source:population": "US Census",
        "wikidata": "Q2669034",
        "wikipedia": "en:Norris, Illinois"
      }
    },
    {
      "type": "node",
      "id": 151394613,
      "lat": 38.8987487,
      "lon": -90.0066844,
      "tags": {
        "ele": "156",
        "gnis:feature_id": "413351",
        "name": "Meadowbrook",
        "place": "hamlet"
      }
    },
    {
      "type": "node",
      "id": 151395477,
      "lat": 40.7861488,
      "lon": -90.0842843,
      "tags": {
        "ele": "196",
        "gnis:feature_id": "407360",
        "name": "Douglas",
        "place": "hamlet"
      }
    },
    {
      "type": "node",
      "id": 151395812,
      "lat": 41.0336485,
      "lon": -90.0984504,
      "tags": {
        "ele": "254",
        "gnis:feature_id": "420290",
        "name": "Victoria",
        "place": "village",
        "population": "301",
        "population:date": "2006",
        "source:population": "US Census",
        "wikidata": "Q2485384",
        "wikipedia": "en:Victoria, Illinois"
      }
    },
    {
      "type": "node",
      "id": 151396898,
      "lat": 40.416433,
      "lon": -91.1362537,
      "tags": {
        "capital": "6",
        "ele": "204",
        "gnis:feature_id": "405658",
        "name": "Carthage",
        "place": "town",
        "population": "2537",
        "population:date": "2006",
        "source:population": "US Census",
        "wikidata": "Q579711",
        "wikipedia": "en:Carthage, Illinois"
      }
    },
    {
      "type": "node",
      "id": 151397574,
      "lat": 39.8878264,
      "lon": -90.0078907,
      "tags": {
        "ele": "190",
        "gnis:feature_id": "403670",
        "name": "Ashland",
        "place": "village",
        "population": "1344",
        "population:date": "2006",
        "source:population": "US Census",
        "start_date": "1857",
        "website": "https://www.ashlandil.com/",
        "wikidata": "Q1924198",
        "wikipedia": "en:Ashland, Illinois"
      }
    },
    {
      "type": "node",
      "id": 151398421,
      "lat": 41.2583683,
      "lon": -90.5870793,
      "tags": {
        "ele": "199",
        "gnis:feature_id": "404642",
        "name": "Boden",
        "place": "hamlet",
        "wikidata": "Q4936480"
      }
    },
    {
      "type": "node",
      "id": 151398441,
      "lat": 39.7933805,
      "lon": -90.9909674,
      "tags": {
        "ele": "253",
        "gnis:feature_id": "404356",
        "name": "Beverly",
        "place": "village",
        "population": "335",
        "population:date": "2006",
        "source:population": "US Census"
      }
    },
    {
      "type": "node",
      "id": 151399333,
      "lat": 40.3683757,
      "lon": -90.7615201,
      "tags": {
        "ele": "204",
        "gnis:feature_id": "408266",
        "name": "Fandon",
        "place": "hamlet"
      }
    },
    {
      "type": "node",
      "id": 151399679,
      "lat": 40.2339337,
      "lon": -90.6223505,
      "tags": {
        "ele": "207",
        "gnis:feature_id": "412443",
        "name": "Littleton",
        "place": "village",
        "population": "191",
        "population:date": "2006",
        "source:population": "US Census",
        "wikidata": "Q2671726",
        "wikipedia": "en:Littleton, Illinois"
      }
    },
    {
      "type": "node",
      "id": 151399781,
      "lat": 40.1289355,
      "lon": -90.3720685,
      "tags": {
        "ele": "137",
        "gnis:feature_id": "404967",
        "name": "Browning",
        "place": "village",
        "population": "126",
        "population:date": "2006",
        "source:population": "US Census",
        "wikidata": "Q2579620",
        "wikipedia": "en:Browning, Illinois"
      }
    },
    {
      "type": "node",
      "id": 151400321,
      "lat": 39.9878263,
      "lon": -90.3459568,
      "tags": {
        "ele": "150",
        "gnis:feature_id": "404623",
        "name": "Bluff Springs",
        "place": "village",
        "population": "847",
        "population:date": "2006",
        "source:population": "US Census",
        "wikidata": "Q4930670",
        "wikipedia": "en:Bluff Springs, Illinois"
      }
    },
    {
      "type": "node",
      "id": 151400931,
      "lat": 40.8195987,
      "lon": -90.6538805,
      "tags": {
        "ele": "223",
        "gnis:feature_id": "411831",
        "name": "Larchland",
        "note": "Formerly (~1877) Lenox Station",
        "place": "hamlet",
        "wikidata": "Q6488790"
      }
    },
    {
      "type": "node",
      "id": 151403225,
      "lat": 39.6205965,
      "lon": -90.676732,
      "tags": {
        "ele": "195",
        "gnis:feature_id": "407150",
        "name": "Detroit",
        "place": "hamlet",
        "population": "88",
        "population:date": "2006",
        "source:population": "US Census"
      }
    },
    {
      "type": "node",
      "id": 151403455,
      "lat": 38.5622725,
      "lon": -90.0292725,
      "tags": {
        "ele": "154",
        "gnis:feature_id": "426271",
        "name": "Birkner",
        "place": "hamlet"
      }
    },
    {
      "type": "node",
      "id": 151403911,
      "lat": 41.2197572,
      "lon": -90.640692,
      "tags": {
        "ele": "220",
        "gnis:feature_id": "418274",
        "name": "Shale City",
        "place": "hamlet",
        "wikidata": "Q7487158"
      }
    },
    {
      "type": "node",
      "id": 151404325,
      "lat": 41.7894748,
      "lon": -90.2192941,
      "tags": {
        "ele": "187",
        "gnis:feature_id": "403376",
        "name": "Albany",
        "place": "village",
        "population": "912",
        "population:date": "2006",
        "source:population": "US Census",
        "wikidata": "Q2001662",
        "wikipedia": "en:Albany, Illinois"
      }
    },
    {
      "type": "node",
      "id": 151404341,
      "lat": 39.1086589,
      "lon": -90.4984514,
      "tags": {
        "ele": "211",
        "gnis:feature_id": "408359",
        "name": "Fieldon",
        "place": "village",
        "population": "272",
        "population:date": "2006",
        "source:population": "US Census",
        "wikidata": "Q2672396",
        "wikipedia": "en:Fieldon, Illinois"
      }
    },
    {
      "type": "node",
      "id": 151404677,
      "lat": 40.9828153,
      "lon": -90.6951371,
      "tags": {
        "ele": "207",
        "gnis:feature_id": "407855",
        "name": "Eleanor",
        "place": "hamlet",
        "wikidata": "Q5354206"
      }
    },
    {
      "type": "node",
      "id": 151405396,
      "lat": 39.1528243,
      "lon": -90.1645547,
      "tags": {
        "ele": "194",
        "gnis:feature_id": "408354",
        "name": "Fidelity",
        "place": "village",
        "population": "105",
        "population:date": "2006",
        "source:population": "US Census"
      }
    },
    {
      "type": "node",
      "id": 151405650,
      "lat": 41.2838961,
      "lon": -90.5072984,
      "tags": {
        "ele": "203",
        "gnis:feature_id": "405328",
        "name": "Cable",
        "place": "hamlet",
        "wikidata": "Q5015606",
        "wikipedia": "en:Cable, Illinois"
      }
    },
    {
      "type": "node",
      "id": 151405656,
      "lat": 40.7105947,
      "lon": -90.2662355,
      "tags": {
        "ele": "165",
        "gnis:feature_id": "412531",
        "name": "London Mills",
        "place": "hamlet",
        "wikidata": "Q2300810",
        "wikipedia": "en:London Mills, Illinois"
      }
    },
    {
      "type": "node",
      "id": 151405661,
      "lat": 39.2556034,
      "lon": -90.7259577,
      "tags": {
        "ele": "134",
        "gnis:feature_id": "414160",
        "name": "Mozier Landing",
        "place": "hamlet"
      }
    },
    {
      "type": "node",
      "id": 151406703,
      "lat": 40.2111568,
      "lon": -91.3470929,
      "tags": {
        "ele": "227",
        "gnis:feature_id": "419740",
        "name": "Tioga",
        "place": "hamlet"
      }
    },
    {
      "type": "node",
      "id": 151407277,
      "lat": 38.9736574,
      "lon": -90.0014932,
      "tags": {
        "ele": "179",
        "gnis:feature_id": "422634",
        "name": "Dorsey",
        "place": "hamlet"
      }
    },
    {
      "type": "node",
      "id": 151407324,
      "lat": 38.6497722,
      "lon": -90.0931629,
      "tags": {
        "ele": "128",
        "gnis:feature_id": "426337",
        "name": "Fairmont City",
        "place": "hamlet",
        "wikidata": "Q1393353",
        "wikipedia": "en:Fairmont City, Illinois"
      }
    },
    {
      "type": "node",
      "id": 151407333,
      "lat": 38.5439395,
      "lon": -90.0362173,
      "tags": {
        "ele": "171",
        "gnis:feature_id": "426348",
        "name": "Gartside",
        "place": "hamlet"
      }
    },
    {
      "type": "node",
      "id": 151407342,
      "lat": 38.4892193,
      "lon": -90.2167797,
      "tags": {
        "ele": "129",
        "gnis:feature_id": "426465",
        "name": "Phelps",
        "place": "hamlet"
      }
    },
    {
      "type": "node",
      "id": 151407360,
      "lat": 38.861159,
      "lon": -90.0976069,
      "tags": {
        "admin_level": "8",
        "ele": "133",
        "gnis:feature_id": "421410",
        "name": "Wood River",
        "name:oj": "Mitigwaki-ziibiwishenying",
        "place": "town",
        "population": "10464",
        "wikidata": "Q185601",
        "wikipedia": "en:Wood River, Illinois"
      }
    },
    {
      "type": "node",
      "id": 151407909,
      "lat": 40.7322617,
      "lon": -90.6645784,
      "tags": {
        "ele": "227",
        "gnis:feature_id": "416966",
        "name": "Roseville",
        "place": "village",
        "population": "993",
        "population:date": "2006",
        "source:population": "US Census",
        "wikidata": "Q2371210",
        "wikipedia": "en:Roseville, Illinois"
      }
    },
    {
      "type": "node",
      "id": 151408430,
      "lat": 38.9358815,
      "lon": -90.2740012,
      "tags": {
        "ele": "132",
        "gnis:feature_id": "416664",
        "name": "Riehl",
        "place": "hamlet"
      }
    },
    {
      "type": "node",
      "id": 151408445,
      "lat": 41.2958644,
      "lon": -90.9676453,
      "tags": {
        "ele": "212",
        "gnis:feature_id": "407865",
        "name": "Eliza",
        "place": "hamlet",
        "population": "403",
        "population:date": "2006",
        "source:population": "US Census",
        "wikidata": "Q5362076"
      }
    },
    {
      "type": "node",
      "id": 151408463,
      "lat": 40.2642112,
      "lon": -90.820965,
      "tags": {
        "ele": "161",
        "gnis:feature_id": "422466",
        "name": "Birmingham",
        "place": "hamlet"
      }
    },
    {
      "type": "node",
      "id": 151408570,
      "lat": 40.1092135,
      "lon": -91.0176357,
      "tags": {
        "ele": "218",
        "gnis:feature_id": "409117",
        "name": "Golden",
        "place": "village",
        "population": "622",
        "population:date": "2006",
        "source:population": "US Census",
        "wikidata": "Q1990655",
        "wikipedia": "en:Golden, Illinois"
      }
    },
    {
      "type": "node",
      "id": 151408616,
      "lat": 41.3072549,
      "lon": -90.8018085,
      "tags": {
        "ele": "238",
        "gnis:feature_id": "425824",
        "name": "Marston",
        "place": "hamlet",
        "wikidata": "Q6773986"
      }
    },
    {
      "type": "node",
      "id": 151408652,
      "lat": 40.1883793,
      "lon": -91.1829195,
      "tags": {
        "ele": "202",
        "gnis:feature_id": "423336",
        "name": "Woodville",
        "place": "hamlet"
      }
    },
    {
      "type": "node",
      "id": 151408742,
      "lat": 39.7558805,
      "lon": -90.2153983,
      "tags": {
        "ele": "183",
        "gnis:feature_id": "416052",
        "name": "Portuguese Hill",
        "place": "hamlet"
      }
    },
    {
      "type": "node",
      "id": 151408753,
      "lat": 40.7905951,
      "lon": -91.0754221,
      "tags": {
        "ele": "159",
        "gnis:feature_id": "422531",
        "name": "Carthage Lake",
        "place": "hamlet"
      }
    },
    {
      "type": "node",
      "id": 151408756,
      "lat": 41.581696,
      "lon": -90.3434561,
      "tags": {
        "ele": "177",
        "gnis:feature_id": "416395",
        "name": "Rapids City",
        "place": "village",
        "population": "964",
        "population:date": "2020",
        "source:population": "US Census",
        "wikidata": "Q2410206",
        "wikipedia": "en:Rapids City, Illinois"
      }
    },
    {
      "type": "node",
      "id": 151408780,
      "lat": 40.9225373,
      "lon": -90.0145584,
      "tags": {
        "ele": "215",
        "gnis:feature_id": "421213",
        "name": "Williamsfield",
        "place": "village",
        "population": "588",
        "population:date": "2006",
        "source:population": "US Census",
        "wikidata": "Q2331025",
        "wikipedia": "en:Williamsfield, Illinois"
      }
    },
    {
      "type": "node",
      "id": 151410944,
      "lat": 40.1667127,
      "lon": -90.2942893,
      "tags": {
        "ele": "143",
        "gnis:feature_id": "418340",
        "name": "Sheldons Grove",
        "place": "hamlet"
      }
    },
    {
      "type": "node",
      "id": 151411212,
      "lat": 38.6269947,
      "lon": -90.0973298,
      "tags": {
        "ele": "129",
        "gnis:feature_id": "426491",
        "name": "Rosemont",
        "place": "hamlet"
      }
    },
    {
      "type": "node",
      "id": 151411371,
      "lat": 41.4064798,
      "lon": -90.5616641,
      "tags": {
        "ele": "228",
        "gnis:feature_id": "406697",
        "name": "Coyne Center",
        "place": "hamlet",
        "wikidata": "Q575851"
      }
    },
    {
      "type": "node",
      "id": 151414372,
      "lat": 39.5606874,
      "lon": -90.4341353,
      "tags": {
        "ele": "192",
        "gnis:feature_id": "403459",
        "name": "Alsey",
        "place": "village",
        "population": "239",
        "population:date": "2006",
        "source:population": "US Census",
        "wikidata": "Q2363915",
        "wikipedia": "en:Alsey, Illinois"
      }
    },
    {
      "type": "node",
      "id": 151414542,
      "lat": 39.9881027,
      "lon": -91.1468068,
      "tags": {
        "ele": "220",
        "gnis:feature_id": "406414",
        "name": "Columbus",
        "place": "village",
        "population": "111",
        "population:date": "2006",
        "source:population": "US Census"
      }
    },
    {
      "type": "node",
      "id": 151414554,
      "lat": 39.0144918,
      "lon": -90.3134464,
      "tags": {
        "ele": "192",
        "gnis:feature_id": "422652",
        "name": "East Newbern",
        "place": "hamlet"
      }
    },
    {
      "type": "node",
      "id": 151415988,
      "lat": 39.6203259,
      "lon": -90.0440001,
      "tags": {
        "ele": "208",
        "gnis:feature_id": "408656",
        "name": "Franklin",
        "place": "village",
        "population": "579",
        "population:date": "2006",
        "source:population": "US Census",
        "website": "https://www.franklinillinois.net/",
        "wikidata": "Q2062817",
        "wikipedia": "en:Franklin, Illinois"
      }
    },
    {
      "type": "node",
      "id": 151416640,
      "lat": 42.0808568,
      "lon": -90.0462367,
      "tags": {
        "ele": "265",
        "gnis:feature_id": "405794",
        "name": "Center Hill",
        "place": "hamlet"
      }
    },
    {
      "type": "node",
      "id": 151419796,
      "lat": 39.2161575,
      "lon": -90.1645552,
      "tags": {
        "ele": "165",
        "gnis:feature_id": "422866",
        "name": "Kemper",
        "place": "hamlet"
      }
    },
    {
      "type": "node",
      "id": 151420828,
      "lat": 39.2597697,
      "lon": -90.5778994,
      "tags": {
        "ele": "128",
        "gnis:feature_id": "422555",
        "name": "Clark",
        "place": "hamlet"
      }
    },
    {
      "type": "node",
      "id": 151421267,
      "lat": 41.0239261,
      "lon": -90.6443029,
      "tags": {
        "ele": "214",
        "gnis:feature_id": "423335",
        "name": "Woodvale",
        "place": "hamlet"
      }
    },
    {
      "type": "node",
      "id": 151421937,
      "lat": 38.2775544,
      "lon": -90.3501191,
      "tags": {
        "ele": "121",
        "gnis:feature_id": "409867",
        "name": "Harrisonville",
        "place": "hamlet"
      }
    },
    {
      "type": "node",
      "id": 151422076,
      "lat": 39.2692131,
      "lon": -90.2042796,
      "tags": {
        "ele": "165",
        "gnis:feature_id": "416840",
        "name": "Rockbridge",
        "place": "village",
        "population": "184",
        "population:date": "2006",
        "source:population": "US Census"
      }
    },
    {
      "type": "node",
      "id": 151422702,
      "lat": 41.4208678,
      "lon": -90.0151121,
      "tags": {
        "ele": "201",
        "gnis:feature_id": "403699",
        "name": "Atkinson",
        "place": "village",
        "population": "965",
        "population:date": "2006",
        "source:population": "US Census",
        "wikidata": "Q576062",
        "wikipedia": "en:Atkinson, Illinois"
      }
    },
    {
      "type": "node",
      "id": 151422725,
      "lat": 39.6361576,
      "lon": -91.0959713,
      "tags": {
        "ele": "145",
        "gnis:feature_id": "414385",
        "name": "New Canton",
        "place": "village",
        "population": "394",
        "population:date": "2006",
        "source:population": "US Census"
      }
    },
    {
      "type": "node",
      "id": 151423343,
      "lat": 40.7475403,
      "lon": -91.0743107,
      "tags": {
        "ele": "161",
        "gnis:feature_id": "418455",
        "name": "Shokokon",
        "place": "hamlet"
      }
    },
    {
      "type": "node",
      "id": 151423835,
      "lat": 41.2030911,
      "lon": -90.5870792,
      "tags": {
        "ele": "241",
        "gnis:feature_id": "420326",
        "name": "Viola",
        "place": "village",
        "population": "948",
        "population:date": "2006",
        "source:population": "US Census",
        "wikidata": "Q2405821",
        "wikipedia": "en:Viola, Illinois"
      }
    },
    {
      "type": "node",
      "id": 151424227,
      "lat": 41.7305855,
      "lon": -90.0301192,
      "tags": {
        "ele": "189",
        "gnis:feature_id": "408322",
        "name": "Fenton",
        "place": "village",
        "population": "561",
        "population:date": "2006",
        "source:population": "US Census",
        "wikidata": "Q1404919"
      }
    },
    {
      "type": "node",
      "id": 151424903,
      "lat": 40.6108717,
      "lon": -90.0259495,
      "tags": {
        "ele": "215",
        "gnis:feature_id": "404817",
        "name": "Brereton",
        "place": "hamlet"
      }
    },
    {
      "type": "node",
      "id": 151424909,
      "lat": 40.1233799,
      "lon": -90.2315102,
      "tags": {
        "ele": "135",
        "gnis:feature_id": "418675",
        "name": "Snicarte",
        "place": "hamlet"
      }
    },
    {
      "type": "node",
      "id": 151425646,
      "lat": 41.3918411,
      "lon": -90.576684,
      "tags": {
        "ele": "230",
        "gnis:feature_id": "405693",
        "name": "Castle Junction",
        "place": "hamlet"
      }
    },
    {
      "type": "node",
      "id": 151426868,
      "lat": 40.2061564,
      "lon": -90.4756817,
      "tags": {
        "ele": "156",
        "gnis:feature_id": "416423",
        "name": "Ray",
        "place": "hamlet"
      }
    },
    {
      "type": "node",
      "id": 151426992,
      "lat": 39.9872707,
      "lon": -90.763463,
      "tags": {
        "capital": "6",
        "ele": "221",
        "gnis:feature_id": "414082",
        "name": "Mount Sterling",
        "place": "town",
        "population": "1957",
        "population:date": "2006",
        "source:population": "US Census",
        "wikidata": "Q576227",
        "wikipedia": "en:Mount Sterling, Illinois"
      }
    },
    {
      "type": "node",
      "id": 151427259,
      "lat": 40.3964333,
      "lon": -91.3390389,
      "tags": {
        "ele": "196",
        "gnis:feature_id": "409689",
        "name": "Hamilton",
        "place": "village",
        "population": "2837",
        "population:date": "2006",
        "source:population": "US Census",
        "wikidata": "Q544705",
        "wikipedia": "en:Hamilton, Illinois"
      }
    },
    {
      "type": "node",
      "id": 151427886,
      "lat": 39.8167136,
      "lon": -90.3729016,
      "tags": {
        "ele": "181",
        "gnis:feature_id": "406437",
        "name": "Concord",
        "place": "village",
        "population": "173",
        "population:date": "2006",
        "source:population": "US Census",
        "wikidata": "Q2618817",
        "wikipedia": "en:Concord, Illinois"
      }
    },
    {
      "type": "node",
      "id": 151428426,
      "lat": 40.9834481,
      "lon": -90.4887849,
      "tags": {
        "ele": "226",
        "gnis:feature_id": "423270",
        "name": "Utah",
        "name:ta": "யூட்டா",
        "place": "hamlet",
        "wikidata": "Q22059028"
      }
    },
    {
      "type": "node",
      "id": 151428441,
      "lat": 38.5419967,
      "lon": -90.2328909,
      "tags": {
        "ele": "125",
        "gnis:feature_id": "426326",
        "name": "East Carondelet",
        "place": "village",
        "population": "576",
        "population:date": "2006",
        "source:population": "US Census",
        "wikidata": "Q2338370",
        "wikipedia": "en:East Carondelet, Illinois"
      }
    },
    {
      "type": "node",
      "id": 151428462,
      "lat": 40.3939312,
      "lon": -90.5540172,
      "tags": {
        "ele": "196",
        "gnis:feature_id": "423062",
        "name": "Pennington Point",
        "place": "hamlet"
      }
    },
    {
      "type": "node",
      "id": 151429737,
      "lat": 38.5731061,
      "lon": -90.0631625,
      "tags": {
        "ele": "175",
        "gnis:feature_id": "1736303",
        "name": "Briar Hill",
        "place": "hamlet"
      }
    },
    {
      "type": "node",
      "id": 151430752,
      "lat": 41.2597571,
      "lon": -90.6079133,
      "tags": {
        "ele": "228",
        "gnis:feature_id": "413122",
        "name": "Matherville",
        "place": "village",
        "population": "765",
        "population:date": "2006",
        "source:population": "US Census",
        "wikidata": "Q2669265",
        "wikipedia": "en:Matherville, Illinois"
      }
    },
    {
      "type": "node",
      "id": 151430990,
      "lat": 40.5208765,
      "lon": -91.1670896,
      "tags": {
        "ele": "213",
        "gnis:feature_id": "403362",
        "name": "Adrian",
        "place": "hamlet"
      }
    },
    {
      "type": "node",
      "id": 151431026,
      "lat": 39.1175462,
      "lon": -90.0442728,
      "tags": {
        "ele": "194",
        "gnis:feature_id": "418433",
        "name": "Shipman",
        "place": "village",
        "population": "648",
        "population:date": "2006",
        "source:population": "US Census"
      }
    },
    {
      "type": "node",
      "id": 151434259,
      "lat": 40.8369834,
      "lon": -91.0181985,
      "tags": {
        "ele": "161",
        "gnis:feature_id": "422919",
        "name": "Lone Tree",
        "place": "hamlet"
      }
    },
    {
      "type": "node",
      "id": 151434774,
      "lat": 39.7069913,
      "lon": -90.652627,
      "tags": {
        "ele": "148",
        "gnis:feature_id": "423271",
        "name": "Valley City",
        "place": "hamlet",
        "population": "13",
        "population:date": "2006",
        "source:population": "US Census"
      }
    },
    {
      "type": "node",
      "id": 151435067,
      "lat": 39.8503256,
      "lon": -90.8004077,
      "tags": {
        "ele": "209",
        "gnis:feature_id": "423000",
        "name": "Morrelville",
        "place": "hamlet"
      }
    },
    {
      "type": "node",
      "id": 151435181,
      "lat": 38.8294924,
      "lon": -90.0628834,
      "tags": {
        "admin_level": "8",
        "ele": "134",
        "gnis:feature_id": "418824",
        "name": "South Roxana",
        "place": "village",
        "population": "1813",
        "population:date": "2006",
        "source:population": "US Census",
        "wikidata": "Q2119126",
        "wikipedia": "en:South Roxana, Illinois"
      }
    },
    {
      "type": "node",
      "id": 151437253,
      "lat": 39.7858798,
      "lon": -91.1854191,
      "tags": {
        "ele": "211",
        "gnis:feature_id": "415759",
        "name": "Plainville",
        "place": "village",
        "population": "245",
        "population:date": "2006",
        "source:population": "US Census"
      }
    },
    {
      "type": "node",
      "id": 151437289,
      "lat": 40.1536572,
      "lon": -90.7706859,
      "tags": {
        "ele": "183",
        "gnis:feature_id": "405422",
        "name": "Camden",
        "place": "hamlet",
        "population": "94",
        "population:date": "2006",
        "source:population": "US Census",
        "wikidata": "Q304812",
        "wikipedia": "en:Camden, Illinois"
      }
    },
    {
      "type": "node",
      "id": 151438795,
      "lat": 42.417508,
      "lon": -90.3004054,
      "tags": {
        "ele": "230",
        "gnis:feature_id": "422766",
        "name": "Guilford",
        "place": "village",
        "population": "923",
        "population:date": "2006",
        "source:population": "US Census",
        "wikidata": "Q986720",
        "wikipedia": "en:Guilford Township, Illinois"
      }
    },
    {
      "type": "node",
      "id": 151439203,
      "lat": 38.9389368,
      "lon": -90.2292778,
      "tags": {
        "ele": "183",
        "gnis:feature_id": "1736000",
        "name": "Alandale",
        "place": "hamlet"
      }
    },
    {
      "type": "node",
      "id": 151441529,
      "lat": 40.4336538,
      "lon": -90.9315249,
      "tags": {
        "ele": "204",
        "gnis:feature_id": "422849",
        "name": "Joetta",
        "place": "hamlet"
      }
    },
    {
      "type": "node",
      "id": 151442310,
      "lat": 38.8344921,
      "lon": -90.0387159,
      "tags": {
        "ele": "135",
        "gnis:feature_id": "420506",
        "name": "Wanda",
        "place": "hamlet"
      }
    },
    {
      "type": "node",
      "id": 151442893,
      "lat": 40.0293477,
      "lon": -90.5718685,
      "tags": {
        "ele": "168",
        "gnis:feature_id": "1720736",
        "name": "Sugar Grove",
        "place": "hamlet"
      }
    },
    {
      "type": "node",
      "id": 151443920,
      "lat": 38.9275482,
      "lon": -90.248445,
      "tags": {
        "ele": "162",
        "gnis:feature_id": "1812325",
        "name": "Quatoga Bluff",
        "place": "hamlet"
      }
    },
    {
      "type": "node",
      "id": 151445127,
      "lat": 40.1775458,
      "lon": -91.378483,
      "tags": {
        "ele": "199",
        "gnis:feature_id": "412095",
        "name": "Lima",
        "place": "village",
        "population": "158",
        "population:date": "2006",
        "source:population": "US Census",
        "wikidata": "Q2339931",
        "wikipedia": "en:Lima, Illinois"
      }
    },
    {
      "type": "node",
      "id": 151447594,
      "lat": 38.9222701,
      "lon": -90.196499,
      "tags": {
        "ele": "196",
        "gnis:feature_id": "414556",
        "name": "North Alton",
        "place": "hamlet"
      }
    },
    {
      "type": "node",
      "id": 151448120,
      "lat": 41.5058344,
      "lon": -90.5136642,
      "tags": {
        "ele": "176",
        "gnis:feature_id": "413710",
        "name": "Moline",
        "name:ru": "Молайн",
        "place": "city",
        "population": "42985",
        "population:date": "2020",
        "source:population": "US Census",
        "wikidata": "Q579736",
        "wikipedia": "en:Moline, Illinois"
      }
    },
    {
      "type": "node",
      "id": 151450449,
      "lat": 38.9253278,
      "lon": -90.6170659,
      "tags": {
        "ele": "190",
        "gnis:feature_id": "422578",
        "name": "Conrad",
        "place": "hamlet"
      }
    },
    {
      "type": "node",
      "id": 151450688,
      "lat": 39.6506038,
      "lon": -90.0409448,
      "tags": {
        "ele": "211",
        "gnis:feature_id": "423343",
        "name": "Yeomans",
        "place": "hamlet"
      }
    },
    {
      "type": "node",
      "id": 151452206,
      "lat": 41.5095446,
      "lon": -90.5792031,
      "tags": {
        "capital": "6",
        "ele": "171",
        "gnis:feature_id": "416820",
        "name": "Rock Island",
        "name:ru": "Рок-Айленд",
        "name:sr": "Рок Ајленд",
        "name:win": "mąą wiic",
        "place": "city",
        "population": "37108",
        "population:date": "2020",
        "source:population": "US Census",
        "wikidata": "Q577878",
        "wikipedia": "en:Rock Island, Illinois"
      }
    },
    {
      "type": "node",
      "id": 151455018,
      "lat": 39.1567149,
      "lon": -90.6178995,
      "tags": {
        "capital": "6",
        "ele": "135",
        "gnis:feature_id": "409767",
        "name": "Hardin",
        "place": "town",
        "population": "952",
        "population:date": "2006",
        "source:population": "US Census",
        "wikidata": "Q1525427",
        "wikipedia": "en:Hardin, Illinois"
      }
    },
    {
      "type": "node",
      "id": 151455260,
      "lat": 39.6953241,
      "lon": -90.4231797,
      "tags": {
        "ele": "183",
        "gnis:feature_id": "416669",
        "name": "Riggston",
        "place": "hamlet"
      }
    },
    {
      "type": "node",
      "id": 151455267,
      "lat": 39.4803252,
      "lon": -90.1048343,
      "tags": {
        "ele": "201",
        "gnis:feature_id": "418152",
        "name": "Scottville",
        "place": "village",
        "population": "138",
        "population:date": "2006",
        "source:population": "US Census",
        "wikidata": "Q2671964",
        "wikipedia": "en:Scottville, Illinois"
      }
    },
    {
      "type": "node",
      "id": 151456364,
      "lat": 40.9475652,
      "lon": -90.3712169,
      "tags": {
        "capital": "6",
        "ele": "235",
        "gnis:feature_id": "408847",
        "name": "Galesburg",
        "name:ru": "Гейлсберг",
        "place": "city",
        "population": "30052",
        "population:date": "2020",
        "source:population": "US Census",
        "wikidata": "Q782574",
        "wikipedia": "en:Galesburg, Illinois"
      }
    },
    {
      "type": "node",
      "id": 151456713,
      "lat": 39.039773,
      "lon": -90.1410023,
      "tags": {
        "ele": "202",
        "gnis:feature_id": "404869",
        "name": "Brighton",
        "place": "village",
        "population": "4272",
        "population:date": "2006",
        "source:population": "US Census"
      }
    },
    {
      "type": "node",
      "id": 151456774,
      "lat": 38.0525522,
      "lon": -90.0373334,
      "tags": {
        "ele": "121",
        "gnis:feature_id": "413700",
        "name": "Modoc",
        "place": "hamlet"
      }
    },
    {
      "type": "node",
      "id": 151460607,
      "lat": 39.9617127,
      "lon": -91.4001501,
      "tags": {
        "ele": "177",
        "gnis:feature_id": "1785314",
        "name": "Northridge",
        "place": "hamlet"
      }
    },
    {
      "type": "node",
      "id": 151461404,
      "lat": 42.4758462,
      "lon": -90.2529773,
      "tags": {
        "ele": "291",
        "gnis:feature_id": "418055",
        "name": "Scales Mound",
        "place": "village",
        "population": "388",
        "population:date": "2006",
        "source:population": "US Census",
        "wikidata": "Q2672125",
        "wikipedia": "en:Scales Mound, Illinois"
      }
    },
    {
      "type": "node",
      "id": 151461562,
      "lat": 41.338365,
      "lon": -90.8548656,
      "tags": {
        "ele": "230",
        "gnis:feature_id": "405163",
        "name": "Buffalo Prairie",
        "place": "hamlet",
        "population": "963",
        "population:date": "2006",
        "source:population": "US Census",
        "wikidata": "Q4985812"
      }
    },
    {
      "type": "node",
      "id": 151461971,
      "lat": 39.9786574,
      "lon": -91.3195911,
      "tags": {
        "ele": "218",
        "gnis:feature_id": "422682",
        "name": "Ewbanks",
        "place": "hamlet"
      }
    },
    {
      "type": "node",
      "id": 151462914,
      "lat": 40.2311553,
      "lon": -90.0995624,
      "tags": {
        "ele": "143",
        "gnis:feature_id": "422948",
        "name": "Matanzas",
        "place": "hamlet"
      }
    },
    {
      "type": "node",
      "id": 151464239,
      "lat": 38.7064382,
      "lon": -90.0723282,
      "tags": {
        "ele": "127",
        "gnis:feature_id": "422993",
        "name": "Moellenbrocks",
        "place": "hamlet"
      }
    },
    {
      "type": "node",
      "id": 151466011,
      "lat": 38.9172699,
      "lon": -90.1501086,
      "tags": {
        "ele": "161",
        "gnis:feature_id": "1812447",
        "name": "Sloan",
        "place": "hamlet"
      }
    },
    {
      "type": "node",
      "id": 151467278,
      "lat": 38.2103321,
      "lon": -90.3334526,
      "tags": {
        "ele": "119",
        "gnis:feature_id": "422992",
        "name": "Mitchie",
        "place": "hamlet"
      }
    },
    {
      "type": "node",
      "id": 151468456,
      "lat": 38.2358852,
      "lon": -90.1012221,
      "tags": {
        "ele": "185",
        "gnis:feature_id": "423243",
        "name": "Tipton",
        "place": "hamlet"
      }
    },
    {
      "type": "node",
      "id": 151469204,
      "lat": 40.9172601,
      "lon": -90.825417,
      "tags": {
        "ele": "223",
        "gnis:feature_id": "423106",
        "name": "Reeds",
        "place": "hamlet"
      }
    },
    {
      "type": "node",
      "id": 151469345,
      "lat": 38.5364405,
      "lon": -90.1523325,
      "tags": {
        "ele": "131",
        "gnis:feature_id": "426554",
        "name": "Tillman",
        "place": "hamlet"
      }
    },
    {
      "type": "node",
      "id": 151469659,
      "lat": 38.265054,
      "lon": -90.2467828,
      "tags": {
        "ele": "223",
        "gnis:feature_id": "412840",
        "name": "Madonnaville",
        "place": "hamlet"
      }
    },
    {
      "type": "node",
      "id": 151469724,
      "lat": 41.3128123,
      "lon": -90.5845796,
      "tags": {
        "ele": "247",
        "gnis:feature_id": "416190",
        "name": "Preemption",
        "place": "village",
        "population": "1812",
        "population:date": "2006",
        "source:population": "US Census",
        "wikidata": "Q7239738"
      }
    },
    {
      "type": "node",
      "id": 151469868,
      "lat": 39.8055615,
      "lon": -90.8852913,
      "tags": {
        "ele": "228",
        "gnis:feature_id": "408403",
        "name": "Fishhook",
        "place": "hamlet"
      }
    },
    {
      "type": "node",
      "id": 151470122,
      "lat": 40.7855955,
      "lon": -90.9906974,
      "tags": {
        "ele": "175",
        "gnis:feature_id": "422821",
        "name": "Hopper",
        "place": "hamlet"
      }
    },
    {
      "type": "node",
      "id": 151470132,
      "lat": 39.2308809,
      "lon": -90.5790102,
      "tags": {
        "ele": "128",
        "gnis:feature_id": "422878",
        "name": "King",
        "place": "hamlet"
      }
    },
    {
      "type": "node",
      "id": 151470853,
      "lat": 41.2022584,
      "lon": -90.4423521,
      "tags": {
        "ele": "245",
        "gnis:feature_id": "414472",
        "name": "New Windsor",
        "place": "village",
        "population": "668",
        "wikidata": "Q2548376",
        "wikipedia": "en:Windsor, Mercer County, Illinois"
      }
    },
    {
      "type": "node",
      "id": 151472428,
      "lat": 38.5369956,
      "lon": -90.1017753,
      "tags": {
        "ele": "163",
        "gnis:feature_id": "426571",
        "name": "Westview",
        "place": "hamlet"
      }
    },
    {
      "type": "node",
      "id": 151472519,
      "lat": 40.5633403,
      "lon": -90.0221471,
      "tags": {
        "ele": "196",
        "gnis:feature_id": "1773424",
        "name": "East Lawndale",
        "place": "hamlet"
      }
    },
    {
      "type": "node",
      "id": 151473564,
      "lat": 40.8205944,
      "lon": -90.7056913,
      "tags": {
        "ele": "220",
        "gnis:feature_id": "416006",
        "name": "Ponemah",
        "place": "hamlet",
        "wikidata": "Q7227757"
      }
    },
    {
      "type": "node",
      "id": 151473597,
      "lat": 39.0433807,
      "lon": -90.3203914,
      "tags": {
        "ele": "194",
        "gnis:feature_id": "413212",
        "name": "McClusky",
        "place": "hamlet"
      }
    },
    {
      "type": "node",
      "id": 151475060,
      "lat": 38.5572732,
      "lon": -90.1092753,
      "tags": {
        "ele": "126",
        "gnis:feature_id": "1736309",
        "name": "Centerville Station",
        "place": "hamlet"
      }
    },
    {
      "type": "node",
      "id": 151475504,
      "lat": 41.4754634,
      "lon": -90.3603496,
      "tags": {
        "ele": "184",
        "gnis:feature_id": "406393",
        "name": "Colona",
        "place": "town",
        "population": "5045",
        "population:date": "2020",
        "source:population": "US Census",
        "wikidata": "Q575427",
        "wikipedia": "en:Colona, Illinois"
      }
    },
    {
      "type": "node",
      "id": 151475604,
      "lat": 39.7089362,
      "lon": -90.7245722,
      "tags": {
        "ele": "215",
        "gnis:feature_id": "409508",
        "name": "Griggsville",
        "place": "village",
        "population": "1191",
        "population:date": "2006",
        "source:population": "US Census",
        "start_date": "1833",
        "website": "http://www.griggsville-il.org/",
        "wikidata": "Q578575",
        "wikipedia": "en:Griggsville, Illinois"
      }
    },
    {
      "type": "node",
      "id": 151475645,
      "lat": 40.5358765,
      "lon": -91.26876,
      "tags": {
        "ele": "211",
        "gnis:feature_id": "423084",
        "name": "Powellton",
        "place": "hamlet"
      }
    },
    {
      "type": "node",
      "id": 151475650,
      "lat": 39.7858811,
      "lon": -90.1509511,
      "tags": {
        "ele": "192",
        "gnis:feature_id": "423213",
        "name": "Strawns Crossing",
        "place": "hamlet"
      }
    },
    {
      "type": "node",
      "id": 151477141,
      "lat": 38.3867198,
      "lon": -90.2273365,
      "tags": {
        "ele": "176",
        "gnis:feature_id": "414401",
        "name": "New Hanover",
        "place": "hamlet"
      }
    },
    {
      "type": "node",
      "id": 151477568,
      "lat": 39.5644921,
      "lon": -90.6504043,
      "tags": {
        "ele": "203",
        "gnis:feature_id": "413632",
        "name": "Milton",
        "place": "village",
        "population": "260",
        "population:date": "2006",
        "source:population": "US Census",
        "wikidata": "Q1938903",
        "wikipedia": "en:Milton, Illinois"
      }
    },
    {
      "type": "node",
      "id": 151478762,
      "lat": 40.7303183,
      "lon": -91.0812551,
      "tags": {
        "ele": "159",
        "gnis:feature_id": "421567",
        "name": "Yellow Banks",
        "place": "hamlet"
      }
    },
    {
      "type": "node",
      "id": 151478933,
      "lat": 40.7119841,
      "lon": -90.5354091,
      "tags": {
        "ele": "209",
        "gnis:feature_id": "409419",
        "name": "Greenbush",
        "place": "village",
        "population": "538",
        "population:date": "2006",
        "source:population": "US Census",
        "wikidata": "Q5603773"
      }
    },
    {
      "type": "node",
      "id": 151479526,
      "lat": 39.6942135,
      "lon": -91.0390246,
      "tags": {
        "ele": "217",
        "gnis:feature_id": "403933",
        "name": "Barry",
        "place": "village",
        "population": "1310",
        "population:date": "2006",
        "source:population": "US Census"
      }
    },
    {
      "type": "node",
      "id": 151481087,
      "lat": 38.8828254,
      "lon": -90.0826064,
      "tags": {
        "ele": "163",
        "gnis:feature_id": "1736086",
        "name": "Rosedale",
        "place": "hamlet"
      }
    },
    {
      "type": "node",
      "id": 151481155,
      "lat": 39.006992,
      "lon": -90.337058,
      "tags": {
        "ele": "198",
        "gnis:feature_id": "414479",
        "name": "Newbern",
        "place": "hamlet"
      }
    },
    {
      "type": "node",
      "id": 151482638,
      "lat": 38.0956083,
      "lon": -90.1156691,
      "tags": {
        "ele": "118",
        "gnis:feature_id": "422604",
        "name": "Danley",
        "place": "hamlet"
      }
    },
    {
      "type": "node",
      "id": 151482727,
      "lat": 42.2258519,
      "lon": -90.0270703,
      "tags": {
        "ele": "201",
        "gnis:feature_id": "423072",
        "name": "Pleasant Valley",
        "place": "village",
        "population": "302",
        "population:date": "2006",
        "source:population": "US Census",
        "wikidata": "Q60760183",
        "wikipedia": "en:Pleasant Valley, Illinois"
      }
    },
    {
      "type": "node",
      "id": 151482742,
      "lat": 39.5314367,
      "lon": -90.7915173,
      "tags": {
        "ele": "204",
        "gnis:feature_id": "422835",
        "name": "Independence",
        "place": "hamlet"
      }
    },
    {
      "type": "node",
      "id": 151482785,
      "lat": 40.3514319,
      "lon": -90.3245681,
      "tags": {
        "ele": "201",
        "gnis:feature_id": "410912",
        "name": "Ipava",
        "place": "village",
        "population": "480",
        "population:date": "2006",
        "source:population": "US Census",
        "wikidata": "Q2462386",
        "wikipedia": "en:Ipava, Illinois"
      }
    },
    {
      "type": "node",
      "id": 151482897,
      "lat": 39.628936,
      "lon": -90.2190081,
      "tags": {
        "ele": "207",
        "gnis:feature_id": "421489",
        "name": "Woodson",
        "place": "village",
        "population": "555",
        "population:date": "2006",
        "source:population": "US Census"
      }
    },
    {
      "type": "node",
      "id": 151485230,
      "lat": 38.9698503,
      "lon": -90.4314331,
      "tags": {
        "ele": "137",
        "gnis:feature_id": "409237",
        "name": "Grafton",
        "place": "village",
        "population": "711",
        "population:date": "2006",
        "source:population": "US Census",
        "wikidata": "Q575196",
        "wikipedia": "en:Grafton, Illinois"
      }
    },
    {
      "type": "node",
      "id": 151488162,
      "lat": 40.4058741,
      "lon": -90.0345612,
      "tags": {
        "ele": "175",
        "gnis:feature_id": "412276",
        "name": "Little America",
        "place": "hamlet"
      }
    },
    {
      "type": "node",
      "id": 151488271,
      "lat": 40.1319909,
      "lon": -90.7090182,
      "tags": {
        "ele": "170",
        "gnis:feature_id": "422676",
        "name": "Erwin",
        "place": "hamlet"
      }
    },
    {
      "type": "node",
      "id": 151488322,
      "lat": 38.7556047,
      "lon": -90.1039957,
      "tags": {
        "ele": "128",
        "gnis:feature_id": "405758",
        "name": "Cedar Park",
        "place": "hamlet"
      }
    },
    {
      "type": "node",
      "id": 151488401,
      "lat": 40.8486498,
      "lon": -90.5748556,
      "tags": {
        "ele": "236",
        "gnis:feature_id": "423066",
        "name": "Phelps",
        "place": "hamlet"
      }
    },
    {
      "type": "node",
      "id": 151488814,
      "lat": 40.6642065,
      "lon": -90.4348506,
      "tags": {
        "ele": "195",
        "gnis:feature_id": "403766",
        "name": "Avon",
        "place": "village",
        "population": "870",
        "population:date": "2006",
        "source:population": "US Census",
        "wikidata": "Q2671613",
        "wikipedia": "en:Avon, Illinois"
      }
    },
    {
      "type": "node",
      "id": 151489335,
      "lat": 40.8667452,
      "lon": -90.7499415,
      "tags": {
        "ele": "226",
        "gnis:feature_id": "411550",
        "name": "Kirkwood",
        "place": "village",
        "population": "678",
        "population:date": "2020",
        "source:population": "US Census",
        "wikidata": "Q478523",
        "wikipedia": "en:Kirkwood, Illinois"
      }
    },
    {
      "type": "node",
      "id": 151489389,
      "lat": 41.1022578,
      "lon": -90.801529,
      "tags": {
        "ele": "187",
        "gnis:feature_id": "418171",
        "name": "Seaton",
        "place": "village",
        "population": "231",
        "population:date": "2006",
        "source:population": "US Census",
        "wikidata": "Q2068458",
        "wikipedia": "en:Seaton, Illinois"
      }
    },
    {
      "type": "node",
      "id": 151489438,
      "lat": 38.2558874,
      "lon": -90.2659501,
      "tags": {
        "ele": "137",
        "gnis:feature_id": "413729",
        "name": "Monroe City",
        "place": "hamlet"
      }
    },
    {
      "type": "node",
      "id": 151489596,
      "lat": 39.62973,
      "lon": -90.4562813,
      "tags": {
        "capital": "6",
        "ele": "165",
        "gnis:feature_id": "421313",
        "name": "Winchester",
        "place": "town",
        "population": "1607",
        "population:date": "2006",
        "source:population": "US Census",
        "wikidata": "Q575394",
        "wikipedia": "en:Winchester, Illinois"
      }
    },
    {
      "type": "node",
      "id": 151491050,
      "lat": 40.5289313,
      "lon": -91.0229177,
      "tags": {
        "ele": "198",
        "gnis:feature_id": "422889",
        "name": "La Crosse",
        "place": "hamlet"
      }
    },
    {
      "type": "node",
      "id": 151492147,
      "lat": 41.1272583,
      "lon": -90.6415252,
      "tags": {
        "ele": "214",
        "gnis:feature_id": "405217",
        "name": "Burgess",
        "place": "hamlet",
        "wikidata": "Q4998575"
      }
    },
    {
      "type": "node",
      "id": 151492321,
      "lat": 41.2017036,
      "lon": -90.1190054,
      "tags": {
        "ele": "239",
        "gnis:feature_id": "404474",
        "name": "Bishop Hill",
        "place": "village",
        "population": "119",
        "population:date": "2006",
        "source:population": "US Census",
        "wikidata": "Q2894880",
        "wikipedia": "en:Bishop Hill, Illinois"
      }
    },
    {
      "type": "node",
      "id": 151495028,
      "lat": 38.2247876,
      "lon": -90.2334805,
      "tags": {
        "ele": "143",
        "gnis:feature_id": "412843",
        "name": "Maeystown",
        "place": "village",
        "population": "153",
        "population:date": "2006",
        "source:population": "US Census",
        "wikidata": "Q2615382",
        "wikipedia": "en:Maeystown, Illinois"
      }
    },
    {
      "type": "node",
      "id": 151495610,
      "lat": 39.3103244,
      "lon": -90.0781643,
      "tags": {
        "ele": "159",
        "gnis:feature_id": "422770",
        "name": "Hagaman",
        "place": "hamlet"
      }
    },
    {
      "type": "node",
      "id": 151496115,
      "lat": 38.5881055,
      "lon": -90.0059381,
      "tags": {
        "ele": "177",
        "gnis:feature_id": "426560",
        "name": "Union Hill",
        "place": "hamlet"
      }
    },
    {
      "type": "node",
      "id": 151496619,
      "lat": 39.070327,
      "lon": -90.6954012,
      "tags": {
        "ele": "133",
        "gnis:feature_id": "423258",
        "name": "Turner Landing",
        "place": "hamlet"
      }
    },
    {
      "type": "node",
      "id": 151499946,
      "lat": 40.7569833,
      "lon": -90.3198483,
      "tags": {
        "ele": "200",
        "gnis:feature_id": "410099",
        "name": "Hermon",
        "place": "hamlet"
      }
    },
    {
      "type": "node",
      "id": 151501813,
      "lat": 39.5061585,
      "lon": -90.4015116,
      "tags": {
        "ele": "199",
        "gnis:feature_id": "422440",
        "name": "Barrow",
        "place": "hamlet",
        "wikidata": "Q3469141"
      }
    },
    {
      "type": "node",
      "id": 151502333,
      "lat": 40.7855953,
      "lon": -90.9387517,
      "tags": {
        "ele": "189",
        "gnis:feature_id": "415078",
        "name": "Olena",
        "place": "hamlet"
      }
    },
    {
      "type": "node",
      "id": 151502358,
      "lat": 39.0506032,
      "lon": -90.3984486,
      "tags": {
        "ele": "191",
        "gnis:feature_id": "415234",
        "name": "Otterville",
        "place": "village",
        "population": "121",
        "population:date": "2006",
        "source:population": "US Census",
        "wikidata": "Q577369",
        "wikipedia": "en:Otterville, Illinois"
      }
    },
    {
      "type": "node",
      "id": 151503444,
      "lat": 40.556152,
      "lon": -90.8659692,
      "tags": {
        "ele": "222",
        "gnis:feature_id": "404553",
        "name": "Blandinsville",
        "place": "village",
        "population": "713",
        "population:date": "2006",
        "source:population": "US Census",
        "wikidata": "Q1965402",
        "wikipedia": "en:Blandinsville, Illinois"
      }
    },
    {
      "type": "node",
      "id": 151503477,
      "lat": 39.0228247,
      "lon": -90.1906657,
      "tags": {
        "ele": "189",
        "gnis:feature_id": "1747829",
        "name": "Lake Piasa",
        "place": "hamlet"
      }
    },