{
  "version": 0.6,
  "generator": "Overpass API 0.7.62.5 1bd436f1",
  "osm3s": {
    "timestamp_osm_base": "2025-04-08T19:22:20Z",
    "timestamp_areas_base": "2025-02-06T02:17:44Z",
    "copyright": "The data included in this document is from www.openstreetmap.org. The data is made available under ODbL."
  },
  "elements": [
    {
      "type": "node",
      "id": 31279205,
      "lat": 61.3154099,
      "lon": -149.561315,
      "tags": {
        "ele": "101",
        "gnis:feature_id": "1401545",
        "name": "Eagle River",
        "place": "suburb",
        "wikidata": "Q5325228"
      }
    },
    {
      "type": "node",
      "id": 31279208,
      "lat": 61.5824216,
      "lon": -149.442563,
      "tags": {
        "name": "Wasilla",
        "name:sr": "Васила",
        "place": "city",
        "population": "9054",
        "wikidata": "Q79957",
        "wikipedia": "en:Wasilla, Alaska"
      }
    },
    {
      "type": "node",
      "id": 150907218,
      "lat": 54.4780556,
      "lon": -162.8175,
      "tags": {
        "ele": "0",
        "gnis:feature_id": "1419172",
        "name": "Sanak",
        "place": "hamlet"
      }
    },
    {
      "type": "node",
      "id": 150907223,
      "lat": 60.3686111,
      "lon": -151.3063889,
      "tags": {
        "ele": "17",
        "gnis:feature_id": "1412828",
        "name": "Cohoe",
        "place": "hamlet"
      }
    },
    {
      "type": "node",
      "id": 150907229,
      "lat": 58.7266636,
      "lon": -157.0184255,
      "tags": {
        "capital": "6",
        "ele": "7",
        "gnis:feature_id": "1406798",
        "name": "Naknek",
        "name:en": "Naknek",
        "name:esu": "Nakniq",
        "place": "city",
        "wikidata": "Q751433",
        "wikipedia": "en:Naknek, Alaska"
      }
    },
    {
      "type": "node",
      "id": 150907232,
      "lat": 62.3713277,
      "lon": -143.0126323,
      "tags": {
        "ele": "908",
        "gnis:feature_id": "1406770",
        "name": "Nabesna",
        "name:en": "Nabesna",
        "name:tau": "Naambia Niign Daacheeg",
        "place": "hamlet"
      }
    },
    {
      "type": "node",
      "id": 150907235,
      "lat": 55.4850461,
      "lon": -132.636903,
      "tags": {
        "ele": "58",
        "gnis:feature_id": "1866952",
        "name": "Hollis",
        "place": "hamlet",
        "wikidata": "Q3043786",
        "wikipedia": "en:Hollis, Alaska"
      }
    },
    {
      "type": "node",
      "id": 150907240,
      "lat": 60.475,
      "lon": -164.4355556,
      "tags": {
        "ele": "1",
        "gnis:feature_id": "1397967",
        "name": "Aguikchuk",
        "place": "hamlet"
      }
    },
    {
      "type": "node",
      "id": 150907243,
      "lat": 55.3069444,
      "lon": -131.5663889,
      "tags": {
        "ele": "13",
        "gnis:feature_id": "1421335",
        "name": "Dairy",
        "place": "hamlet"
      }
    },
    {
      "type": "node",
      "id": 150916647,
      "lat": 65.0741667,
      "lon": -147.67,
      "tags": {
        "ele": "211",
        "gnis:feature_id": "1407530",
        "name": "Olnes",
        "place": "hamlet"
      }
    },
    {
      "type": "node",
      "id": 150916650,
      "lat": 61.785,
      "lon": -161.3202778,
      "tags": {
        "ele": "16",
        "gnis:feature_id": "1408925",
        "name": "Russian Mission",
        "name:en": "Russian Mission",
        "name:esu": "Iqugmiut",
        "name:ru": "Рашен-Мишен",
        "place": "village",
        "population": "421",
        "postal_code": "99657",
        "wikidata": "Q79337",
        "wikipedia": "en:Russian Mission, Alaska"
      }
    },
    {
      "type": "node",
      "id": 150916652,
      "lat": 61.6175,
      "lon": -165.9336111,
      "tags": {
        "ele": "8",
        "gnis:feature_id": "1403702",
        "name": "Igiak",
        "place": "hamlet"
      }
    },
    {
      "type": "node",
      "id": 150916663,
      "lat": 56.9758333,
      "lon": -133.947222,
      "tags": {
        "ele": "17",
        "gnis:feature_id": "1422926",
        "name": "Kake",
        "name:en": "Kake",
        "name:tli": "Ḵéex̱'",
        "place": "village",
        "population": "543",
        "wikidata": "Q79533",
        "wikipedia": "en:Kake, Alaska"
      }
    },
    {
      "type": "node",
      "id": 150916666,
      "lat": 61.4333333,
      "lon": -142.9216667,
      "tags": {
        "alt_name": "Mc Carthy",
        "ele": "427",
        "gnis:feature_id": "1406098",
        "name": "McCarthy",
        "place": "hamlet"
      }
    },
    {
      "type": "node",
      "id": 150916669,
      "lat": 64.5617435,
      "lon": -164.4406762,
      "tags": {
        "ele": "6",
        "gnis:feature_id": "1409869",
        "name": "Solomon",
        "place": "hamlet",
        "wikipedia": "en:Solomon, Alaska"
      }
    },
    {
      "type": "node",
      "id": 150916672,
      "lat": 63.1447028,
      "lon": -156.520174,
      "tags": {
        "ele": "173",
        "gnis:feature_id": "1407583",
        "name": "Ophir",
        "place": "hamlet",
        "wikidata": "Q3354131",
        "wikipedia": "en:Ophir, Alaska"
      }
    },
    {
      "type": "node",
      "id": 150916674,
      "lat": 62.5650257,
      "lon": -144.665191,
      "tags": {
        "ele": "566",
        "gnis:feature_id": "1400333",
        "import_uuid": "bb7269ee-502a-5391-8056-e3ce0e66489c",
        "name": "Chistochina",
        "name:aht": "Tsiis Tl'edze' Caegge",
        "name:en": "Chistochina",
        "place": "hamlet"
      }
    },
    {
      "type": "node",
      "id": 150916680,
      "lat": 60.6902778,
      "lon": -151.2888889,
      "tags": {
        "ele": "39",
        "gnis:feature_id": "1416651",
        "name": "Nikiski",
        "place": "hamlet"
      }
    },
    {
      "type": "node",
      "id": 150916682,
      "lat": 55.5523788,
      "lon": -133.097058,
      "tags": {
        "gnis:feature_id": "1423100",
        "name": "Klawock",
        "name:en": "Klawock",
        "name:tli": "Láwaak",
        "place": "village",
        "population": "720",
        "wikidata": "Q79338",
        "wikipedia": "en:Klawock, Alaska"
      }
    },
    {
      "type": "node",
      "id": 150916698,
      "lat": 65.126945,
      "lon": -165.1708438,
      "tags": {
        "ele": "6",
        "gnis:feature_id": "1406968",
        "name": "New Igloo",
        "place": "hamlet"
      }
    },
    {
      "type": "node",
      "id": 150916705,
      "lat": 62.048306,
      "lon": -146.5382167,
      "tags": {
        "ele": "662",
        "gnis:feature_id": "1406228",
        "name": "Mendeltna Creek Lodge",
        "place": "hamlet"
      }
    },
    {
      "type": "node",
      "id": 150916708,
      "lat": 61.7472222,
      "lon": -150.0375,
      "tags": {
        "ele": "65",
        "gnis:feature_id": "1417146",
        "name": "Willow",
        "place": "town",
        "population": "2196",
        "wikidata": "Q923710",
        "wikipedia": "en:Willow, Alaska"
      }
    },
    {
      "type": "node",
      "id": 150916732,
      "lat": 62.9620769,
      "lon": -141.9367513,
      "tags": {
        "ele": "521",
        "gnis:feature_id": "1407253",
        "name": "Northway",
        "name:en": "Northway",
        "name:tau": "K'ehtthiign",
        "place": "hamlet"
      }
    },
    {
      "type": "node",
      "id": 150916734,
      "lat": 53.8735828,
      "lon": -166.5328654,
      "tags": {
        "ele": "4",
        "gnis:feature_id": "1419424",
        "name": "Unalaska",
        "name:en": "Unalaska",
        "name:ru": "Уналашка",
        "place": "city",
        "population": "4254",
        "population:date": "2020",
        "source:population": "wikipedia",
        "website": "http://www.unalaska-ak.us/",
        "wikidata": "Q79982",
        "wikipedia": "en:Unalaska, Alaska"
      }
    },
    {
      "type": "node",
      "id": 150916737,
      "lat": 66.8982057,
      "lon": -162.5977621,
      "tags": {
        "addr:postcode": "99752",
        "capital": "6",
        "ele": "6",
        "gnis:feature_id": "1413378",
        "name": "Kotzebue",
        "name:en": "Kotzebue",
        "name:ik": "Qikiqtaġruk",
        "place": "town",
        "population": "3185",
        "population:date": "2006",
        "source:population": "US Census",
        "wikidata": "Q79810",
        "wikipedia": "en:Kotzebue, Alaska"
      }
    },
    {
      "type": "node",
      "id": 150916740,
      "lat": 62.4690974,
      "lon": -156.0221023,
      "tags": {
        "ele": "84",
        "gnis:feature_id": "1953014",
        "name": "Deacons Landing",
        "place": "hamlet"
      }
    },
    {
      "type": "node",
      "id": 150916743,
      "lat": 56.2530286,
      "lon": -158.763948,
      "tags": {
        "ele": "3",
        "gnis:feature_id": "1893911",
        "name": "Chignik Lake",
        "name:ems": "Igyaraq",
        "name:en": "Chignik Lake",
        "place": "hamlet",
        "wikidata": "Q2371148",
        "wikipedia": "en:Chignik Lake, Alaska"
      }
    },
    {
      "type": "node",
      "id": 150916746,
      "lat": 62.7304426,
      "lon": -163.9284619,
      "tags": {
        "alt_name": "New Fort Hamilton",
        "ele": "3",
        "gnis:feature_id": "1406967",
        "name": "New Hamilton",
        "place": "hamlet",
        "source:name": "Dictionary of Alaska Place Names (Orth,1967)"
      }
    },
    {
      "type": "node",
      "id": 150916748,
      "lat": 56.2499977,
      "lon": -134.6466848,
      "tags": {
        "ele": "13",
        "gnis:feature_id": "1424551",
        "name": "Port Alexander",
        "place": "village",
        "population": "78",
        "population:date": "2020",
        "source:population": "United States Census"
      }
    },
    {
      "type": "node",
      "id": 150916754,
      "lat": 62.0602778,
      "lon": -160.9508333,
      "tags": {
        "ele": "139",
        "gnis:feature_id": "1410286",
        "name": "Stuyahok",
        "place": "hamlet"
      }
    },
    {
      "type": "node",
      "id": 150916756,
      "lat": 55.9369429,
      "lon": -133.3248745,
      "tags": {
        "ele": "12",
        "gnis:feature_id": "1896999",
        "name": "New Tokeen",
        "place": "hamlet"
      }
    },
    {
      "type": "node",
      "id": 150916758,
      "lat": 61.6302778,
      "lon": -149.818055,
      "tags": {
        "ele": "76",
        "gnis:feature_id": "1416613",
        "name": "Houston",
        "place": "village",
        "population": "1975",
        "website": "https://www.houstonak.com/",
        "wikidata": "Q80122",
        "wikipedia": "en:Houston, Alaska"
      }
    },
    {
      "type": "node",
      "id": 150916769,
      "lat": 64.0373478,
      "lon": -145.732157,
      "tags": {
        "ele": "353",
        "gnis:feature_id": "1401104",
        "name": "Delta Junction",
        "name:ru": "Делта-Джанкшен",
        "place": "town",
        "population": "918",
        "wikidata": "Q79365",
        "wikipedia": "en:Delta Junction, Alaska"
      }
    },
    {
      "type": "node",
      "id": 150916771,
      "lat": 65.1355413,
      "lon": -153.5565809,
      "tags": {
        "ele": "50",
        "gnis:feature_id": "1399076",
        "name": "Birches",
        "place": "hamlet"
      }
    },
    {
      "type": "node",
      "id": 150916774,
      "lat": 61.0380556,
      "lon": -151.2830556,
      "tags": {
        "ele": "10",
        "gnis:feature_id": "1413700",
        "name": "Old Tyonek",
        "place": "hamlet"
      }
    },
    {
      "type": "node",
      "id": 150916794,
      "lat": 65.2097222,
      "lon": -161.1655556,
      "tags": {
        "ele": "59",
        "gnis:feature_id": "1403253",
        "name": "Haycock",
        "place": "hamlet"
      }
    },
    {
      "type": "node",
      "id": 150916796,
      "lat": 64.8372222,
      "lon": -147.7958333,
      "tags": {
        "ele": "135",
        "gnis:feature_id": "1411928",
        "name": "Westgate",
        "place": "hamlet"
      }
    },
    {
      "type": "node",
      "id": 150916799,
      "lat": 62.4491667,
      "lon": -150.1016667,
      "tags": {
        "ele": "166",
        "gnis:feature_id": "1866934",
        "name": "Chase",
        "place": "hamlet"
      }
    },
    {
      "type": "node",
      "id": 150916805,
      "lat": 64.5727778,
      "lon": -163.7541667,
      "tags": {
        "ele": "19",
        "gnis:feature_id": "1399220",
        "name": "Bluff",
        "place": "hamlet"
      }
    },
    {
      "type": "node",
      "id": 150916808,
      "lat": 59.8211111,
      "lon": -164.0286111,
      "tags": {
        "ele": "1",
        "gnis:feature_id": "1398315",
        "name": "Anogok",
        "place": "hamlet"
      }
    },
    {
      "type": "node",
      "id": 150916816,
      "lat": 63.5219485,
      "lon": -162.2893322,
      "tags": {
        "ele": "5",
        "gnis:feature_id": "1410158",
        "name": "Stebbins",
        "name:en": "Stebbins",
        "name:esu": "Tapraq",
        "place": "village",
        "population": "549",
        "population:date": "2006",
        "source:population": "US Census",
        "wikidata": "Q79689",
        "wikipedia": "en:Stebbins, Alaska"
      }
    },
    {
      "type": "node",
      "id": 150916819,
      "lat": 70.2922222,
      "lon": -148.6694444,
      "tags": {
        "ele": "9",
        "gnis:feature_id": "1865563",
        "name": "Prudhoe Bay",
        "name:en": "Prudhoe Bay",
        "name:ik": "Sagavanirktok",
        "place": "hamlet"
      }
    },
    {
      "type": "node",
      "id": 150916824,
      "lat": 61.5151697,
      "lon": -160.3602872,
      "tags": {
        "ele": "8",
        "gnis:feature_id": "1405763",
        "name": "Lower Kalskag",
        "place": "village",
        "population": "269",
        "population:date": "2006",
        "source:population": "US Census",
        "wikidata": "Q79269",
        "wikipedia": "en:Lower Kalskag, Alaska"
      }
    },
    {
      "type": "node",
      "id": 150916835,
      "lat": 58.9804389,
      "lon": -159.0580318,
      "tags": {
        "ele": "5",
        "gnis:feature_id": "1405927",
        "name": "Manokotak",
        "name:en": "Manokotak",
        "name:esu": "Manuquutaq",
        "place": "village",
        "population": "403",
        "population:date": "2006",
        "source:population": "US Census",
        "wikidata": "Q79959",
        "wikipedia": "en:Manokotak, Alaska"
      }
    },
    {
      "type": "node",
      "id": 150916840,
      "lat": 60.8866667,
      "lon": -149.4277778,
      "tags": {
        "ele": "82",
        "gnis:feature_id": "1865566",
        "name": "Sunrise",
        "place": "hamlet"
      }
    },
    {
      "type": "node",
      "id": 150916843,
      "lat": 59.439206,
      "lon": -151.7139091,
      "tags": {
        "ele": "16",
        "gnis:feature_id": "1413937",
        "name": "Seldovia",
        "name:ems": "Angagkitaqnuuq",
        "name:en": "Seldovia",
        "name:ru": "Селдовия",
        "place": "village",
        "population": "235",
        "population:date": "2020",
        "source:population": "US Census",
        "wikidata": "Q79430",
        "wikipedia": "en:Seldovia, Alaska"
      }
    },
    {
      "type": "node",
      "id": 150916848,
      "lat": 62.066835,
      "lon": -146.4478629,
      "tags": {
        "ele": "744",
        "gnis:feature_id": "1866962",
        "name": "Mendeltna",
        "place": "hamlet"
      }
    },
    {
      "type": "node",
      "id": 150916857,
      "lat": 62.9883139,
      "lon": -156.0641345,
      "tags": {
        "ele": "139",
        "gnis:feature_id": "1410562",
        "name": "Takotna",
        "name:en": "Takotna",
        "name:kuu": "Tochotno'",
        "place": "hamlet"
      }
    },
    {
      "type": "node",
      "id": 150916872,
      "lat": 55.183435,
      "lon": -160.507527,
      "tags": {
        "ele": "10",
        "gnis:feature_id": "1419430",
        "name": "Unga",
        "place": "village",
        "wikidata": "Q787715",
        "wikipedia": "en:Unga, Alaska"
      }
    },
    {
      "type": "node",
      "id": 150916878,
      "lat": 60.1642455,
      "lon": -149.4053587,
      "tags": {
        "ele": "42",
        "gnis:feature_id": "1865547",
        "name": "Bear Creek",
        "place": "village"
      }
    },
    {
      "type": "node",
      "id": 150916881,
      "lat": 57.4611111,
      "lon": -135.0397222,
      "tags": {
        "ele": "18",
        "gnis:feature_id": "1415339",
        "name": "Todd",
        "place": "hamlet"
      }
    },
    {
      "type": "node",
      "id": 150916888,
      "lat": 64.9644444,
      "lon": -164.655,
      "tags": {
        "ele": "101",
        "gnis:feature_id": "1403917",
        "name": "Iron Creek",
        "place": "hamlet"
      }
    },
    {
      "type": "node",
      "id": 150916891,
      "lat": 64.6803057,
      "lon": -163.4047776,
      "tags": {
        "ele": "19",
        "gnis:feature_id": "1411989",
        "name": "White Mountain",
        "name:en": "White Mountain",
        "name:ik": "Nasirvik",
        "place": "village",
        "population": "185",
        "population:date": "2020",
        "source:population": "US Census",
        "wikidata": "Q79361",
        "wikipedia": "en:White Mountain, Alaska"
      }
    },
    {
      "type": "node",
      "id": 150916896,
      "lat": 63.2361111,
      "lon": -162.5925,
      "tags": {
        "ele": "5",
        "gnis:feature_id": "1407964",
        "name": "Pikmiktalik",
        "place": "hamlet"
      }
    },
    {
      "type": "node",
      "id": 150916899,
      "lat": 62.9036111,
      "lon": -160.0647222,
      "tags": {
        "ele": "21",
        "gnis:feature_id": "1402921",
        "name": "Grayling",
        "name:en": "Grayling",
        "name:hoi": "Sixno' Xidakagg",
        "place": "village",
        "population": "174",
        "population:date": "2006",
        "source:population": "US Census",
        "wikidata": "Q79551",
        "wikipedia": "en:Grayling, Alaska"
      }
    },
    {
      "type": "node",
      "id": 150916902,
      "lat": 61.8083333,
      "lon": -161.9083333,
      "tags": {
        "ele": "109",
        "gnis:feature_id": "1897310",
        "name": "Willow Creek",
        "place": "hamlet"
      }
    },
    {
      "type": "node",
      "id": 150916906,
      "lat": 60.0579584,
      "lon": -148.0518845,
      "tags": {
        "ele": "6",
        "gnis:feature_id": "1424555",
        "name": "Port Ashton",
        "place": "hamlet"
      }
    },
    {
      "type": "node",
      "id": 150916912,
      "lat": 59.67,
      "lon": -151.4341667,
      "tags": {
        "ele": "32",
        "gnis:feature_id": "1413247",
        "name": "Kachemak City",
        "place": "hamlet"
      }
    },
    {
      "type": "node",
      "id": 150916922,
      "lat": 58.0566667,
      "lon": -135.5077778,
      "tags": {
        "ele": "167",
        "gnis:feature_id": "1866948",
        "name": "Game Creek",
        "place": "hamlet"
      }
    },
    {
      "type": "node",
      "id": 150916925,
      "lat": 58.0711111,
      "lon": -135.4297222,
      "tags": {
        "ele": "84",
        "gnis:feature_id": "1866976",
        "name": "Whitestone Logging Camp (Abandoned)",
        "place": "hamlet"
      }
    },
    {
      "type": "node",
      "id": 150916938,
      "lat": 55.2071632,
      "lon": -162.7146533,
      "tags": {
        "ele": "42",
        "gnis:feature_id": "1418448",
        "name": "Cold Bay",
        "place": "city",
        "population": "78",
        "population:date": "2006",
        "source:population": "US Census"
      }
    },
    {
      "type": "node",
      "id": 150916943,
      "lat": 61.3563889,
      "lon": -155.4355556,
      "tags": {
        "ele": "181",
        "gnis:feature_id": "1405351",
        "name": "Lime Village",
        "name:en": "Lime Village",
        "name:tfn": "Hekdichen Hdakaq'",
        "place": "hamlet",
        "population": "29",
        "wikidata": "Q2433389",
        "wikipedia": "en:Lime Village, Alaska"
      }
    },
    {
      "type": "node",
      "id": 150916946,
      "lat": 55.4096986,
      "lon": -131.7242719,
      "tags": {
        "ele": "50",
        "gnis:feature_id": "1415612",
        "name": "Ward Cove",
        "place": "hamlet",
        "wikidata": "Q7968995"
      }
    },
    {
      "type": "node",
      "id": 150916952,
      "lat": 60.4218298,
      "lon": -149.3718213,
      "tags": {
        "ele": "278",
        "gnis:feature_id": "1866939",
        "name": "Crown Point",
        "place": "hamlet"
      }
    },
    {
      "type": "node",
      "id": 150916955,
      "lat": 66.9935335,
      "lon": -162.8264034,
      "tags": {
        "ele": "3",
        "gnis:feature_id": "1413968",
        "name": "Sheshalik",
        "place": "hamlet",
        "wikidata": "Q7495623"
      }
    },
    {
      "type": "node",
      "id": 150916961,
      "lat": 65.558379,
      "lon": -167.9492412,
      "tags": {
        "ele": "10",
        "gnis:feature_id": "1410976",
        "name": "Tin City",
        "place": "hamlet",
        "wikidata": "Q14680230",
        "wikipedia": "en:Tin City, Alaska"
      }
    },
    {
      "type": "node",
      "id": 150916963,
      "lat": 60.9632459,
      "lon": -149.1336969,
      "tags": {
        "ele": "11",
        "gnis:feature_id": "1422161",
        "name": "Girdwood",
        "place": "village",
        "population": "2065",
        "wikidata": "Q3055477"
      }
    },
    {
      "type": "node",
      "id": 150916969,
      "lat": 57.5130556,
      "lon": -157.3975,
      "tags": {
        "ele": "9",
        "gnis:feature_id": "1411486",
        "name": "Ugashik",
        "name:ems": "Ugaasaq",
        "name:en": "Ugashik",
        "place": "hamlet"
      }
    },
    {
      "type": "node",
      "id": 150916982,
      "lat": 60.9378263,
      "lon": -162.5817371,
      "tags": {
        "ele": "5",
        "gnis:feature_id": "1407333",
        "name": "Nunachuk",
        "place": "hamlet"
      }
    },
    {
      "type": "node",
      "id": 150916985,
      "lat": 59.0691695,
      "lon": -158.4415027,
      "tags": {
        "ele": "22",
        "gnis:feature_id": "1412248",
        "name": "Wood River",
        "place": "hamlet"
      }
    },
    {
      "type": "node",
      "id": 150916987,
      "lat": 55.6025242,
      "lon": -131.6369426,
      "tags": {
        "ele": "6",
        "gnis:feature_id": "1423422",
        "name": "Loring",
        "place": "hamlet",
        "population": "4",
        "wikidata": "Q5979198"
      }
    },
    {
      "type": "node",
      "id": 150916998,
      "lat": 59.445286,
      "lon": -139.5703395,
      "tags": {
        "ele": "0",
        "gnis:feature_id": "1414748",
        "name": "Situk",
        "place": "hamlet"
      }
    },
    {
      "type": "node",
      "id": 150917000,
      "lat": 62.3361111,
      "lon": -165.335,
      "tags": {
        "ele": "1",
        "gnis:feature_id": "1399108",
        "name": "Black",
        "place": "hamlet"
      }
    },
    {
      "type": "node",
      "id": 150917006,
      "lat": 62.0855556,
      "lon": -163.7294444,
      "tags": {
        "ele": "5",
        "gnis:feature_id": "1406655",
        "name": "Mountain Village",
        "name:en": "Mountain Village",
        "name:esu": "Asaacaryaraq",
        "place": "village",
        "population": "812",
        "population:date": "2006",
        "source:population": "US Census",
        "wikidata": "Q79558",
        "wikipedia": "en:Mountain Village, Alaska"
      }
    },
    {
      "type": "node",
      "id": 150917009,
      "lat": 62.0524065,
      "lon": -163.1726947,
      "tags": {
        "ele": "20",
        "gnis:feature_id": "1398261",
        "name": "Saint Mary's",
        "name:en": "Saint Mary's",
        "name:esu": "Negeqliq",
        "place": "village",
        "population": "507",
        "wikidata": "Q80087",
        "wikipedia": "en:St. Mary's, Alaska"
      }
    },
    {
      "type": "node",
      "id": 150917014,
      "lat": 64.5635293,
      "lon": -149.0959778,
      "tags": {
        "ele": "107",
        "gnis:feature_id": "1406940",
        "name": "Nenana",
        "place": "village",
        "population": "353",
        "population:date": "2006",
        "source:population": "US Census",
        "wikidata": "Q80058"
      }
    },
    {
      "type": "node",
      "id": 150917016,
      "lat": 60.2046557,
      "lon": -166.9439981,
      "tags": {
        "ele": "0",
        "gnis:feature_id": "1406850",
        "name": "Nash Harbor",
        "place": "hamlet"
      }
    },
    {
      "type": "node",
      "id": 150917034,
      "lat": 64.55,
      "lon": -165.15,
      "tags": {
        "ele": "30",
        "gnis:feature_id": "1893605",
        "name": "Bessie No. 5 Dredge Camp",
        "place": "hamlet"
      }
    },
    {
      "type": "node",
      "id": 150917037,
      "lat": 67.5052778,
      "lon": -148.4936111,
      "tags": {
        "ele": "572",
        "gnis:feature_id": "1400137",
        "name": "Chandalar",
        "place": "hamlet"
      }
    },
    {
      "type": "node",
      "id": 150917040,
      "lat": 63.3778558,
      "lon": -143.3623963,
      "tags": {
        "ele": "469",
        "gnis:feature_id": "1410618",
        "name": "Tanacross",
        "name:en": "Tanacross",
        "name:tcb": "Taats'altęy",
        "place": "hamlet"
      }
    },
    {
      "type": "node",
      "id": 150917043,
      "lat": 55.3430696,
      "lon": -131.6466819,
      "tags": {
        "capital": "6",
        "gnis:feature_id": "1423039",
        "name": "Ketchikan",
        "name:en": "Ketchikan",
        "name:ru": "Кетчикан",
        "name:sr": "Кечикан",
        "name:tli": "Kichx̱áan",
        "name:uk": "Кетчикан",
        "place": "city",
        "population": "7446",
        "wikidata": "Q43981",
        "wikipedia": "en:Ketchikan, Alaska"
      }
    },
    {
      "type": "node",
      "id": 150917048,
      "lat": 55.2074734,
      "lon": -132.8276574,
      "tags": {
        "ele": "7",
        "gnis:feature_id": "1422709",
        "name": "Hydaburg",
        "name:en": "Hydaburg",
        "name:hai": "Higdáa G̱ándlaay",
        "place": "village",
        "population": "380",
        "wikidata": "Q79680",
        "wikipedia": "en:Hydaburg, Alaska"
      }
    },
    {
      "type": "node",
      "id": 150917055,
      "lat": 59.712668,
      "lon": -151.3355452,
      "tags": {
        "ele": "365",
        "gnis:feature_id": "1866947",
        "name": "Fritz Creek",
        "place": "hamlet"
      }
    },
    {
      "type": "node",
      "id": 150917061,
      "lat": 67.1794444,
      "lon": -160.4030556,
      "tags": {
        "ele": "89",
        "gnis:feature_id": "1413355",
        "name": "Klery Creek",
        "place": "hamlet"
      }
    },
    {
      "type": "node",
      "id": 150917106,
      "lat": 65.3334581,
      "lon": -166.4898045,
      "tags": {
        "ele": "5",
        "gnis:feature_id": "1420670",
        "name": "Brevig Mission",
        "name:en": "Brevig Mission",
        "name:ik": "Sitaisaq",
        "place": "village",
        "population": "388",
        "population:date": "2010",
        "source:population": "US Census",
        "wikidata": "Q79698",
        "wikipedia": "en:Brevig Mission, Alaska"
      }
    },
    {
      "type": "node",
      "id": 150917117,
      "lat": 65.8944444,
      "lon": -162.4491667,
      "tags": {
        "ele": "43",
        "gnis:feature_id": "1412756",
        "name": "Chicago Creek",
        "place": "hamlet"
      }
    },
    {
      "type": "node",
      "id": 150917119,
      "lat": 56.4706022,
      "lon": -132.3829431,
      "tags": {
        "capital": "6",
        "ele": "21",
        "gnis:feature_id": "1415843",
        "name": "Wrangell",
        "name:en": "Wrangell",
        "name:tli": "Ḵaachx̱aana.áak'w",
        "place": "city",
        "population": "2127",
        "population:date": "2020",
        "source:population": "US Census",
        "wikidata": "Q43983",
        "wikipedia": "en:Wrangell, Alaska"
      }
    },
    {
      "type": "node",
      "id": 150917122,
      "lat": 59.1181152,
      "lon": -161.5861396,
      "tags": {
        "ele": "8",
        "gnis:feature_id": "1415910",
        "name": "Goodnews Bay",
        "name:en": "Goodnews Bay",
        "name:esu": "Mamterat",
        "place": "village",
        "population": "232",
        "population:date": "2006",
        "source:population": "US Census",
        "wikidata": "Q79543",
        "wikipedia": "en:Goodnews Bay, Alaska"
      }
    },
    {
      "type": "node",
      "id": 150917124,
      "lat": 61.8429222,
      "lon": -165.5823209,
      "tags": {
        "ele": "5",
        "gnis:feature_id": "1409133",
        "name": "Scammon Bay",
        "name:en": "Scammon Bay",
        "name:esu": "Marayaarmiut",
        "place": "hamlet",
        "population": "600",
        "population:date": "2020",
        "source:population": "US Census",
        "wikidata": "Q80094",
        "wikipedia": "en:Scammon Bay, Alaska"
      }
    },
    {
      "type": "node",
      "id": 150917127,
      "lat": 57.786736,
      "lon": -135.0908625,
      "tags": {
        "ele": "6",
        "gnis:feature_id": "1420807",
        "name": "Cannery",
        "place": "hamlet"
      }
    },
    {
      "type": "node",
      "id": 150917129,
      "lat": 60.7730556,
      "lon": -148.6838889,
      "tags": {
        "ele": "13",
        "gnis:feature_id": "1415757",
        "name": "Whittier",
        "name:en": "Whittier",
        "name:ru": "Уиттиер",
        "place": "town",
        "population": "272",
        "population:date": "2020",
        "source:population": "US Census",
        "wikidata": "Q79716",
        "wikipedia": "en:Whittier, Alaska"
      }
    },
    {
      "type": "node",
      "id": 150917132,
      "lat": 52.9380556,
      "lon": -168.8677778,
      "tags": {
        "ele": "10",
        "gnis:feature_id": "1418954",
        "name": "Nikolski",
        "place": "hamlet"
      }
    },
    {
      "type": "node",
      "id": 150917135,
      "lat": 61.1886111,
      "lon": -149.9063889,
      "tags": {
        "ele": "28",
        "gnis:feature_id": "1410007",
        "name": "Spenard",
        "place": "hamlet",
        "wikidata": "Q7575934"
      }
    },
    {
      "type": "node",
      "id": 150917138,
      "lat": 66.5617834,
      "lon": -152.6542245,
      "tags": {
        "ele": "122",
        "gnis:feature_id": "1398129",
        "name": "Allakaket",
        "name:en": "Allakaket",
        "name:koy": "Aalaa Kkaakk'et",
        "place": "hamlet",
        "population": "87",
        "population:date": "2006",
        "source:population": "US Census"
      }
    },
    {
      "type": "node",
      "id": 150917141,
      "lat": 69.3669444,
      "lon": -152.1441667,
      "tags": {
        "ele": "84",
        "gnis:feature_id": "1411508",
        "name": "Umiat",
        "place": "hamlet"
      }
    },
    {
      "type": "node",
      "id": 150917151,
      "lat": 63.8827778,
      "lon": -152.3122222,
      "tags": {
        "ele": "208",
        "gnis:feature_id": "1405185",
        "name": "Lake Minchumina",
        "name:en": "Lake Minchumina",
        "name:koy": "Menchuh Mene'",
        "place": "hamlet"
      }
    },
    {
      "type": "node",
      "id": 150917165,
      "lat": 54.9084247,
      "lon": -163.3080968,
      "tags": {
        "ele": "0",
        "gnis:feature_id": "1418927",
        "name": "Morzhovoi",
        "place": "hamlet",
        "wikidata": "Q11693684"
      }
    },
    {
      "type": "node",
      "id": 150917170,
      "lat": 55.3825036,
      "lon": -131.473698,
      "tags": {
        "ele": "0",
        "gnis:feature_id": "1893567",
        "name": "Beaver Falls",
        "place": "hamlet"
      }
    },
    {
      "type": "node",
      "id": 150917175,
      "lat": 63.0102013,
      "lon": -141.8008471,
      "tags": {
        "ele": "516",
        "gnis:feature_id": "1866965",
        "name": "Northway Junction",
        "place": "hamlet"
      }
    },
    {
      "type": "node",
      "id": 150917183,
      "lat": 59.0426564,
      "lon": -156.8392727,
      "tags": {
        "ele": "14",
        "gnis:feature_id": "1403126",
        "name": "Hallersville",
        "place": "hamlet"
      }
    },
    {
      "type": "node",
      "id": 150917188,
      "lat": 62.2105556,
      "lon": -159.7858333,
      "tags": {
        "ele": "26",
        "gnis:feature_id": "1402810",
        "name": "Gost Creek",
        "place": "hamlet"
      }
    },
    {
      "type": "node",
      "id": 150917197,
      "lat": 70.915,
      "lon": -153.0725,
      "tags": {
        "ele": "1",
        "gnis:feature_id": "1404906",
        "name": "Kokruagarok",
        "place": "hamlet"
      }
    },
    {
      "type": "node",
      "id": 150917200,
      "lat": 62.3011868,
      "lon": -145.3035308,
      "tags": {
        "ele": "434",
        "gnis:feature_id": "1402448",
        "name": "Gakona",
        "name:aht": "Ggax Kuna'",
        "name:en": "Gakona",
        "place": "hamlet"
      }
    },
    {
      "type": "node",
      "id": 150917211,
      "lat": 55.4208333,
      "lon": -131.7680556,
      "tags": {
        "ele": "28",
        "gnis:feature_id": "1423825",
        "name": "Mud Bay",
        "place": "hamlet"
      }
    },
    {
      "type": "node",
      "id": 150917218,
      "lat": 67.5700304,
      "lon": -162.9696122,
      "tags": {
        "ele": "15",
        "gnis:feature_id": "1413638",
        "name": "Noatak",
        "name:en": "Noatak",
        "name:ik": "Nuataaq",
        "place": "hamlet",
        "population": "514",
        "wikidata": "Q763921",
        "wikipedia": "en:Noatak, Alaska"
      }
    },
    {
      "type": "node",
      "id": 150917223,
      "lat": 61.5169309,
      "lon": -144.4402561,
      "tags": {
        "ele": "181",
        "gnis:feature_id": "1400337",
        "name": "Chitina",
        "name:aht": "Tsedi Na'",
        "name:en": "Chitina",
        "place": "hamlet",
        "wikidata": "Q1074916"
      }
    },
    {
      "type": "node",
      "id": 150917229,
      "lat": 62.7773284,
      "lon": -164.5296693,
      "tags": {
        "ele": "2",
        "name": "Emmonak",
        "name:en": "Emmonak",
        "name:esu": "Imangaq",
        "place": "village",
        "population": "825",
        "population:date": "2020",
        "source:population": "US Census",
        "wikidata": "Q79553",
        "wikipedia": "en:Emmonak, Alaska"
      }
    },
    {
      "type": "node",
      "id": 150917234,
      "lat": 61.1411111,
      "lon": -151.0827778,
      "tags": {
        "ele": "34",
        "gnis:feature_id": "1865548",
        "name": "Beluga",
        "place": "hamlet",
        "wikidata": "Q1811196",
        "wikipedia": "en:Beluga, Alaska"
      }
    },
    {
      "type": "node",
      "id": 150917242,
      "lat": 61.9901448,
      "lon": -146.7765926,
      "tags": {
        "ele": "732",
        "gnis:feature_id": "1865559",
        "name": "Nelchina",
        "place": "hamlet"
      }
    },
    {
      "type": "node",
      "id": 150917244,
      "lat": 66.6023978,
      "lon": -160.0113003,
      "tags": {
        "ele": "0",
        "gnis:feature_id": "1413930",
        "name": "Selawik",
        "name:en": "Selawik",
        "name:ik": "Siiḷivik",
        "place": "village",
        "population": "807",
        "population:date": "2006",
        "source:population": "US Census",
        "wikidata": "Q79395",
        "wikipedia": "es:Selawik (Alaska)"
      }
    },
    {
      "type": "node",
      "id": 150917255,
      "lat": 61.5727778,
      "lon": -149.2408333,
      "tags": {
        "ele": "61",
        "gnis:feature_id": "1865553",
        "name": "Gateway",
        "place": "hamlet"
      }
    },
    {
      "type": "node",
      "id": 150917260,
      "lat": 60.6833333,
      "lon": -151.3788889,
      "tags": {
        "ele": "39",
        "gnis:feature_id": "1416616",
        "name": "Port Nikiski",
        "place": "hamlet"
      }
    },
    {
      "type": "node",
      "id": 150917262,
      "lat": 56.9456127,
      "lon": -154.1736137,
      "tags": {
        "ele": "9",
        "gnis:feature_id": "1398007",
        "name": "Akhiok",
        "name:ems": "Kasukuak",
        "name:en": "Akhiok",
        "place": "hamlet",
        "population": "63",
        "population:date": "2020",
        "source:population": "US Census",
        "wikidata": "Q79560",
        "wikipedia": "en:Akhiok, Alaska"
      }
    },
    {
      "type": "node",
      "id": 150917265,
      "lat": 60.4183333,
      "lon": -151.29,
      "tags": {
        "ele": "7",
        "gnis:feature_id": "1413260",
        "name": "Kalifornsky",
        "name:en": "Kalifornsky",
        "name:tfn": "Unhghenesditnu",
        "place": "hamlet"
      }
    },
    {
      "type": "node",
      "id": 150917268,
      "lat": 67.2533607,
      "lon": -150.1800263,
      "tags": {
        "ele": "309",
        "gnis:feature_id": "1412829",
        "name": "Coldfoot",
        "place": "hamlet"
      }
    },
    {
      "type": "node",
      "id": 150917270,
      "lat": 63.8730556,
      "lon": -160.7880556,
      "tags": {
        "ele": "2",
        "gnis:feature_id": "1411517",
        "name": "Unalakleet",
        "name:en": "Unalakleet",
        "name:ik": "Uŋalaqłiit",
        "place": "village",
        "population": "748",
        "population:date": "2006",
        "source:population": "US Census",
        "wikidata": "Q79812",
        "wikipedia": "en:Unalakleet, Alaska"
      }
    },
    {
      "type": "node",
      "id": 150917280,
      "lat": 63.0324996,
      "lon": -163.5578248,
      "tags": {
        "ele": "0",
        "gnis:feature_id": "1404964",
        "name": "Kotlik",
        "name:en": "Kotlik",
        "name:esu": "Qerrulliik",
        "place": "hamlet",
        "population": "655",
        "population:date": "2020",
        "source:population": "US Census"
      }
    },
    {
      "type": "node",
      "id": 150917282,
      "lat": 59.0398598,
      "lon": -158.4604177,
      "tags": {
        "ele": "29",
        "gnis:feature_id": "1401203",
        "name": "Dillingham",
        "name:en": "Dillingham",
        "name:esu": "Curyung",
        "place": "village",
        "population": "2491",
        "population:date": "2006",
        "source:population": "US Census",
        "wikidata": "Q79383",
        "wikipedia": "en:Dillingham, Alaska"
      }
    },
    {
      "type": "node",
      "id": 150917285,
      "lat": 52.9237966,
      "lon": 173.2378362,
      "tags": {
        "boundary": "protected_area",
        "ele": "42",
        "gnis:feature_id": "1416083",
        "heritage": "2",
        "heritage:operator": "nrhp",
        "heritage:website": "https://www.nps.gov/subjects/nationalregister/index.htm",
        "historic": "battlefield",
        "name": "Attu Village",
        "nrhp:criteria": "(A)",
        "nrhp:inscription_date": "1985-02-04",
        "nrhp:nhl": "yes",
        "place": "hamlet",
        "population": "0",
        "protect_class": "22",
        "protection_title": "U.S. Fish and Wildlife Service",
        "ref:nrhp": "85002729",
        "source_ref": "https://catalog.archives.gov/id/75325281",
        "start_date": "1942"
      }
    },
    {
      "type": "node",
      "id": 150917289,
      "lat": 59.8583333,
      "lon": -150.9583333,
      "tags": {
        "ele": "160",
        "gnis:feature_id": "1866945",
        "name": "Fox River",
        "place": "hamlet"
      }
    },
    {
      "type": "node",
      "id": 150917294,
      "lat": 58.3916667,
      "lon": -134.5666667,
      "tags": {
        "ele": "23",
        "gnis:feature_id": "1415962",
        "name": "Mendenhall Valley",
        "place": "hamlet",
        "wikidata": "Q6816603"
      }
    },
    {
      "type": "node",
      "id": 150917297,
      "lat": 60.115,
      "lon": -162.5063889,
      "tags": {
        "ele": "1",
        "gnis:feature_id": "1405085",
        "name": "Kuskovak",
        "place": "hamlet"
      }
    },
    {
      "type": "node",
      "id": 150917299,
      "lat": 71.2992528,
      "lon": -156.7579516,
      "tags": {
        "ele": "3",
        "gnis:feature_id": "1399485",
        "name": "Browerville",
        "name:ik": "Igluqpauraq",
        "place": "suburb"
      }
    },
    {
      "type": "node",
      "id": 150917302,
      "lat": 63.1051816,
      "lon": -154.7015496,
      "tags": {
        "ele": "123",
        "gnis:feature_id": "1406195",
        "name": "Medfra",
        "place": "hamlet"
      }
    },
    {
      "type": "node",
      "id": 150917304,
      "lat": 61.6847396,
      "lon": -157.1813172,
      "tags": {
        "ele": "58",
        "gnis:feature_id": "1416509",
        "name": "Mellicks Trading Post",
        "place": "hamlet"
      }
    },
    {
      "type": "node",
      "id": 150917307,
      "lat": 61.5278948,
      "lon": -165.5890211,
      "tags": {
        "ele": "15",
        "gnis:feature_id": "1400219",
        "name": "Chevak",
        "name:en": "Chevak",
        "name:esu": "Cev'aq",
        "place": "village",
        "population": "951",
        "population:date": "2020",
        "source:population": "US Census",
        "wikidata": "Q79343",
        "wikipedia": "en:Chevak, Alaska"
      }
    },
    {
      "type": "node",
      "id": 150917310,
      "lat": 59.0122782,
      "lon": -161.8181858,
      "tags": {
        "ele": "4",
        "gnis:feature_id": "1408072",
        "name": "Platinum",
        "name:en": "Platinum",
        "name:esu": "Arviiq",
        "place": "hamlet",
        "population": "41",
        "population:date": "2006",
        "source:population": "US Census"
      }
    },
    {
      "type": "node",
      "id": 150917827,
      "lat": 56.2950346,
      "lon": -158.4042847,
      "tags": {
        "ele": "0",
        "gnis:feature_id": "1400269",
        "name": "Chignik",
        "name:ems": "Cirniq",
        "name:en": "Chignik",
        "place": "hamlet",
        "population": "66",
        "population:date": "2006",
        "source:population": "US Census",
        "wikidata": "Q79530",
        "wikipedia": "en:Chignik, Alaska"
      }
    },
    {
      "type": "node",
      "id": 150917843,
      "lat": 58.4104119,
      "lon": -134.7600377,
      "tags": {
        "ele": "85",
        "gnis:feature_id": "1410814",
        "name": "Tee Harbor",
        "place": "hamlet"
      }
    },
    {
      "type": "node",
      "id": 150917846,
      "lat": 56.8144444,
      "lon": -132.9805556,
      "tags": {
        "ele": "3",
        "gnis:feature_id": "1424959",
        "name": "Kupreanof",
        "place": "hamlet",
        "population": "21",
        "population:date": "2020",
        "source:population": "US Census",
        "wikidata": "Q80084"
      }
    },
    {
      "type": "node",
      "id": 150917848,
      "lat": 62.9704873,
      "lon": -141.8196996,
      "tags": {
        "ele": "517",
        "gnis:feature_id": "1400164",
        "name": "Charlieskin Village",
        "place": "hamlet"
      }
    },
    {
      "type": "node",
      "id": 150917851,
      "lat": 59.0067385,
      "lon": -158.5351668,
      "tags": {
        "ele": "13",
        "gnis:feature_id": "1406938",
        "name": "Nelsonville",
        "place": "hamlet"
      }
    },
    {
      "type": "node",
      "id": 150917855,
      "lat": 63.0133722,
      "lon": -154.3762016,
      "tags": {
        "ele": "130",
        "gnis:feature_id": "1407022",
        "name": "Nikolai",
        "name:en": "Nikolai",
        "name:kuu": "Nikolai",
        "place": "hamlet",
        "population": "88",
        "population:date": "2006",
        "source:population": "US Census"
      }
    },
    {
      "type": "node",
      "id": 150917858,
      "lat": 59.4513337,
      "lon": -157.3146558,
      "tags": {
        "ele": "42",
        "gnis:feature_id": "1406972",
        "name": "New Stuyahok",
        "name:en": "New Stuyahok",
        "name:esu": "Cetuyaraq",
        "place": "village",
        "population": "476",
        "population:date": "2006",
        "source:population": "US Census",
        "wikidata": "Q79541",
        "wikipedia": "en:New Stuyahok, Alaska"
      }
    },
    {
      "type": "node",
      "id": 150917859,
      "lat": 60.9175015,
      "lon": -149.639903,
      "tags": {
        "ele": "13",
        "gnis:feature_id": "1422645",
        "name": "Hope",
        "place": "village",
        "population": "161",
        "wikidata": "Q1627535",
        "wikipedia": "en:Hope, Alaska"
      }
    },
    {
      "type": "node",
      "id": 150917862,
      "lat": 61.5808901,
      "lon": -159.5364417,
      "tags": {
        "ele": "15",
        "gnis:feature_id": "1398286",
        "name": "Aniak",
        "name:en": "Aniak",
        "name:esu": "Anyaraq",
        "place": "village",
        "population": "576",
        "population:date": "2006",
        "source:population": "US Census",
        "wikidata": "Q79540",
        "wikipedia": "en:Aniak, Alaska"
      }
    },
    {
      "type": "node",
      "id": 150917868,
      "lat": 62.5326115,
      "lon": -164.8476986,
      "tags": {
        "ele": "0",
        "gnis:feature_id": "1409405",
        "name": "Nunam Iqua",
        "name:en": "Nunam Iqua",
        "name:esu": "Nunam Iqua",
        "place": "village",
        "population": "217",
        "population:date": "2020",
        "source:population": "US Census",
        "wikidata": "Q79545",
        "wikipedia": "en:Nunam Iqua, Alaska"
      }
    },
    {
      "type": "node",
      "id": 150917870,
      "lat": 55.7397643,
      "lon": -132.2570729,
      "tags": {
        "ele": "1",
        "gnis:feature_id": "1423664",
        "name": "Meyers Chuck",
        "place": "hamlet",
        "population": "21"
      }
    },
    {
      "type": "node",
      "id": 150917873,
      "lat": 61.7879555,
      "lon": -156.5876908,
      "tags": {
        "ele": "76",
        "gnis:feature_id": "1410241",
        "name": "Stony River",
        "name:en": "Stony River",
        "name:ing": "Gidighuyghatno' Xidochagg Qay",
        "name:tfn": "K'qizaghetnu",
        "place": "hamlet"
      }
    },
    {
      "type": "node",
      "id": 150917876,
      "lat": 62.9972222,
      "lon": -163.3041667,
      "tags": {
        "ele": "1",
        "gnis:feature_id": "1896130",
        "name": "Pastolik",
        "place": "hamlet"
      }
    },
    {
      "type": "node",
      "id": 150917878,
      "lat": 66.6109304,
      "lon": -145.9972648,
      "tags": {
        "ele": "117",
        "gnis:feature_id": "1411646",
        "name": "Venetie Landing",
        "place": "hamlet"
      }
    },
    {
      "type": "node",
      "id": 150917881,
      "lat": 59.6454064,
      "lon": -151.5445643,
      "tags": {
        "ele": "29",
        "gnis:feature_id": "1413141",
        "name": "Homer",
        "name:en": "Homer",
        "place": "town",
        "population": "5003",
        "population:date": "2010",
        "source:population": "US Census",
        "wikidata": "Q79441",
        "wikipedia": "en:Homer, Alaska"
      }
    },
    {
      "type": "node",
      "id": 150917892,
      "lat": 61.2363889,
      "lon": -149.8191667,
      "tags": {
        "ele": "43",
        "gnis:feature_id": "1412145",
        "name": "Wilson Village",
        "place": "hamlet"
      }
    },
    {
      "type": "node",
      "id": 150917900,
      "lat": 64.1528989,
      "lon": -145.8424896,
      "tags": {
        "ele": "303",
        "gnis:feature_id": "1398949",
        "name": "Big Delta",
        "place": "hamlet"
      }
    },
    {
      "type": "node",
      "id": 150917908,
      "lat": 62.9497222,
      "lon": -163.7788889,
      "tags": {
        "ele": "1",
        "gnis:feature_id": "1399024",
        "name": "Bill Moores",
        "place": "hamlet"
      }
    },
    {
      "type": "node",
      "id": 150917910,
      "lat": 61.7113889,
      "lon": -148.894166,
      "tags": {
        "ele": "141",
        "gnis:feature_id": "1410456",
        "name": "Sutton",
        "place": "village",
        "population": "1038",
        "wikidata": "Q607768",
        "wikipedia": "en:Sutton-Alpine, Alaska"
      }
    },
    {
      "type": "node",
      "id": 150917913,
      "lat": 60.7158333,
      "lon": -151.7475,
      "tags": {
        "ele": "27",
        "gnis:feature_id": "1413400",
        "name": "Kustatan",
        "name:en": "Kustatan",
        "name:tfn": "Qezdeghnen",
        "place": "hamlet"
      }
    },
    {
      "type": "node",
      "id": 150917923,
      "lat": 55.2957333,
      "lon": -131.5366885,
      "tags": {
        "ele": "3",
        "gnis:feature_id": "1423817",
        "name": "Mountain Point",
        "place": "hamlet"
      }
    },
    {
      "type": "node",
      "id": 150917925,
      "lat": 57.9827778,
      "lon": -136.2522222,
      "tags": {
        "ele": "5",
        "gnis:feature_id": "1415090",
        "name": "Sunnyside",
        "place": "hamlet"
      }
    },
    {
      "type": "node",
      "id": 150917933,
      "lat": 55.3608375,
      "lon": -132.5236718,
      "tags": {
        "ele": "287",
        "gnis:feature_id": "1866968",
        "name": "Polk Inlet",
        "place": "hamlet"
      }
    },
    {
      "type": "node",
      "id": 150917935,
      "lat": 63.9094444,
      "lon": -149.0183333,
      "tags": {
        "ele": "362",
        "gnis:feature_id": "1405327",
        "name": "Lignite",
        "place": "hamlet"
      }
    },
    {
      "type": "node",
      "id": 150917937,
      "lat": 61.7377778,
      "lon": -148.9084102,
      "tags": {
        "ele": "276",
        "gnis:feature_id": "1401877",
        "name": "Eska",
        "place": "hamlet"
      }
    },
    {
      "type": "node",
      "id": 150917946,
      "lat": 62.6147222,
      "lon": -150.0119444,
      "tags": {
        "ele": "169",
        "gnis:feature_id": "1400901",
        "name": "Curry",
        "place": "hamlet",
        "wikidata": "Q5195194"
      }
    },
    {
      "type": "node",
      "id": 150917949,
      "lat": 65.8520489,
      "lon": -164.6989695,
      "tags": {
        "ele": "122",
        "gnis:feature_id": "1409255",
        "name": "Serpentine Hot Springs",
        "place": "hamlet"
      }
    },
    {
      "type": "node",
      "id": 150917957,
      "lat": 64.1522986,
      "lon": -141.460844,
      "tags": {
        "ele": "740",
        "gnis:feature_id": "1404039",
        "name": "Jack Wade",
        "place": "hamlet"
      }
    },
    {
      "type": "node",
      "id": 150917960,
      "lat": 65.0511111,
      "lon": -151.0094444,
      "tags": {
        "ele": "125",
        "gnis:feature_id": "1412257",
        "name": "Woodchopper",
        "place": "hamlet"
      }
    },
    {
      "type": "node",
      "id": 150917968,
      "lat": 62.6005556,
      "lon": -157.1419444,
      "tags": {
        "ele": "301",
        "gnis:feature_id": "1406539",
        "name": "Moore Creek",
        "place": "hamlet"
      }
    },
    {
      "type": "node",
      "id": 150917970,
      "lat": 59.9729849,
      "lon": -154.849118,
      "tags": {
        "ele": "80",
        "gnis:feature_id": "1407129",
        "name": "Nondalton",
        "name:en": "Nondalton",
        "name:tfn": "Nundaltin",
        "place": "village",
        "population": "133",
        "wikidata": "Q79326",
        "wikipedia": "en:Nondalton, Alaska"
      }
    },
    {
      "type": "node",
      "id": 150917978,
      "lat": 63.8291667,
      "lon": -148.9733333,
      "tags": {
        "ele": "431",
        "gnis:feature_id": "1402479",
        "name": "Garner",
        "place": "hamlet"
      }
    },
    {
      "type": "node",
      "id": 150917982,
      "lat": 58.7166874,
      "lon": -156.8651066,
      "tags": {
        "ele": "0",
        "gnis:feature_id": "1409104",
        "name": "Savonoski",
        "place": "hamlet"
      }
    },
    {
      "type": "node",
      "id": 150917990,
      "lat": 63.8613889,
      "lon": -148.7802778,
      "tags": {
        "ele": "504",
        "gnis:feature_id": "1411590",
        "name": "Usibelli",
        "place": "hamlet",
        "wikidata": "Q7901978"
      }
    },
    {
      "type": "node",
      "id": 150917999,
      "lat": 65.2632484,
      "lon": -166.3640144,
      "tags": {
        "ele": "0",
        "gnis:feature_id": "1410730",
        "name": "Teller",
        "name:en": "Teller",
        "name:ik": "Tala",
        "place": "village",
        "population": "268",
        "population:date": "2006",
        "source:population": "US Census",
        "wikidata": "Q79856",
        "wikipedia": "es:Teller (Alaska)"
      }
    },
    {
      "type": "node",
      "id": 150918008,
      "lat": 57.8916667,
      "lon": -135.0794444,
      "tags": {
        "ele": "0",
        "gnis:feature_id": "1866946",
        "name": "Freshwater Bay",
        "place": "hamlet"
      }
    },
    {
      "type": "node",
      "id": 150918012,
      "lat": 61.955,
      "lon": -145.3052778,
      "tags": {
        "ele": "317",
        "gnis:feature_id": "1400669",
        "name": "Copper Center",
        "name:aht": "Tl'aticae'e",
        "name:en": "Copper Center",
        "place": "hamlet",
        "wikidata": "Q1923536",
        "wikipedia": "en:Copper Center, Alaska"
      }
    },
    {
      "type": "node",
      "id": 150918017,
      "lat": 61.7683333,
      "lon": -163.6222222,
      "tags": {
        "ele": "8",
        "gnis:feature_id": "1400119",
        "name": "Chakaktolik",
        "place": "hamlet"
      }
    },
    {
      "type": "node",
      "id": 150918039,
      "lat": 63.1626391,
      "lon": -149.4324916,
      "tags": {
        "ele": "585",
        "gnis:feature_id": "1400588",
        "name": "Colorado",
        "place": "hamlet"
      }
    },
    {
      "type": "node",
      "id": 150918060,
      "lat": 53.7711505,
      "lon": -166.9850488,
      "tags": {
        "ele": "22",
        "gnis:feature_id": "1418886",
        "name": "Makushin",
        "place": "town"
      }
    },
    {
      "type": "node",
      "id": 150918069,
      "lat": 60.4794444,
      "lon": -164.7238889,
      "tags": {
        "ele": "23",
        "gnis:feature_id": "1407008",
        "name": "Nightmute",
        "name:en": "Nightmute",
        "name:esu": "Negtemiut",
        "place": "village",
        "population": "209",
        "population:date": "2006",
        "source:population": "US Census",
        "wikidata": "Q79565",
        "wikipedia": "en:Nightmute, Alaska"
      }
    },
    {
      "type": "node",
      "id": 150918074,
      "lat": 60.2181162,
      "lon": -162.0278776,
      "tags": {
        "ele": "1",
        "gnis:feature_id": "1401666",
        "name": "Eek",
        "name:en": "Eek",
        "name:esu": "Ekvicuaq",
        "place": "village",
        "population": "282",
        "population:date": "2006",
        "source:population": "US Census",
        "wikidata": "Q79356",
        "wikipedia": "en:Eek, Alaska"
      }
    },
    {
      "type": "node",
      "id": 150918084,
      "lat": 62.9692128,
      "lon": -141.8347012,
      "tags": {
        "ele": "517",
        "gnis:feature_id": "1895065",
        "name": "Kathakne",
        "place": "hamlet"
      }
    },
    {
      "type": "node",
      "id": 150918086,
      "lat": 70.1999496,
      "lon": -148.461816,
      "tags": {
        "ele": "15",
        "gnis:feature_id": "1866941",
        "name": "Deadhorse",
        "place": "town",
        "population": "26",
        "population:date": "1990",
        "wikidata": "Q605671",
        "wikipedia": "en:Deadhorse, Alaska"
      }
    },
    {
      "type": "node",
      "id": 150918095,
      "lat": 61.7438889,
      "lon": -158.1958677,
      "tags": {
        "ele": "41",
        "gnis:feature_id": "1407626",
        "name": "Oskawalik",
        "place": "hamlet"
      }
    },
    {
      "type": "node",
      "id": 150918109,
      "lat": 64.9002778,
      "lon": -147.8225,
      "tags": {
        "ele": "232",
        "gnis:feature_id": "1406734",
        "name": "Musk Ox",
        "place": "hamlet"
      }
    },
    {
      "type": "node",
      "id": 150918114,
      "lat": 61.7966667,
      "lon": -148.4627778,
      "tags": {
        "ele": "306",
        "gnis:feature_id": "1400239",
        "name": "Chickaloon",
        "name:aht": "Nay'dini'aa Na'",
        "name:en": "Chickaloon",
        "place": "hamlet"
      }
    },
    {
      "type": "node",
      "id": 150918144,
      "lat": 60.8467963,
      "lon": -161.6162697,
      "tags": {
        "ele": "0",
        "gnis:feature_id": "1895102",
        "name": "Kepangalook",
        "place": "hamlet"
      }
    },
    {
      "type": "node",
      "id": 150918149,
      "lat": 57.7800229,
      "lon": -152.3563177,
      "tags": {
        "ele": "4",
        "gnis:feature_id": "1398093",
        "name": "Aleksashkina",
        "place": "hamlet"
      }
    },
    {
      "type": "node",
      "id": 150918159,
      "lat": 63.9336932,
      "lon": -149.1162962,
      "tags": {
        "ele": "589",
        "gnis:feature_id": "1866944",
        "name": "Ferry",
        "place": "hamlet"
      }
    },
    {
      "type": "node",
      "id": 150918163,
      "lat": 61.8777778,
      "lon": -162.0811111,
      "tags": {
        "ele": "35",
        "gnis:feature_id": "1405984",
        "name": "Marshall",
        "name:en": "Marshall",
        "name:esu": "Masserculleq",
        "place": "village",
        "population": "376",
        "population:date": "2006",
        "source:population": "US Census",
        "wikidata": "Q79550",
        "wikipedia": "en:Marshall, Alaska"
      }
    },
    {
      "type": "node",
      "id": 150918186,
      "lat": 64.837845,
      "lon": -147.716675,
      "tags": {
        "capital": "6",
        "ele": "136",
        "gnis:feature_id": "1401958",
        "name": "Fairbanks",
        "name:en": "Fairbanks",
        "name:ru": "Фэрбанкс",
        "name:sr": "Фербенкс",
        "name:uk": "Фербанкс",
        "place": "city",
        "population": "32515",
        "population:date": "2020",
        "source:population": "US Census",
        "wikidata": "Q79638",
        "wikipedia": "en:Fairbanks, Alaska"
      }
    },
    {
      "type": "node",
      "id": 150918191,
      "lat": 59.43166,
      "lon": -136.1875555,
      "tags": {
        "ele": "93",
        "gnis:feature_id": "1866963",
        "name": "Mosquito Lake",
        "place": "village",
        "population": "309",
        "wikidata": "Q2602030",
        "wikipedia": "en:Mosquito Lake, Alaska"
      }
    },
    {
      "type": "node",
      "id": 150918200,
      "lat": 61.9380862,
      "lon": -147.167862,
      "tags": {
        "ele": "1001",
        "gnis:feature_id": "1401927",
        "name": "Eureka Roadhouse",
        "place": "hamlet",
        "population": "29",
        "wikidata": "Q5852087",
        "wikipedia": "en:Eureka Roadhouse, Alaska"
      }
    },
    {
      "type": "node",
      "id": 150918209,
      "lat": 55.3260071,
      "lon": -131.526474,
      "tags": {
        "ele": "1",
        "gnis:feature_id": "1894699",
        "name": "Herring Cove",
        "place": "hamlet"
      }
    },
    {
      "type": "node",
      "id": 150918214,
      "lat": 61.3486111,
      "lon": -142.6933333,
      "tags": {
        "ele": "475",
        "gnis:feature_id": "1406066",
        "name": "May Creek",
        "place": "hamlet"
      }
    },
    {
      "type": "node",
      "id": 150918219,
      "lat": 57.1222248,
      "lon": -170.2750028,
      "tags": {
        "gnis:feature_id": "1419163",
        "name": "Saint Paul",
        "place": "village",
        "wikidata": "Q80107",
        "wikipedia": "en:St. Paul, Alaska"
      }
    },
    {
      "type": "node",
      "id": 150918266,
      "lat": 62.3847222,
      "lon": -163.8005556,
      "tags": {
        "ele": "6",
        "gnis:feature_id": "1419698",
        "name": "Arolokovik",
        "place": "hamlet"
      }
    },
    {
      "type": "node",
      "id": 150918268,
      "lat": 58.4957849,
      "lon": -134.7733716,
      "tags": {
        "ele": "15",
        "gnis:feature_id": "1401260",
        "name": "Dobson Landing",
        "place": "hamlet",
        "wikidata": "Q5286967"
      }
    },
    {
      "type": "node",
      "id": 150918274,
      "lat": 60.9401473,
      "lon": -164.6334306,
      "tags": {
        "ele": "5",
        "gnis:feature_id": "1406985",
        "name": "Newtok",
        "name:en": "Newtok",
        "name:esu": "Niugtaq",
        "place": "hamlet",
        "population": "321"
      }
    },
    {
      "type": "node",
      "id": 150918287,
      "lat": 59.8753823,
      "lon": -163.1567228,
      "tags": {
        "ele": "0",
        "gnis:feature_id": "1405122",
        "name": "Kwigillingok",
        "name:en": "Kwigillingok",
        "name:esu": "Kuigilnguq",
        "place": "hamlet"
      }
    },
    {
      "type": "node",
      "id": 150918290,
      "lat": 53.2666667,
      "lon": -168.2166667,
      "tags": {
        "ele": "45",
        "gnis:feature_id": "1897156",
        "name": "Umnak",
        "place": "hamlet"
      }
    },
    {
      "type": "node",
      "id": 150918297,
      "lat": 55.0616667,
      "lon": -131.5416667,
      "tags": {
        "ele": "6",
        "gnis:feature_id": "1419805",
        "name": "Annette",
        "place": "hamlet"
      }
    },
    {
      "type": "node",
      "id": 150918309,
      "lat": 59.7872222,
      "lon": -154.1061111,
      "tags": {
        "ele": "15",
        "gnis:feature_id": "1407862",
        "name": "Pedro Bay",
        "place": "hamlet",
        "wikidata": "Q1820282",
        "wikipedia": "en:Pedro Bay, Alaska"
      }
    },
    {
      "type": "node",
      "id": 150918311,
      "lat": 58.0063243,
      "lon": -152.8820944,
      "tags": {
        "ele": "189",
        "gnis:feature_id": "1865543",
        "name": "Aleneva",
        "name:en": "Aleneva",
        "name:ru": "Аленева",
        "place": "hamlet"
      }
    },
    {
      "type": "node",
      "id": 150918325,
      "lat": 61.0134616,
      "lon": -151.407542,
      "tags": {
        "ele": "8",
        "gnis:feature_id": "1877199",
        "name": "Shirleyville",
        "place": "hamlet"
      }
    },
    {
      "type": "node",
      "id": 150918328,
      "lat": 64.882287,
      "lon": -157.7044213,
      "tags": {
        "ele": "36",
        "gnis:feature_id": "1404984",
        "name": "Koyukuk",
        "name:en": "Koyukuk",
        "name:koy": "Meneelghaadze' T'oh",
        "place": "hamlet",
        "population": "91",
        "population:date": "2006",
        "source:population": "US Census"
      }
    },
    {
      "type": "node",
      "id": 150918333,
      "lat": 61.5110674,
      "lon": -144.0692694,
      "tags": {
        "ele": "390",
        "gnis:feature_id": "1410262",
        "name": "Strelna",
        "place": "hamlet"
      }
    },
    {
      "type": "node",
      "id": 150918340,
      "lat": 56.1179921,
      "lon": -133.1262197,
      "tags": {
        "ele": "39",
        "gnis:feature_id": "1744590",
        "name": "Whale Pass",
        "place": "hamlet"
      }
    },
    {
      "type": "node",
      "id": 150918345,
      "lat": 65.5720718,
      "lon": -144.8045677,
      "tags": {
        "ele": "287",
        "gnis:feature_id": "1400106",
        "name": "Central",
        "place": "hamlet"
      }
    },
    {
      "type": "node",
      "id": 150918349,
      "lat": 61.5281147,
      "lon": -166.1076524,
      "tags": {
        "ele": "8",
        "gnis:feature_id": "1403493",
        "name": "Hooper Bay",
        "name:en": "Hooper Bay",
        "name:esu": "Naparyaarmiut",
        "place": "village",
        "population": "1375",
        "population:date": "2020",
        "source:population": "US Census",
        "wikidata": "Q80144",
        "wikipedia": "en:Hooper Bay, Alaska"
      }
    },
    {
      "type": "node",
      "id": 150918354,
      "lat": 60.4875,
      "lon": -149.3688889,
      "tags": {
        "ele": "144",
        "gnis:feature_id": "1417076",
        "name": "Moose Pass",
        "place": "hamlet"
      }
    },
    {
      "type": "node",
      "id": 150918363,
      "lat": 64.6178042,
      "lon": -162.2624238,
      "tags": {
        "ele": "11",
        "gnis:feature_id": "1401788",
        "name": "Elim",
        "name:en": "Elim",
        "name:esu": "Neviarcaurluq",
        "place": "village",
        "population": "366",
        "population:date": "2020",
        "source:population": "US Census",
        "wikidata": "Q79557",
        "wikipedia": "en:Elim, Alaska"
      }
    },
    {
      "type": "node",
      "id": 150918366,
      "lat": 64.7864224,
      "lon": -141.2026006,
      "tags": {
        "ele": "260",
        "gnis:feature_id": "1401499",
        "name": "Eagle",
        "name:en": "Eagle",
        "name:haa": "Tthee T'äwdlenn",
        "old_name": "Belle Isle",
        "place": "village",
        "population": "145",
        "population:date": "2006",
        "source:population": "US Census",
        "wikidata": "Q1023677",
        "wikipedia": "en:Eagle, Alaska"
      }
    },
    {
      "type": "node",
      "id": 150918371,
      "lat": 64.5438062,
      "lon": -163.0297941,
      "tags": {
        "ele": "13",
        "gnis:feature_id": "1402760",
        "name": "Golovin",
        "name:en": "Golovin",
        "name:esu": "Cingik",
        "name:ik": "Siŋik",
        "place": "village",
        "population": "175",
        "population:date": "2020",
        "source:population": "US Census",
        "wikidata": "Q79379",
        "wikipedia": "en:Golovin, Alaska"
      }
    },
    {
      "type": "node",
      "id": 150918380,
      "lat": 68.1269444,
      "lon": -145.5377778,
      "tags": {
        "ele": "628",
        "gnis:feature_id": "1398382",
        "name": "Arctic Village",
        "name:en": "Arctic Village",
        "name:gwi": "Vashrąįį K'ǫǫ",
        "place": "hamlet"
      }
    },
    {
      "type": "node",
      "id": 150918384,
      "lat": 58.2129814,
      "lon": -157.3734622,
      "tags": {
        "ele": "4",
        "gnis:feature_id": "1401686",
        "name": "Egegik",
        "name:en": "Egegik",
        "name:esu": "Igyagiiq",
        "place": "hamlet",
        "population": "97",
        "population:date": "2006",
        "source:population": "US Census"
      }
    },
    {
      "type": "node",
      "id": 150918388,
      "lat": 67.4766667,
      "lon": -150.2297222,
      "tags": {
        "ele": "515",
        "gnis:feature_id": "1413644",
        "name": "Nolan",
        "place": "hamlet"
      }
    },
    {
      "type": "node",
      "id": 150918403,
      "lat": 68.0723506,
      "lon": -162.8590937,
      "tags": {
        "ele": "260",
        "gnis:feature_id": "1865564",
        "name": "Red Dog Mine",
        "place": "hamlet",
        "wikidata": "Q1836979",
        "wikipedia": "en:Red Dog Mine, Alaska"
      }
    },
    {
      "type": "node",
      "id": 150918411,
      "lat": 60.15838,
      "lon": -164.2804249,
      "tags": {
        "ele": "0",
        "gnis:feature_id": "1400188",
        "name": "Chefornak",
        "name:en": "Chefornak",
        "name:esu": "Cevv'arneq",
        "place": "village",
        "population": "396",
        "population:date": "2006",
        "source:population": "US Census",
        "wikidata": "Q80075",
        "wikipedia": "en:Chefornak, Alaska"
      }
    },
    {
      "type": "node",
      "id": 150918429,
      "lat": 67.3599327,
      "lon": -145.1961283,
      "tags": {
        "ele": "292",
        "gnis:feature_id": "1400367",
        "name": "Christian",
        "place": "hamlet"
      }
    },
    {
      "type": "node",
      "id": 150918435,
      "lat": 64.750997,
      "lon": -147.349319,
      "tags": {
        "ele": "147",
        "gnis:feature_id": "1407230",
        "name": "North Pole",
        "place": "town",
        "population": "2117",
        "wikidata": "Q79494",
        "wikipedia": "en:North Pole, Alaska"
      }
    },
    {
      "type": "node",
      "id": 150918440,
      "lat": 61.866378,
      "lon": -158.1282355,
      "tags": {
        "ele": "67",
        "gnis:feature_id": "1400824",
        "name": "Crooked Creek",
        "name:en": "Crooked Creek",
        "name:esu": "Qipcarpak",
        "place": "hamlet"
      }
    },
    {
      "type": "node",
      "id": 150918450,
      "lat": 66.6544444,
      "lon": -143.7222222,
      "tags": {
        "ele": "161",
        "gnis:feature_id": "1400128",
        "name": "Chalkyitsik",
        "name:en": "Chalkyitsik",
        "name:gwi": "Jałgiitsik",
        "place": "hamlet",
        "wikidata": "Q1059889"
      }
    },
    {
      "type": "node",
      "id": 150918457,
      "lat": 70.1274505,
      "lon": -143.612865,
      "tags": {
        "gnis:feature_id": "1404349",
        "name": "Kaktovik",
        "name:en": "Kaktovik",
        "name:ik": "Qaaktuġvik",
        "place": "village",
        "population": "283",
        "population:date": "2020",
        "source:population": "United States Census",
        "wikidata": "Q79717",
        "wikipedia": "en:Kaktovik, Alaska"
      }
    },
    {
      "type": "node",
      "id": 150918469,
      "lat": 58.3780556,
      "lon": -134.7036111,
      "tags": {
        "ele": "10",
        "gnis:feature_id": "1401962",
        "name": "Fairhaven",
        "place": "hamlet",
        "wikidata": "Q5430444"
      }
    },
    {
      "type": "node",
      "id": 150918476,
      "lat": 62.9291899,
      "lon": -143.7992654,
      "tags": {
        "ele": "680",
        "gnis:feature_id": "1406241",
        "name": "Mentasta Lake",
        "name:aht": "Mendaesde",
        "name:en": "Mentasta Lake",
        "place": "hamlet"
      }
    },
    {
      "type": "node",
      "id": 150918482,
      "lat": 57.5136503,
      "lon": -134.9425754,
      "tags": {
        "ele": "0",
        "gnis:feature_id": "1420994",
        "name": "Chatham",
        "place": "hamlet"
      }
    },
    {
      "type": "node",
      "id": 150918488,
      "lat": 69.3730556,
      "lon": -148.7005556,
      "tags": {
        "ele": "206",
        "gnis:feature_id": "1408958",
        "name": "Sagwon",
        "place": "hamlet"
      }
    },
    {
      "type": "node",
      "id": 150918502,
      "lat": 58.3872412,
      "lon": -134.652944,
      "tags": {
        "ele": "6",
        "gnis:feature_id": "1398469",
        "name": "Auke Bay",
        "place": "hamlet",
        "wikidata": "Q4821641"
      }
    },
    {
      "type": "node",
      "id": 150918508,
      "lat": 65.8991921,
      "lon": -163.0110151,
      "tags": {
        "ele": "51",
        "gnis:feature_id": "1413012",
        "name": "Fink Creek",
        "place": "hamlet"
      }
    },
    {
      "type": "node",
      "id": 150918513,
      "lat": 60.5799157,
      "lon": -145.7176956,
      "tags": {
        "ele": "481",
        "gnis:feature_id": "1424087",
        "name": "Orca",
        "place": "hamlet"
      }
    },
    {
      "type": "node",
      "id": 150918515,
      "lat": 64.8472222,
      "lon": -148.0144444,
      "tags": {
        "ele": "220",
        "gnis:feature_id": "1397658",
        "name": "Ester",
        "place": "hamlet"
      }
    },
    {
      "type": "node",
      "id": 150918519,
      "lat": 65.1975,
      "lon": -152.9272222,
      "tags": {
        "ele": "68",
        "gnis:feature_id": "1402863",
        "name": "Grant Creek",
        "place": "hamlet"
      }
    },
    {
      "type": "node",
      "id": 150918528,
      "lat": 63.6617238,
      "lon": -144.0636789,
      "tags": {
        "ele": "426",
        "gnis:feature_id": "1401364",
        "name": "Dot Lake",
        "name:en": "Dot Lake",
        "name:tcb": "Kelt'aaddh Menn'",
        "place": "hamlet"
      }
    },
    {
      "type": "node",
      "id": 150918531,
      "lat": 61.7371765,
      "lon": -144.9420677,
      "tags": {
        "ele": "369",
        "gnis:feature_id": "1866955",
        "name": "Kenny Lake",
        "place": "hamlet",
        "wikidata": "Q1955811",
        "wikipedia": "en:Kenny Lake, Alaska"
      }
    },
    {
      "type": "node",
      "id": 150918533,
      "lat": 60.2775,
      "lon": -162.4413889,
      "tags": {
        "ele": "1",
        "gnis:feature_id": "1398027",
        "name": "Akulurak",
        "place": "hamlet"
      }
    },
    {
      "type": "node",
      "id": 150918549,
      "lat": 61.6558333,
      "lon": -145.1752778,
      "tags": {
        "ele": "477",
        "gnis:feature_id": "1411105",
        "name": "Tonsina",
        "place": "hamlet"
      }
    },
    {
      "type": "node",
      "id": 150918552,
      "lat": 58.020271,
      "lon": -152.7691199,
      "tags": {
        "ele": "4",
        "gnis:feature_id": "1398095",
        "name": "Aleut Village",
        "place": "hamlet"
      }
    },
    {
      "type": "node",
      "id": 150918557,
      "lat": 60.7027778,
      "lon": -151.4027778,
      "tags": {
        "ele": "36",
        "gnis:feature_id": "1419651",
        "name": "Nikishka",
        "place": "hamlet"
      }
    },
    {
      "type": "node",
      "id": 150918562,
      "lat": 63.468352,
      "lon": -161.4710817,
      "tags": {
        "ele": "8",
        "gnis:feature_id": "1404825",
        "name": "Klikitarik",
        "place": "hamlet"
      }
    },
    {
      "type": "node",
      "id": 150918565,
      "lat": 59.8119444,
      "lon": -151.610555,
      "tags": {
        "ele": "256",
        "gnis:feature_id": "1417063",
        "name": "Nikolaevsk",
        "name:en": "Nikolaevsk",
        "name:ru": "Николаевск",
        "place": "hamlet",
        "population": "328",
        "population:date": "2020",
        "source:population": "wikipedia",
        "wikidata": "Q1849796",
        "wikipedia": "en:Nikolaevsk, Alaska"
      }
    },
    {
      "type": "node",
      "id": 150918573,
      "lat": 57.6822222,
      "lon": -152.6686111,
      "tags": {
        "ele": "333",
        "gnis:feature_id": "1866977",
        "name": "Womens Bay",
        "place": "hamlet"
      }
    },
    {
      "type": "node",
      "id": 150918576,
      "lat": 61.6261111,
      "lon": -148.9455556,
      "tags": {
        "ele": "831",
        "gnis:feature_id": "1866958",
        "name": "Lazy Mountain",
        "place": "hamlet"
      }
    },
    {
      "type": "node",
      "id": 150918580,
      "lat": 55.965,
      "lon": -133.7933333,
      "tags": {
        "ele": "5",
        "gnis:feature_id": "1420870",
        "name": "Cape Pole",
        "place": "hamlet"
      }
    },
    {
      "type": "node",
      "id": 150918583,
      "lat": 60.4892794,
      "lon": -149.7893071,
      "tags": {
        "ele": "144",
        "gnis:feature_id": "1414839",
        "name": "Snug Harbor",
        "place": "hamlet"
      }
    },
    {
      "type": "node",
      "id": 150918586,
      "lat": 65.8270077,
      "lon": -144.064371,
      "tags": {
        "alt_name": "Circle City",
        "ele": "177",
        "gnis:feature_id": "1400404",
        "name": "Circle",
        "name:en": "Circle",
        "name:gwi": "Danzhit Khànląįį",
        "place": "hamlet"
      }
    },
    {
      "type": "node",
      "id": 150918590,
      "lat": 58.7155556,
      "lon": -156.9980556,
      "tags": {
        "ele": "7",
        "gnis:feature_id": "1409961",
        "name": "South Naknek",
        "name:en": "South Naknek",
        "name:esu": "Qinuyang",
        "place": "hamlet",
        "wikidata": "Q3287372",
        "wikipedia": "en:South Naknek, Alaska"
      }
    },
    {
      "type": "node",
      "id": 150918594,
      "lat": 54.8552559,
      "lon": -163.4153697,
      "tags": {
        "description": "Derived from an early English name for Isanotski Strait, which was called \"False Pass\" because it was thought to be impassable at the northern end.",
        "ele": "9",
        "gnis:feature_id": "1418574",
        "name": "False Pass",
        "place": "city",
        "population": "57",
        "population:date": "2006",
        "source:population": "US Census"
      }
    },
    {
      "type": "node",
      "id": 150918612,
      "lat": 64.4975098,
      "lon": -165.4061701,
      "tags": {
        "addr:postcode": "99762",
        "ele": "6",
        "gnis:feature_id": "1407125",
        "name": "Nome",
        "name:ckb": "نۆم",
        "name:en": "Nome",
        "name:ik": "Sitŋasuaq",
        "name:ru": "Ном",
        "name:uk": "Ном",
        "place": "town",
        "population": "3699",
        "population:date": "2020",
        "source:population": "US Census",
        "wikidata": "Q79996",
        "wikipedia": "en:Nome, Alaska"
      }
    },
    {
      "type": "node",
      "id": 150918666,
      "lat": 62.0446393,
      "lon": -145.4228243,
      "tags": {
        "ele": "368",
        "gnis:feature_id": "1866937",
        "name": "Copperville",
        "place": "hamlet"
      }
    },
    {
      "type": "node",
      "id": 150918674,
      "lat": 66.5,
      "lon": -146.9166667,
      "tags": {
        "ele": "120",
        "gnis:feature_id": "1854220",
        "name": "Beaver",
        "name:en": "Beaver",
        "name:koy": "Ts'aahudaaneekk'onh Denh",
        "place": "hamlet"
      }
    },
    {
      "type": "node",
      "id": 150918679,
      "lat": 61.1299396,
      "lon": -146.349363,
      "tags": {
        "ele": "30",
        "gnis:feature_id": "1412465",
        "name": "Valdez",
        "name:ems": "Suacit",
        "name:en": "Valdez",
        "name:ru": "Валдиз",
        "place": "town",
        "population": "3996",
        "population:date": "2006",
        "source:population": "US Census",
        "wikidata": "Q80037"
      }
    },
    {
      "type": "node",
      "id": 150918685,
      "lat": 61.54,
      "lon": -158.6741667,
      "tags": {
        "ele": "63",
        "gnis:feature_id": "1406828",
        "name": "Napaimiut",
        "place": "hamlet"
      }
    },
    {
      "type": "node",
      "id": 150918690,
      "lat": 57.5641667,
      "lon": -157.5791667,
      "tags": {
        "ele": "25",
        "gnis:feature_id": "1407992",
        "name": "Pilot Point",
        "name:ems": "Agisaq",
        "name:en": "Pilot Point",
        "place": "hamlet",
        "population": "84",
        "population:date": "2006",
        "source:population": "US Census"
      }
    },
    {
      "type": "node",
      "id": 150918695,
      "lat": 60.5311752,
      "lon": -165.1061256,
      "tags": {
        "ele": "0",
        "gnis:feature_id": "1411060",
        "name": "Toksook Bay",
        "name:en": "Toksook Bay",
        "name:esu": "Nunakauyaq",
        "place": "village",
        "population": "537",
        "population:date": "2006",
        "source:population": "US Census",
        "wikidata": "Q79411",
        "wikipedia": "en:Toksook Bay, Alaska"
      }
    },
    {
      "type": "node",
      "id": 150918717,
      "lat": 60.6939091,
      "lon": -161.975446,
      "tags": {
        "ele": "3",
        "gnis:feature_id": "1406829",
        "name": "Napakiak",
        "name:en": "Napakiak",
        "name:esu": "Naparyarraq",
        "place": "village",
        "population": "358",
        "population:date": "2020",
        "wikidata": "Q79702",
        "wikipedia": "en:Napakiak, Alaska"
      }
    },
    {
      "type": "node",
      "id": 150918723,
      "lat": 59.1597222,
      "lon": -135.3758333,
      "tags": {
        "ele": "22",
        "gnis:feature_id": "1865558",
        "name": "Mud Bay",
        "place": "hamlet"
      }
    },
    {
      "type": "node",
      "id": 150918727,
      "lat": 58.8669444,
      "lon": -157.0075,
      "tags": {
        "ele": "5",
        "gnis:feature_id": "1404884",
        "name": "Koggiung",
        "place": "hamlet"
      }
    },
    {
      "type": "node",
      "id": 150918737,
      "lat": 59.7201343,
      "lon": -154.8978734,
      "tags": {
        "ele": "19",
        "gnis:feature_id": "1406978",
        "name": "Newhalen",
        "name:en": "Newhalen",
        "name:esu": "Nuuriileng",
        "place": "village",
        "population": "134",
        "population:date": "2006",
        "source:population": "US Census",
        "wikidata": "Q79547",
        "wikipedia": "en:Newhalen, Alaska"
      }
    },
    {
      "type": "node",
      "id": 150918741,
      "lat": 61.5433453,
      "lon": -150.5157938,
      "tags": {
        "ele": "10",
        "gnis:feature_id": "1410439",
        "name": "Susitna",
        "place": "hamlet"
      }
    },
    {
      "type": "node",
      "id": 150918767,
      "lat": 64.7156415,
      "lon": -147.1760908,
      "tags": {
        "ele": "158",
        "gnis:feature_id": "1399221",
        "name": "Bluff",
        "place": "hamlet"
      }
    },
    {
      "type": "node",
      "id": 150918772,
      "lat": 58.7102778,
      "lon": -158.89,
      "tags": {
        "ele": "2",
        "gnis:feature_id": "1403724",
        "name": "Igushik",
        "place": "hamlet"
      }
    },
    {
      "type": "node",
      "id": 150918777,
      "lat": 66.0227778,
      "lon": -161.8419444,
      "tags": {
        "ele": "4",
        "gnis:feature_id": "1413351",
        "name": "Kiwalik",
        "place": "hamlet",
        "wikidata": "Q3068117"
      }
    },
    {
      "type": "node",
      "id": 150918782,
      "lat": 62.0797222,
      "lon": -150.0727778,
      "tags": {
        "ele": "80",
        "gnis:feature_id": "1406487",
        "name": "Montana",
        "name:ta": "மொன்ட்டானா",
        "place": "hamlet"
      }
    },
    {
      "type": "node",
      "id": 150918811,
      "lat": 68.1413944,
      "lon": -151.735979,
      "tags": {
        "ele": "663",
        "gnis:feature_id": "1398235",
        "name": "Anaktuvuk Pass",
        "name:en": "Anaktuvuk Pass",
        "name:ik": "Anaqtuuvak",
        "place": "village",
        "population": "393",
        "population:date": "2015",
        "postal_code": "99721",
        "source:population": "US Census",
        "website": "https://www.north-slope.org/our-communities/anaktuvuk-pass/",
        "wikidata": "Q79755",
        "wikipedia": "en:Anaktuvuk Pass, Alaska"
      }
    },
    {
      "type": "node",
      "id": 150918831,
      "lat": 59.2791474,
      "lon": -158.6205684,
      "tags": {
        "ele": "11",
        "gnis:feature_id": "1398091",
        "name": "Aleknagik",
        "name:en": "Aleknagik",
        "name:esu": "Alaqnaqiq",
        "place": "village",
        "population": "223",
        "population:date": "2006",
        "source:population": "US Census",
        "wikidata": "Q79930",
        "wikipedia": "en:Aleknagik, Alaska"
      }
    },
    {
      "type": "node",
      "id": 150918835,
      "lat": 58.3019613,
      "lon": -134.4196751,
      "tags": {
        "capital": "4",
        "ele": "17",
        "gnis:feature_id": "1404263",
        "name": "Juneau",
        "name:en": "Juneau",
        "name:fa": "جونو",
        "name:hak": "Juneau",
        "name:lt": "Džunas",
        "name:nan": "Juneau",
        "name:pl": "Juneau",
        "name:ru": "Джуно",
        "name:sr": "Џуно",
        "name:ta": "ஜூனோ",
        "name:tli": "Dzánti K'ihéeni",
        "name:uk": "Джуно",
        "name:zh": "朱诺 / 朱諾",
        "name:zh-Hans": "朱诺",
        "name:zh-Hant": "朱諾",
        "place": "city",
        "population": "31000",
        "state_capital": "yes",
        "wikidata": "Q29445",
        "wikipedia": "en:Juneau, Alaska"
      }
    },
    {
      "type": "node",
      "id": 150918862,
      "lat": 62.4962263,
      "lon": -150.7679318,
      "tags": {
        "ele": "493",
        "gnis:feature_id": "1407927",
        "name": "Petersville",
        "place": "hamlet"
      }
    },
    {
      "type": "node",
      "id": 150918867,
      "lat": 60.4898309,
      "lon": -149.8328412,
      "tags": {
        "ele": "125",
        "gnis:feature_id": "1421192",
        "name": "Cooper Landing",
        "place": "hamlet"
      }
    },
    {
      "type": "node",
      "id": 150918872,
      "lat": 57.5643099,
      "lon": -154.436455,
      "tags": {
        "ele": "0",
        "gnis:feature_id": "1404456",
        "name": "Karluk",
        "name:ems": "Kal'uq",
        "name:en": "Karluk",
        "place": "hamlet"
      }
    },
    {
      "type": "node",
      "id": 150918877,
      "lat": 55.2418279,
      "lon": -160.5500763,
      "tags": {
        "ele": "57",
        "gnis:feature_id": "1419289",
        "name": "Squaw Harbor",
        "place": "hamlet"
      }
    },
    {
      "type": "node",
      "id": 150918880,
      "lat": 63.0708333,
      "lon": -164.4111326,
      "tags": {
        "ele": "0",
        "gnis:feature_id": "1405137",
        "name": "Kwikpak",
        "place": "hamlet"
      }
    },
    {
      "type": "node",
      "id": 150918886,
      "lat": 66.9721715,
      "lon": -160.4388711,
      "tags": {
        "ele": "28",
        "gnis:feature_id": "1413311",
        "name": "Kiana",
        "name:en": "Kiana",
        "name:ik": "Katyaaq",
        "place": "village",
        "population": "405",
        "population:date": "2006",
        "source:population": "US Census",
        "wikidata": "Q79730",
        "wikipedia": "en:Kiana, Alaska"
      }
    },
    {
      "type": "node",
      "id": 150918890,
      "lat": 62.9563889,
      "lon": -155.595833,
      "tags": {
        "ele": "101",
        "gnis:feature_id": "1406131",
        "name": "McGrath",
        "name:en": "McGrath",
        "name:kuu": "Tochak'",
        "place": "village",
        "population": "301",
        "wikidata": "Q79574",
        "wikipedia": "en:McGrath, Alaska"
      }
    },
    {
      "type": "node",
      "id": 150918917,
      "lat": 62.5891667,
      "lon": -164.7858333,
      "tags": {
        "ele": "1",
        "gnis:feature_id": "1407036",
        "name": "Nililak",
        "place": "hamlet"
      }
    },
    {
      "type": "node",
      "id": 150918943,
      "lat": 65.0011111,
      "lon": -150.6338889,
      "tags": {
        "ele": "83",
        "gnis:feature_id": "1405922",
        "name": "Manley Hot Springs",
        "name:en": "Manley Hot Springs",
        "name:koy": "Too Naaleł Denh",
        "place": "hamlet",
        "wikidata": "Q2738327",
        "wikipedia": "en:Manley Hot Springs, Alaska"
      }
    },
    {
      "type": "node",
      "id": 150918956,
      "lat": 59.2130542,
      "lon": -154.1411205,
      "tags": {
        "abandoned": "yes",
        "ele": "1",
        "gnis:feature_id": "1412751",
        "name": "Chenik",
        "place": "hamlet"
      }
    },
    {
      "type": "node",
      "id": 150918961,
      "lat": 61.1089185,
      "lon": -145.8181484,
      "tags": {
        "ele": "177",
        "gnis:feature_id": "1412278",
        "name": "Wortmanns",
        "place": "hamlet"
      }
    },
    {
      "type": "node",
      "id": 150918966,
      "lat": 66.5556171,
      "lon": -152.7025581,
      "tags": {
        "ele": "168",
        "gnis:feature_id": "1865542",
        "name": "Alatna",
        "name:en": "Alatna",
        "name:ik": "Alaasuq",
        "place": "hamlet"
      }
    },
    {
      "type": "node",
      "id": 150918969,
      "lat": 65.0933333,
      "lon": -150.8772222,
      "tags": {
        "ele": "188",
        "gnis:feature_id": "1411037",
        "name": "Tofty",
        "place": "hamlet",
        "wikidata": "Q3530339"
      }
    },
    {
      "type": "node",
      "id": 150918973,
      "lat": 64.8890977,
      "lon": -149.1839501,
      "tags": {
        "ele": "100",
        "gnis:feature_id": "1407501",
        "name": "Old Minto",
        "place": "hamlet"
      }
    },
    {
      "type": "node",
      "id": 150918980,
      "lat": 64.4216667,
      "lon": -146.8508333,
      "tags": {
        "ele": "218",
        "gnis:feature_id": "1866950",
        "name": "Harding Lake",
        "place": "hamlet"
      }
    },
    {
      "type": "node",
      "id": 150919005,
      "lat": 66.8880556,
      "lon": -157.1363889,
      "tags": {
        "ele": "44",
        "gnis:feature_id": "1413983",
        "name": "Shungnak",
        "name:en": "Shungnak",
        "name:ik": "Isiŋnaq",
        "place": "village",
        "population": "268",
        "population:date": "2006",
        "source:population": "US Census",
        "wikidata": "Q79353",
        "wikipedia": "en:Shungnak, Alaska"
      }
    },
    {
      "type": "node",
      "id": 150919011,
      "lat": 64.4717769,
      "lon": -150.3279147,
      "tags": {
        "ele": "115",
        "gnis:feature_id": "1411053",
        "name": "Toklat",
        "place": "hamlet"
      }
    },
    {
      "type": "node",
      "id": 150919015,
      "lat": 66.8342308,
      "lon": -161.0410637,
      "tags": {
        "ele": "0",
        "gnis:feature_id": "1413646",
        "name": "Noorvik",
        "name:en": "Noorvik",
        "name:ik": "Nuurvik",
        "place": "village",
        "population": "662",
        "population:date": "2006",
        "source:population": "US Census",
        "wikidata": "Q79377",
        "wikipedia": "en:Noorvik, Alaska"
      }
    },
    {
      "type": "node",
      "id": 150919021,
      "lat": 59.8216667,
      "lon": -151.5958333,
      "tags": {
        "ele": "264",
        "gnis:feature_id": "1417064",
        "name": "Kluchevaya",
        "name:ru": "Ключевая",
        "place": "hamlet"
      }
    },
    {
      "type": "node",
      "id": 150919026,
      "lat": 61.4111111,
      "lon": -149.4455556,
      "tags": {
        "ele": "109",
        "gnis:feature_id": "1407913",
        "name": "Peters Creek",
        "place": "hamlet"
      }
    },
    {
      "type": "node",
      "id": 150919039,
      "lat": 61.3597222,
      "lon": -149.9783333,
      "tags": {
        "ele": "65",
        "gnis:feature_id": "1865561",
        "name": "Point MacKenzie",
        "place": "hamlet"
      }
    },
    {
      "type": "node",
      "id": 150919044,
      "lat": 62.4536111,
      "lon": -158.0075,
      "tags": {
        "ele": "89",
        "gnis:feature_id": "1402165",
        "name": "Flat",
        "place": "hamlet"
      }
    },
    {
      "type": "node",
      "id": 150919050,
      "lat": 62.9461111,
      "lon": -164.1722222,
      "tags": {
        "ele": "1",
        "gnis:feature_id": "1893942",
        "name": "Chuloonawick",
        "place": "hamlet"
      }
    },
    {
      "type": "node",
      "id": 150919077,
      "lat": 65.9785168,
      "lon": -161.1268751,
      "tags": {
        "ele": "4",
        "gnis:feature_id": "1412684",
        "name": "Buckland",
        "name:en": "Buckland",
        "name:ik": "Kaŋiq",
        "place": "village",
        "population": "424",
        "population:date": "2006",
        "source:population": "US Census",
        "wikidata": "Q79731",
        "wikipedia": "en:Buckland, Alaska"
      }
    },
    {
      "type": "node",
      "id": 150919082,
      "lat": 59.3986867,
      "lon": -135.8943897,
      "tags": {
        "ele": "83",
        "gnis:feature_id": "1866956",
        "name": "Klukwan",
        "name:en": "Klukwan",
        "name:tli": "Tlákw.aan",
        "place": "village",
        "population": "95",
        "wikidata": "Q2634780",
        "wikipedia": "en:Klukwan, Alaska"
      }
    },
    {
      "type": "node",
      "id": 150919091,
      "lat": 66.3594444,
      "lon": -147.3963889,
      "tags": {
        "ele": "107",
        "gnis:feature_id": "1398776",
        "name": "Beaver",
        "name:en": "Beaver",
        "name:koy": "Ts'aahudaaneekk'onh Denh",
        "place": "hamlet",
        "population": "48",
        "population:date": "2020"
      }
    },
    {
      "type": "node",
      "id": 150919100,
      "lat": 60.7922222,
      "lon": -161.755833,
      "tags": {
        "ele": "1",
        "gnis:feature_id": "1398908",
        "name": "Bethel",
        "name:en": "Bethel",
        "name:esu": "Mamterilleq",
        "name:ru": "Бетел",
        "name:uk": "Бетел",
        "place": "town",
        "population": "6325",
        "population:date": "2020",
        "website": "https://www.cityofbethel.org/",
        "wikidata": "Q80022",
        "wikipedia": "en:Bethel, Alaska"
      }
    },
    {
      "type": "node",
      "id": 150919105,
      "lat": 60.5443385,
      "lon": -145.7595063,
      "tags": {
        "ele": "25",
        "gnis:feature_id": "1421215",
        "name": "Cordova",
        "place": "town",
        "population": "2339",
        "population:date": "2006",
        "source:population": "US Census",
        "wikidata": "Q79607"
      }
    },
    {
      "type": "node",
      "id": 150919109,
      "lat": 57.7901661,
      "lon": -152.4067073,
      "tags": {
        "capital": "6",
        "ele": "15",
        "gnis:feature_id": "1404875",
        "name": "Kodiak",
        "name:ems": "Sun'aq",
        "name:en": "Kodiak",
        "name:ru": "Кадьяк",
        "name:sr": "Кодијак",
        "name:uk": "Кадьяк",
        "place": "city",
        "population": "6259",
        "population:date": "2006",
        "source:population": "US Census",
        "wikidata": "Q79985"
      }
    },
    {
      "type": "node",
      "id": 150919114,
      "lat": 64.3535999,
      "lon": -161.1928805,
      "tags": {
        "ele": "7",
        "gnis:feature_id": "1669434",
        "name": "Shaktoolik",
        "name:en": "Shaktoolik",
        "name:ik": "Saktuliq",
        "place": "village",
        "population": "212",
        "population:date": "2020",
        "source:population": "US Census",
        "wikidata": "Q79397",
        "wikipedia": "en:Shaktoolik, Alaska"
      }
    },
    {
      "type": "node",
      "id": 150919119,
      "lat": 58.0072168,
      "lon": -152.7694096,
      "tags": {
        "ele": "0",
        "gnis:feature_id": "1397926",
        "name": "Afognak",
        "name:ems": "Agw'aneq",
        "name:en": "Afognak",
        "name:ru": "Афогнакъ",
        "place": "hamlet"
      }
    },
    {
      "type": "node",
      "id": 150919131,
      "lat": 58.3934532,
      "lon": -134.7503729,
      "tags": {
        "ele": "16",
        "gnis:feature_id": "1895389",
        "name": "Lena Beach",
        "place": "hamlet",
        "wikidata": "Q6522075"
      }
    },
    {
      "type": "node",
      "id": 150919141,
      "lat": 61.6550204,
      "lon": -144.6583107,
      "tags": {
        "ele": "210",
        "gnis:feature_id": "1405780",
        "name": "Lower Tonsina",
        "name:aht": "Kentsii Cae'e",
        "name:en": "Lower Tonsina",
        "place": "hamlet"
      }
    },
    {
      "type": "node",
      "id": 150919171,
      "lat": 64.7194444,
      "lon": -158.1030556,
      "tags": {
        "ele": "35",
        "gnis:feature_id": "1407321",
        "name": "Nulato",
        "name:en": "Nulato",
        "name:koy": "Noolaaghe Doh",
        "place": "village",
        "population": "302",
        "population:date": "2006",
        "source:population": "US Census",
        "wikidata": "Q79392",
        "wikipedia": "en:Nulato, Alaska"
      }
    },
    {
      "type": "node",
      "id": 150919188,
      "lat": 64.7,
      "lon": -162.0333333,
      "tags": {
        "ele": "2",
        "gnis:feature_id": "1895763",
        "name": "Moses Point",
        "place": "hamlet"
      }
    },
    {
      "type": "node",
      "id": 150919213,
      "lat": 65.7008198,
      "lon": -156.3962608,
      "tags": {
        "ele": "48",
        "gnis:feature_id": "1403644",
        "name": "Huslia",
        "name:en": "Huslia",
        "name:koy": "Ts'aateyhdenaadekk'onh Denh",
        "place": "village",
        "population": "264",
        "population:date": "2006",
        "source:population": "US Census",
        "wikidata": "Q80086",
        "wikipedia": "en:Huslia, Alaska"
      }
    },
    {
      "type": "node",
      "id": 150919228,
      "lat": 61.3966667,
      "lon": -149.825,
      "tags": {
        "ele": "21",
        "gnis:feature_id": "1805283",
        "name": "John Fitzgerald Kennedy City",
        "place": "hamlet"
      }
    },
    {
      "type": "node",
      "id": 150919232,
      "lat": 67.4100789,
      "lon": -150.1091415,
      "tags": {
        "ele": "360",
        "gnis:feature_id": "1414284",
        "name": "Wiseman",
        "place": "hamlet"
      }
    },
    {
      "type": "node",
      "id": 150919255,
      "lat": 56.2969444,
      "lon": -134.6616667,
      "tags": {
        "ele": "28",
        "gnis:feature_id": "1424554",
        "name": "Port Armstrong",
        "place": "hamlet"
      }
    },
    {
      "type": "node",
      "id": 150919273,
      "lat": 55.8703029,
      "lon": -133.2070403,
      "tags": {
        "ele": "97",
        "gnis:feature_id": "1866964",
        "name": "Naukati Bay",
        "place": "hamlet"
      }
    },
    {
      "type": "node",
      "id": 150919295,
      "lat": 61.9692903,
      "lon": -151.2211811,
      "tags": {
        "ele": "44",
        "gnis:feature_id": "1866975",
        "name": "Skwentna",
        "place": "hamlet",
        "source:position": "ESRI"
      }
    },
    {
      "type": "node",
      "id": 150919304,
      "lat": 61.5377005,
      "lon": -160.3149144,
      "tags": {
        "ele": "12",
        "gnis:feature_id": "1404378",
        "name": "Kalskag",
        "name:en": "Kalskag",
        "name:esu": "Qalqaq",
        "place": "hamlet",
        "population": "210",
        "wikidata": "Q79452",
        "wikipedia": "en:Upper Kalskag, Alaska"
      }
    },
    {
      "type": "node",
      "id": 150919313,
      "lat": 66.2580117,
      "lon": -161.3489006,
      "tags": {
        "ele": "0",
        "gnis:feature_id": "1412976",
        "name": "Elephant Point",
        "place": "hamlet"
      }
    },
    {
      "type": "node",
      "id": 150919318,
      "lat": 68.3493054,
      "lon": -166.7392068,
      "tags": {
        "ele": "2",
        "gnis:feature_id": "1408110",
        "loc_name": "Tikigaq",
        "loc_name:en": "Tikigaq",
        "name": "Point Hope",
        "name:en": "Point Hope",
        "name:etymology": "Sir William Johnstone Hope",
        "name:etymology:wikidata": "Q8013709",
        "name:ik": "Tikiġaq",
        "place": "village",
        "population": "830",
        "population:date": "2020",
        "postal_code": "99766",
        "source:population": "US Census",
        "wikidata": "Q79813",
        "wikipedia": "en:Point Hope, Alaska"
      }
    },