{
  "version": 0.6,
  "generator": "Overpass API 0.7.62.5 1bd436f1",
  "osm3s": {
    "timestamp_osm_base": "2025-04-08T18:53:34Z",
    "timestamp_areas_base": "2025-02-06T02:17:44Z",
    "copyright": "The data included in this document is from www.openstreetmap.org. The data is made available under ODbL."
  },
  "elements": [
    {
      "type": "node",
      "id": 117033001,
      "lat": 35.2766495,
      "lon": -92.2548652,
      "tags": {
        "ele": "144",
        "gnis:feature_id": "56956",
        "name": "Centerville",
        "place": "hamlet"
      }
    },
    {
      "type": "node",
      "id": 117837867,
      "lat": 35.778696,
      "lon": -90.1781008,
      "tags": {
        "ele": "72",
        "gnis:feature_id": "61865",
        "name": "Floodway",
        "place": "hamlet"
      }
    },
    {
      "type": "node",
      "id": 122555102,
      "lat": 33.2947362,
      "lon": -91.8901071,
      "tags": {
        "ele": "52",
        "gnis:feature_id": "77908",
        "name": "Old Milo",
        "place": "hamlet"
      }
    },
    {
      "type": "node",
      "id": 151320925,
      "lat": 34.3162035,
      "lon": -93.1707339,
      "tags": {
        "ele": "162",
        "gnis:feature_id": "57383",
        "name": "Bismarck",
        "place": "hamlet",
        "wikidata": "Q3250708",
        "wikipedia": "en:Bismarck, Arkansas"
      }
    },
    {
      "type": "node",
      "id": 151320932,
      "lat": 35.6334126,
      "lon": -90.0423121,
      "tags": {
        "ele": "69",
        "gnis:feature_id": "57518",
        "name": "Carson Lake",
        "place": "hamlet"
      }
    },
    {
      "type": "node",
      "id": 151320942,
      "lat": 33.0526379,
      "lon": -92.7496033,
      "tags": {
        "ele": "64",
        "gnis:feature_id": "59832",
        "name": "Scotland",
        "place": "hamlet"
      }
    },
    {
      "type": "node",
      "id": 151320957,
      "lat": 33.5356678,
      "lon": -91.3248387,
      "tags": {
        "ele": "43",
        "gnis:feature_id": "57868",
        "name": "Halley",
        "place": "hamlet"
      }
    },
    {
      "type": "node",
      "id": 151320962,
      "lat": 34.6592629,
      "lon": -93.6188051,
      "tags": {
        "ele": "205",
        "gnis:feature_id": "63500",
        "name": "Gibbs",
        "place": "hamlet"
      }
    },
    {
      "type": "node",
      "id": 151320970,
      "lat": 34.6750927,
      "lon": -92.3040401,
      "tags": {
        "ele": "81",
        "gnis:feature_id": "58827",
        "name": "Ward",
        "place": "hamlet"
      }
    },
    {
      "type": "node",
      "id": 151320977,
      "lat": 34.9339818,
      "lon": -93.494357,
      "tags": {
        "ele": "134",
        "gnis:feature_id": "81846",
        "name": "Briggsville",
        "place": "hamlet"
      }
    },
    {
      "type": "node",
      "id": 151320991,
      "lat": 36.42952,
      "lon": -94.2315959,
      "tags": {
        "ele": "315",
        "gnis:feature_id": "76292",
        "name": "Bella Vista",
        "place": "hamlet"
      }
    },
    {
      "type": "node",
      "id": 151321004,
      "lat": 36.0081324,
      "lon": -93.1865659,
      "tags": {
        "capital": "6",
        "ele": "258",
        "gnis:feature_id": "72172",
        "name": "Jasper",
        "place": "village",
        "population": "490",
        "population:date": "2006",
        "source:population": "US Census"
      }
    },
    {
      "type": "node",
      "id": 151321263,
      "lat": 36.3681285,
      "lon": -93.9140869,
      "tags": {
        "ele": "349",
        "gnis:feature_id": "57820",
        "name": "Glade",
        "place": "hamlet"
      }
    },
    {
      "type": "node",
      "id": 151321270,
      "lat": 34.6931698,
      "lon": -93.517795,
      "tags": {
        "ele": "214",
        "gnis:feature_id": "73729",
        "name": "Story",
        "place": "hamlet"
      }
    },
    {
      "type": "node",
      "id": 151321349,
      "lat": 35.5086934,
      "lon": -90.3842675,
      "tags": {
        "ele": "69",
        "gnis:feature_id": "76790",
        "name": "Dewey Mill",
        "place": "hamlet"
      }
    },
    {
      "type": "node",
      "id": 151321369,
      "lat": 35.1039807,
      "lon": -90.1900945,
      "tags": {
        "ele": "66",
        "gnis:feature_id": "78812",
        "name": "Wyanoke",
        "place": "hamlet"
      }
    },
    {
      "type": "node",
      "id": 151321405,
      "lat": 35.493143,
      "lon": -94.2671542,
      "tags": {
        "ele": "143",
        "gnis:feature_id": "58158",
        "name": "Meadows",
        "place": "hamlet"
      }
    },
    {
      "type": "node",
      "id": 151321412,
      "lat": 35.8778512,
      "lon": -90.4534383,
      "tags": {
        "ele": "70",
        "gnis:feature_id": "77478",
        "name": "Lester",
        "place": "hamlet"
      }
    },
    {
      "type": "node",
      "id": 151321460,
      "lat": 33.8056733,
      "lon": -94.1663078,
      "tags": {
        "ele": "79",
        "gnis:feature_id": "57119",
        "name": "Millers Crossing",
        "place": "hamlet"
      }
    },
    {
      "type": "node",
      "id": 151322095,
      "lat": 34.6575935,
      "lon": -91.7187442,
      "tags": {
        "ele": "64",
        "gnis:feature_id": "57150",
        "name": "Parkers Corner",
        "place": "hamlet",
        "wikidata": "Q122542483"
      }
    },
    {
      "type": "node",
      "id": 151322112,
      "lat": 35.1564775,
      "lon": -93.4301853,
      "tags": {
        "ele": "161",
        "gnis:feature_id": "73684",
        "name": "Stafford",
        "place": "hamlet"
      }
    },
    {
      "type": "node",
      "id": 151322121,
      "lat": 36.322852,
      "lon": -94.0193671,
      "tags": {
        "ele": "399",
        "gnis:feature_id": "57352",
        "name": "Beaver Shores",
        "place": "hamlet"
      }
    },
    {
      "type": "node",
      "id": 151322131,
      "lat": 35.3056457,
      "lon": -93.953535,
      "tags": {
        "ele": "142",
        "gnis:feature_id": "57428",
        "name": "Branch",
        "place": "village",
        "population": "367",
        "population:date": "2006",
        "source:population": "US Census"
      }
    },
    {
      "type": "node",
      "id": 151322138,
      "lat": 35.4648008,
      "lon": -92.2154305,
      "tags": {
        "ele": "299",
        "gnis:feature_id": "57613",
        "name": "Crossroads",
        "place": "hamlet"
      }
    },
    {
      "type": "node",
      "id": 151322144,
      "lat": 35.959522,
      "lon": -93.5204639,
      "tags": {
        "ele": "481",
        "gnis:feature_id": "74030",
        "name": "Weathers",
        "place": "hamlet"
      }
    },
    {
      "type": "node",
      "id": 151322156,
      "lat": 33.9378858,
      "lon": -94.3539944,
      "tags": {
        "ele": "123",
        "gnis:feature_id": "77224",
        "name": "Horatio",
        "place": "village",
        "population": "1015",
        "population:date": "2006",
        "source:population": "US Census"
      }
    },
    {
      "type": "node",
      "id": 151322162,
      "lat": 35.5711908,
      "lon": -91.4790221,
      "tags": {
        "ele": "90",
        "gnis:feature_id": "58739",
        "name": "Thida",
        "place": "hamlet"
      }
    },
    {
      "type": "node",
      "id": 151322166,
      "lat": 34.6184263,
      "lon": -92.4879358,
      "tags": {
        "ele": "122",
        "gnis:feature_id": "65952",
        "name": "Careywood",
        "place": "hamlet"
      }
    },
    {
      "type": "node",
      "id": 151322171,
      "lat": 33.643173,
      "lon": -93.5587881,
      "tags": {
        "ele": "130",
        "gnis:feature_id": "61534",
        "name": "Gunter Addition",
        "place": "hamlet"
      }
    },
    {
      "type": "node",
      "id": 151322176,
      "lat": 33.7676186,
      "lon": -93.9240763,
      "tags": {
        "ele": "97",
        "gnis:feature_id": "58299",
        "name": "Okay",
        "place": "hamlet"
      }
    },
    {
      "type": "node",
      "id": 151322184,
      "lat": 33.4587241,
      "lon": -92.1043051,
      "tags": {
        "ele": "62",
        "gnis:feature_id": "58627",
        "name": "Simpson",
        "place": "hamlet"
      }
    },
    {
      "type": "node",
      "id": 151322195,
      "lat": 36.2009473,
      "lon": -93.0485772,
      "tags": {
        "ele": "323",
        "gnis:feature_id": "76293",
        "name": "Bellefonte",
        "place": "village",
        "population": "435",
        "population:date": "2006",
        "source:population": "US Census",
        "wikidata": "Q613154",
        "wikipedia": "en:Bellefonte, Arkansas"
      }
    },
    {
      "type": "node",
      "id": 151322202,
      "lat": 35.9214662,
      "lon": -93.060174,
      "tags": {
        "ele": "283",
        "gnis:feature_id": "72752",
        "name": "Mount Judea",
        "place": "hamlet"
      }
    },
    {
      "type": "node",
      "id": 151322214,
      "lat": 35.9272943,
      "lon": -90.359824,
      "tags": {
        "ele": "73",
        "gnis:feature_id": "78943",
        "name": "Macey",
        "place": "hamlet"
      }
    },
    {
      "type": "node",
      "id": 151322240,
      "lat": 34.2489836,
      "lon": -93.2685106,
      "tags": {
        "ele": "165",
        "gnis:feature_id": "57089",
        "name": "Lenox",
        "place": "hamlet"
      }
    },
    {
      "type": "node",
      "id": 151322244,
      "lat": 35.9189632,
      "lon": -92.3271013,
      "tags": {
        "ele": "227",
        "gnis:feature_id": "72953",
        "name": "Onia",
        "place": "hamlet"
      }
    },
    {
      "type": "node",
      "id": 151322270,
      "lat": 35.5189701,
      "lon": -93.2126761,
      "tags": {
        "ele": "207",
        "gnis:feature_id": "59138",
        "name": "Bullfrog Valley",
        "place": "hamlet"
      }
    },
    {
      "type": "node",
      "id": 151322299,
      "lat": 34.2248194,
      "lon": -92.4059875,
      "tags": {
        "ele": "81",
        "gnis:feature_id": "56977",
        "name": "Cross Roads",
        "place": "hamlet"
      }
    },
    {
      "type": "node",
      "id": 151322305,
      "lat": 34.0848227,
      "lon": -93.3218431,
      "tags": {
        "ele": "101",
        "gnis:feature_id": "57041",
        "name": "Halfway",
        "place": "hamlet"
      }
    },
    {
      "type": "node",
      "id": 151322315,
      "lat": 35.2561924,
      "lon": -92.6762737,
      "tags": {
        "ele": "130",
        "gnis:feature_id": "54998",
        "name": "Solgohachia",
        "place": "hamlet"
      }
    },
    {
      "type": "node",
      "id": 151322320,
      "lat": 34.2500976,
      "lon": -92.066809,
      "tags": {
        "ele": "77",
        "gnis:feature_id": "58053",
        "name": "Leitner",
        "place": "hamlet",
        "wikidata": "Q122555976"
      }
    },
    {
      "type": "node",
      "id": 151322326,
      "lat": 34.2970413,
      "lon": -92.1890359,
      "tags": {
        "ele": "103",
        "gnis:feature_id": "58172",
        "name": "Midway",
        "place": "hamlet"
      }
    },
    {
      "type": "node",
      "id": 151322335,
      "lat": 35.8061872,
      "lon": -91.7229193,
      "tags": {
        "ele": "108",
        "gnis:feature_id": "57191",
        "name": "Simmons",
        "place": "hamlet"
      }
    },
    {
      "type": "node",
      "id": 151322348,
      "lat": 35.4145271,
      "lon": -93.2382324,
      "tags": {
        "ele": "195",
        "gnis:feature_id": "57291",
        "name": "Augsburg",
        "place": "hamlet"
      }
    },
    {
      "type": "node",
      "id": 151322352,
      "lat": 36.0967415,
      "lon": -93.3026808,
      "tags": {
        "ele": "659",
        "gnis:feature_id": "57576",
        "name": "Compton",
        "place": "hamlet"
      }
    },
    {
      "type": "node",
      "id": 151322363,
      "lat": 35.9494569,
      "lon": -94.4233612,
      "tags": {
        "ele": "449",
        "gnis:feature_id": "77500",
        "name": "Lincoln",
        "place": "village",
        "population": "2249",
        "wikidata": "Q80068",
        "wikipedia": "en:Lincoln, Arkansas"
      }
    },
    {
      "type": "node",
      "id": 151322366,
      "lat": 34.8028742,
      "lon": -90.9081715,
      "tags": {
        "ele": "62",
        "gnis:feature_id": "77871",
        "name": "Oak Forest",
        "place": "hamlet"
      }
    },
    {
      "type": "node",
      "id": 151322528,
      "lat": 35.3361438,
      "lon": -94.1782325,
      "tags": {
        "ele": "129",
        "gnis:feature_id": "77456",
        "name": "Lavaca",
        "place": "village",
        "population": "2289",
        "wikidata": "Q2331006",
        "wikipedia": "en:Lavaca, Arkansas"
      }
    },
    {
      "type": "node",
      "id": 151322544,
      "lat": 34.6291006,
      "lon": -92.5583233,
      "tags": {
        "gnis:feature_id": "54484",
        "name": "Salem",
        "place": "village",
        "population": "2607",
        "population:date": "2010",
        "source:population": "US Census",
        "wikidata": "Q2586297",
        "wikipedia": "en:Salem, Saline County, Arkansas"
      }
    },
    {
      "type": "node",
      "id": 151322562,
      "lat": 35.0637065,
      "lon": -94.0474282,
      "tags": {
        "ele": "170",
        "gnis:feature_id": "72452",
        "name": "Ione",
        "place": "hamlet"
      }
    },
    {
      "type": "node",
      "id": 151322623,
      "lat": 34.4078775,
      "lon": -93.6485234,
      "tags": {
        "ele": "197",
        "gnis:feature_id": "72546",
        "name": "Manfred",
        "place": "hamlet"
      }
    },
    {
      "type": "node",
      "id": 151322773,
      "lat": 33.5926167,
      "lon": -93.276558,
      "tags": {
        "ele": "118",
        "gnis:feature_id": "54227",
        "name": "Rosston",
        "place": "hamlet",
        "population": "211",
        "wikidata": "Q2034955",
        "wikipedia": "en:Rosston, Arkansas"
      }
    },
    {
      "type": "node",
      "id": 151322783,
      "lat": 36.3536741,
      "lon": -90.6945588,
      "tags": {
        "ele": "87",
        "gnis:feature_id": "57054",
        "name": "Heelstring",
        "place": "hamlet"
      }
    },
    {
      "type": "node",
      "id": 151322799,
      "lat": 34.5764845,
      "lon": -93.5796363,
      "tags": {
        "ele": "196",
        "gnis:feature_id": "63632",
        "name": "Sweethome",
        "place": "hamlet"
      }
    },
    {
      "type": "node",
      "id": 151322806,
      "lat": 34.7813665,
      "lon": -91.5789815,
      "tags": {
        "ele": "70",
        "gnis:feature_id": "49971",
        "name": "Hazen",
        "place": "village",
        "population": "1481",
        "wikidata": "Q2523382",
        "wikipedia": "en:Hazen, Arkansas"
      }
    },
    {
      "type": "node",
      "id": 151322819,
      "lat": 35.2317523,
      "lon": -91.6676357,
      "tags": {
        "ele": "68",
        "gnis:feature_id": "81873",
        "name": "Kensett",
        "place": "village",
        "population": "1714",
        "population:date": "2006",
        "source:population": "US Census"
      }
    },
    {
      "type": "node",
      "id": 151323375,
      "lat": 35.756466,
      "lon": -91.6237494,
      "tags": {
        "ele": "112",
        "gnis:feature_id": "67985",
        "name": "Bryant Woodland Heights",
        "place": "hamlet",
        "wikidata": "Q122556507"
      }
    },
    {
      "type": "node",
      "id": 151323378,
      "lat": 35.3573075,
      "lon": -90.5195491,
      "tags": {
        "ele": "57",
        "gnis:feature_id": "58924",
        "name": "Yarbo Place",
        "place": "hamlet"
      }
    },
    {
      "type": "node",
      "id": 151323390,
      "lat": 36.1328564,
      "lon": -94.1654821,
      "tags": {
        "ele": "365",
        "gnis:feature_id": "77381",
        "name": "Johnson",
        "place": "village",
        "population": "3059",
        "population:date": "2006",
        "source:population": "US Census"
      }
    },
    {
      "type": "node",
      "id": 151324187,
      "lat": 36.0072941,
      "lon": -91.2523521,
      "tags": {
        "ele": "109",
        "gnis:feature_id": "51525",
        "name": "Lynn",
        "place": "village",
        "population": "301",
        "population:date": "2006",
        "source:population": "US Census"
      }
    },
    {
      "type": "node",
      "id": 151324329,
      "lat": 33.6995537,
      "lon": -92.8204405,
      "tags": {
        "ele": "37",
        "gnis:feature_id": "58799",
        "name": "Velie",
        "place": "hamlet"
      }
    },
    {
      "type": "node",
      "id": 151324468,
      "lat": 34.7642583,
      "lon": -92.2282039,
      "tags": {
        "ele": "76",
        "gnis:feature_id": "57660",
        "name": "Dixie",
        "place": "hamlet"
      }
    },
    {
      "type": "node",
      "id": 151324552,
      "lat": 34.1276054,
      "lon": -90.963998,
      "tags": {
        "ele": "48",
        "gnis:feature_id": "57014",
        "name": "Ferguson Landing",
        "place": "hamlet"
      }
    },
    {
      "type": "node",
      "id": 151324560,
      "lat": 35.995626,
      "lon": -90.4873284,
      "tags": {
        "ele": "78",
        "gnis:feature_id": "52656",
        "name": "New Hope",
        "place": "hamlet"
      }
    },
    {
      "type": "node",
      "id": 151324566,
      "lat": 36.3806216,
      "lon": -92.2276564,
      "tags": {
        "ele": "205",
        "gnis:feature_id": "50003",
        "name": "Henderson",
        "place": "hamlet"
      }
    },
    {
      "type": "node",
      "id": 151324580,
      "lat": 33.8859498,
      "lon": -94.1335291,
      "tags": {
        "ele": "168",
        "gnis:feature_id": "52878",
        "name": "Oak Grove",
        "place": "hamlet"
      }
    },
    {
      "type": "node",
      "id": 151324590,
      "lat": 35.8703523,
      "lon": -91.4181891,
      "tags": {
        "ele": "115",
        "gnis:feature_id": "67987",
        "name": "Cedar Grove",
        "place": "hamlet"
      }
    },
    {
      "type": "node",
      "id": 151324600,
      "lat": 35.6459123,
      "lon": -90.0903693,
      "tags": {
        "ele": "68",
        "gnis:feature_id": "57928",
        "name": "Hilton",
        "place": "hamlet"
      }
    },
    {
      "type": "node",
      "id": 151324606,
      "lat": 36.3870143,
      "lon": -93.6099122,
      "tags": {
        "ele": "373",
        "gnis:feature_id": "58401",
        "name": "Pleasant Valley",
        "place": "hamlet"
      }
    },
    {
      "type": "node",
      "id": 151324613,
      "lat": 33.8734365,
      "lon": -92.2670918,
      "tags": {
        "ele": "51",
        "gnis:feature_id": "58575",
        "name": "Saline",
        "place": "hamlet"
      }
    },
    {
      "type": "node",
      "id": 151324620,
      "lat": 34.1231548,
      "lon": -91.6651279,
      "tags": {
        "ele": "55",
        "gnis:feature_id": "60287",
        "name": "Sarassa",
        "place": "hamlet",
        "wikidata": "Q122565862"
      }
    },
    {
      "type": "node",
      "id": 151324630,
      "lat": 35.5425824,
      "lon": -93.4321272,
      "tags": {
        "ele": "232",
        "gnis:feature_id": "59145",
        "name": "Hillcrest",
        "place": "hamlet"
      }
    },
    {
      "type": "node",
      "id": 151324992,
      "lat": 35.047038,
      "lon": -90.2389844,
      "tags": {
        "ele": "64",
        "gnis:feature_id": "56120",
        "name": "Waverly",
        "place": "hamlet"
      }
    },
    {
      "type": "node",
      "id": 151324999,
      "lat": 33.8392716,
      "lon": -92.5446013,
      "tags": {
        "ele": "83",
        "gnis:feature_id": "57018",
        "name": "Forrest Bonner",
        "place": "hamlet",
        "wikidata": "Q122595792"
      }
    },
    {
      "type": "node",
      "id": 151325014,
      "lat": 33.3584581,
      "lon": -93.4601747,
      "tags": {
        "ele": "100",
        "gnis:feature_id": "57274",
        "name": "Apalco",
        "place": "hamlet"
      }
    },
    {
      "type": "node",
      "id": 151325037,
      "lat": 36.3158994,
      "lon": -91.4826388,
      "tags": {
        "ele": "115",
        "gnis:feature_id": "49856",
        "name": "Hardy",
        "name:ru": "Харди",
        "place": "village",
        "population": "772",
        "wikidata": "Q79299",
        "wikipedia": "en:Hardy, Arkansas"
      }
    },
    {
      "type": "node",
      "id": 151325678,
      "lat": 36.0109044,
      "lon": -91.8004234,
      "tags": {
        "ele": "255",
        "gnis:feature_id": "55200",
        "name": "Stella",
        "place": "hamlet"
      }
    },
    {
      "type": "node",
      "id": 151325698,
      "lat": 35.7420218,
      "lon": -91.6559724,
      "tags": {
        "ele": "143",
        "gnis:feature_id": "68046",
        "name": "Riverview",
        "place": "hamlet"
      }
    },
    {
      "type": "node",
      "id": 151325711,
      "lat": 34.9317659,
      "lon": -94.2607675,
      "tags": {
        "ele": "203",
        "gnis:feature_id": "72942",
        "name": "Oliver",
        "place": "hamlet"
      }
    },
    {
      "type": "node",
      "id": 151325718,
      "lat": 33.9642705,
      "lon": -91.1987259,
      "tags": {
        "ele": "47",
        "gnis:feature_id": "77641",
        "name": "Medina",
        "place": "hamlet"
      }
    },
    {
      "type": "node",
      "id": 151325725,
      "lat": 34.9659215,
      "lon": -92.7143317,
      "tags": {
        "ele": "95",
        "gnis:feature_id": "65240",
        "name": "Oak Grove",
        "place": "hamlet"
      }
    },
    {
      "type": "node",
      "id": 151325733,
      "lat": 33.4712295,
      "lon": -92.7779394,
      "tags": {
        "ele": "72",
        "gnis:feature_id": "76979",
        "name": "Frenchport",
        "place": "hamlet"
      }
    },
    {
      "type": "node",
      "id": 151325788,
      "lat": 34.589266,
      "lon": -90.9751166,
      "tags": {
        "ele": "58",
        "gnis:feature_id": "65578",
        "name": "Hicksville",
        "place": "hamlet"
      }
    },
    {
      "type": "node",
      "id": 151325793,
      "lat": 35.9706306,
      "lon": -92.745999,
      "tags": {
        "ele": "289",
        "gnis:feature_id": "58625",
        "name": "Silver Hill",
        "place": "hamlet"
      }
    },
    {
      "type": "node",
      "id": 151325803,
      "lat": 35.3850795,
      "lon": -92.5871047,
      "tags": {
        "ele": "199",
        "gnis:feature_id": "57158",
        "name": "Pleasant Hill",
        "place": "hamlet"
      }
    },
    {
      "type": "node",
      "id": 151325812,
      "lat": 36.3328466,
      "lon": -93.2010128,
      "tags": {
        "ele": "413",
        "gnis:feature_id": "58438",
        "name": "Prosperity",
        "place": "hamlet"
      }
    },
    {
      "type": "node",
      "id": 151325817,
      "lat": 36.313942,
      "lon": -93.0124715,
      "tags": {
        "ele": "369",
        "gnis:feature_id": "76306",
        "name": "Bergman",
        "place": "village",
        "population": "426",
        "population:date": "2020",
        "website": "https://townofbergman.com/",
        "wikidata": "Q2386404",
        "wikipedia": "en:Bergman, Arkansas"
      }
    },
    {
      "type": "node",
      "id": 151325829,
      "lat": 34.9228663,
      "lon": -91.95292,
      "tags": {
        "ele": "90",
        "gnis:feature_id": "61308",
        "name": "Cinnamon Acres",
        "place": "hamlet"
      }
    },
    {
      "type": "node",
      "id": 151325837,
      "lat": 35.7111886,
      "lon": -91.2126271,
      "tags": {
        "ele": "74",
        "gnis:feature_id": "66353",
        "name": "Amith Addition",
        "place": "hamlet"
      }
    },
    {
      "type": "node",
      "id": 151325851,
      "lat": 33.8012155,
      "lon": -91.842911,
      "tags": {
        "ele": "79",
        "gnis:feature_id": "78161",
        "name": "Relfs Bluff",
        "place": "hamlet"
      }
    },
    {
      "type": "node",
      "id": 151325858,
      "lat": 34.9084279,
      "lon": -90.6231621,
      "tags": {
        "ele": "60",
        "gnis:feature_id": "83037",
        "name": "Ebling",
        "place": "hamlet"
      }
    },
    {
      "type": "node",
      "id": 151326136,
      "lat": 33.7412299,
      "lon": -94.1482512,
      "tags": {
        "ele": "97",
        "gnis:feature_id": "78783",
        "name": "Wilton",
        "place": "village",
        "population": "429",
        "population:date": "2006",
        "source:population": "US Census"
      }
    },
    {
      "type": "node",
      "id": 151326142,
      "lat": 34.0984459,
      "lon": -94.072695,
      "tags": {
        "ele": "123",
        "gnis:feature_id": "57289",
        "name": "Atwood",
        "place": "hamlet"
      }
    },
    {
      "type": "node",
      "id": 151326248,
      "lat": 35.9234054,
      "lon": -90.2570426,
      "tags": {
        "ele": "72",
        "gnis:feature_id": "57555",
        "name": "Clearwater",
        "place": "hamlet"
      }
    },
    {
      "type": "node",
      "id": 151327164,
      "lat": 36.1684034,
      "lon": -92.4568272,
      "tags": {
        "ele": "146",
        "gnis:feature_id": "77901",
        "name": "Old Buffalo",
        "place": "hamlet"
      }
    },
    {
      "type": "node",
      "id": 151327171,
      "lat": 35.2989738,
      "lon": -93.2868455,
      "tags": {
        "ele": "113",
        "gnis:feature_id": "73309",
        "name": "Riverside",
        "place": "hamlet"
      }
    },
    {
      "type": "node",
      "id": 151327793,
      "lat": 34.7289805,
      "lon": -92.1301452,
      "tags": {
        "ele": "76",
        "gnis:feature_id": "46159",
        "name": "Baucum",
        "place": "hamlet",
        "wikidata": "Q122596930"
      }
    },
    {
      "type": "node",
      "id": 151327858,
      "lat": 36.1825728,
      "lon": -93.4046288,
      "tags": {
        "ele": "405",
        "gnis:feature_id": "77924",
        "name": "Osage",
        "place": "hamlet"
      }
    },
    {
      "type": "node",
      "id": 151327865,
      "lat": 35.0528687,
      "lon": -91.2751266,
      "tags": {
        "ele": "59",
        "gnis:feature_id": "75624",
        "name": "Shady Grove",
        "place": "hamlet"
      }
    },
    {
      "type": "node",
      "id": 151327985,
      "lat": 36.1886838,
      "lon": -93.456297,
      "tags": {
        "ele": "505",
        "gnis:feature_id": "57033",
        "name": "Gobbler",
        "place": "hamlet"
      }
    },
    {
      "type": "node",
      "id": 151327992,
      "lat": 33.9170727,
      "lon": -93.6414756,
      "tags": {
        "ele": "136",
        "gnis:feature_id": "51787",
        "name": "McCaskill",
        "place": "hamlet",
        "population": "57",
        "population:date": "2020",
        "wikidata": "Q79211",
        "wikipedia": "en:McCaskill, Arkansas"
      }
    },
    {
      "type": "node",
      "id": 151328004,
      "lat": 35.2189749,
      "lon": -93.2524002,
      "tags": {
        "ele": "531",
        "gnis:feature_id": "67916",
        "name": "Mount Nebo",
        "place": "hamlet"
      }
    },
    {
      "type": "node",
      "id": 151328010,
      "lat": 33.0262369,
      "lon": -91.6095657,
      "tags": {
        "ele": "33",
        "gnis:feature_id": "58018",
        "name": "Kimball",
        "place": "hamlet"
      }
    },
    {
      "type": "node",
      "id": 151328018,
      "lat": 33.3831715,
      "lon": -91.2051115,
      "tags": {
        "ele": "39",
        "gnis:feature_id": "58100",
        "name": "Luna",
        "place": "hamlet"
      }
    },
    {
      "type": "node",
      "id": 151328026,
      "lat": 33.6126086,
      "lon": -92.0645831,
      "tags": {
        "capital": "6",
        "ele": "67",
        "gnis:feature_id": "78699",
        "name": "Warren",
        "place": "town",
        "population": "5453",
        "population:date": "2020",
        "source:population": "https://www.census.gov/quickfacts/fact/table/warrencityarkansas/POP010220",
        "wikidata": "Q79661",
        "wikipedia": "en:Warren, Arkansas"
      }
    },
    {
      "type": "node",
      "id": 151328036,
      "lat": 35.9364621,
      "lon": -91.4401345,
      "tags": {
        "ele": "123",
        "gnis:feature_id": "66149",
        "name": "Aetna",
        "place": "hamlet"
      }
    },
    {
      "type": "node",
      "id": 151328043,
      "lat": 35.248148,
      "lon": -94.202987,
      "tags": {
        "ele": "168",
        "gnis:feature_id": "57513",
        "name": "Carnis",
        "place": "hamlet",
        "wikidata": "Q122555729"
      }
    },
    {
      "type": "node",
      "id": 151328066,
      "lat": 35.9297944,
      "lon": -90.5548304,
      "tags": {
        "ele": "81",
        "gnis:feature_id": "57250",
        "name": "Aetna",
        "place": "hamlet"
      }
    },
    {
      "type": "node",
      "id": 151328074,
      "lat": 34.4901005,
      "lon": -90.9562265,
      "tags": {
        "ele": "57",
        "gnis:feature_id": "57621",
        "name": "Cypert",
        "place": "hamlet"
      }
    },
    {
      "type": "node",
      "id": 151328090,
      "lat": 36.464511,
      "lon": -92.9201731,
      "tags": {
        "ele": "245",
        "gnis:feature_id": "57652",
        "name": "Diamond City",
        "place": "village",
        "population": "791",
        "population:date": "2006",
        "source:population": "US Census",
        "website": "https://diamondcityarkansas.com/"
      }
    },
    {
      "type": "node",
      "id": 151328095,
      "lat": 33.0962438,
      "lon": -92.5515396,
      "tags": {
        "ele": "68",
        "gnis:feature_id": "59804",
        "name": "Pleasant Grove",
        "place": "hamlet"
      }
    },
    {
      "type": "node",
      "id": 151328806,
      "lat": 35.3243104,
      "lon": -92.4100843,
      "tags": {
        "ele": "113",
        "gnis:feature_id": "1669457",
        "name": "Twin Groves",
        "place": "village",
        "population": "285",
        "population:date": "2006",
        "source:population": "US Census"
      }
    },
    {
      "type": "node",
      "id": 151329111,
      "lat": 35.0167573,
      "lon": -93.3151825,
      "tags": {
        "ele": "130",
        "gnis:feature_id": "72264",
        "name": "Kingston",
        "place": "hamlet"
      }
    },
    {
      "type": "node",
      "id": 151329205,
      "lat": 34.2928774,
      "lon": -91.3378987,
      "tags": {
        "capital": "6",
        "ele": "58",
        "gnis:feature_id": "48411",
        "name": "De Witt",
        "place": "village",
        "population": "3377",
        "population:date": "2006",
        "source:population": "US Census"
      }
    },
    {
      "type": "node",
      "id": 151329339,
      "lat": 35.5006417,
      "lon": -94.0515919,
      "tags": {
        "ele": "123",
        "gnis:feature_id": "77778",
        "name": "Mulberry",
        "place": "village",
        "population": "1717",
        "population:date": "2006",
        "source:population": "US Census"
      }
    },
    {
      "type": "node",
      "id": 151329442,
      "lat": 35.7831321,
      "lon": -91.6579173,
      "tags": {
        "ele": "101",
        "gnis:feature_id": "68058",
        "name": "Sun Valley Addition",
        "place": "hamlet"
      }
    },
    {
      "type": "node",
      "id": 151329470,
      "lat": 35.1781451,
      "lon": -90.4292679,
      "tags": {
        "ele": "58",
        "gnis:feature_id": "57982",
        "name": "Jeanette",
        "place": "hamlet"
      }
    },
    {
      "type": "node",
      "id": 151329498,
      "lat": 35.1481572,
      "lon": -92.5526197,
      "tags": {
        "ele": "98",
        "gnis:feature_id": "58165",
        "name": "Menifee",
        "place": "village",
        "population": "274",
        "population:date": "2020",
        "wikidata": "Q2520934",
        "wikipedia": "en:Menifee, Arkansas"
      }
    },
    {
      "type": "node",
      "id": 151329970,
      "lat": 34.1281541,
      "lon": -92.5296021,
      "tags": {
        "ele": "79",
        "gnis:feature_id": "57068",
        "name": "Ivy",
        "place": "hamlet"
      }
    },
    {
      "type": "node",
      "id": 151330289,
      "lat": 33.6440067,
      "lon": -93.6007335,
      "tags": {
        "ele": "105",
        "gnis:feature_id": "61488",
        "name": "Lester Addition",
        "place": "hamlet"
      }
    },
    {
      "type": "node",
      "id": 151330321,
      "lat": 36.237293,
      "lon": -92.7723896,
      "tags": {
        "ele": "204",
        "gnis:feature_id": "76656",
        "name": "Comal",
        "place": "hamlet"
      }
    },
    {
      "type": "node",
      "id": 151330328,
      "lat": 34.708703,
      "lon": -91.8715264,
      "tags": {
        "ele": "68",
        "gnis:feature_id": "61176",
        "name": "Bayou Meto",
        "place": "hamlet",
        "wikidata": "Q4874732"
      }
    },
    {
      "type": "node",
      "id": 151330335,
      "lat": 34.7303737,
      "lon": -91.2815148,
      "tags": {
        "ele": "56",
        "gnis:feature_id": "59280",
        "name": "Jeffries",
        "place": "hamlet"
      }
    },
    {
      "type": "node",
      "id": 151330348,
      "lat": 35.1109178,
      "lon": -92.5159921,
      "tags": {
        "ele": "95",
        "gnis:feature_id": "57821",
        "name": "Gleason",
        "place": "hamlet"
      }
    },
    {
      "type": "node",
      "id": 151330360,
      "lat": 33.3995679,
      "lon": -93.33906,
      "tags": {
        "ele": "106",
        "gnis:feature_id": "59940",
        "name": "Beech Creek",
        "place": "hamlet"
      }
    },
    {
      "type": "node",
      "id": 151330692,
      "lat": 34.8892604,
      "lon": -93.5379698,
      "tags": {
        "ele": "134",
        "gnis:feature_id": "73124",
        "name": "Pleasant Hill",
        "place": "hamlet"
      }
    },
    {
      "type": "node",
      "id": 151330732,
      "lat": 36.0680241,
      "lon": -90.9561004,
      "tags": {
        "capital": "6",
        "ele": "82",
        "gnis:feature_id": "78686",
        "name": "Walnut Ridge",
        "place": "town",
        "population": "5384",
        "population:date": "2020",
        "wikidata": "Q79910",
        "wikipedia": "en:Walnut Ridge, Arkansas"
      }
    },
    {
      "type": "node",
      "id": 151330737,
      "lat": 35.755079,
      "lon": -92.9782282,
      "tags": {
        "ele": "535",
        "gnis:feature_id": "72719",
        "name": "Moore",
        "place": "hamlet"
      }
    },
    {
      "type": "node",
      "id": 151330744,
      "lat": 36.1264703,
      "lon": -94.5463302,
      "tags": {
        "ele": "350",
        "gnis:feature_id": "77432",
        "name": "Lake Frances",
        "place": "hamlet"
      }
    },
    {
      "type": "node",
      "id": 151330753,
      "lat": 35.5034156,
      "lon": -90.4537143,
      "tags": {
        "ele": "62",
        "gnis:feature_id": "82819",
        "name": "Northern Ohio",
        "place": "hamlet"
      }
    },
    {
      "type": "node",
      "id": 151330768,
      "lat": 35.1509249,
      "lon": -93.8068652,
      "tags": {
        "ele": "152",
        "gnis:feature_id": "72536",
        "name": "Magazine",
        "place": "village",
        "population": "847",
        "wikidata": "Q79532",
        "wikipedia": "en:Magazine, Arkansas"
      }
    },
    {
      "type": "node",
      "id": 151330978,
      "lat": 35.5200869,
      "lon": -94.2668764,
      "tags": {
        "ele": "148",
        "gnis:feature_id": "65669",
        "name": "Ball",
        "place": "hamlet"
      }
    },
    {
      "type": "node",
      "id": 151331002,
      "lat": 35.4742496,
      "lon": -90.4489918,
      "tags": {
        "ele": "65",
        "gnis:feature_id": "58001",
        "name": "Joyland",
        "place": "hamlet"
      }
    },
    {
      "type": "node",
      "id": 151331009,
      "lat": 34.4742615,
      "lon": -92.2532054,
      "tags": {
        "ele": "92",
        "gnis:feature_id": "58310",
        "name": "Orion",
        "place": "hamlet"
      }
    },
    {
      "type": "node",
      "id": 151331019,
      "lat": 34.2867635,
      "lon": -92.2807058,
      "tags": {
        "ele": "100",
        "gnis:feature_id": "58423",
        "name": "Prague",
        "place": "hamlet"
      }
    },
    {
      "type": "node",
      "id": 151331022,
      "lat": 34.8150907,
      "lon": -92.2243153,
      "tags": {
        "ele": "100",
        "gnis:feature_id": "58612",
        "name": "Sherwood",
        "place": "town",
        "population": "23422",
        "population:date": "2006",
        "source:population": "US Census",
        "wikidata": "Q79681",
        "wikipedia": "en:Sherwood, Arkansas"
      }
    },
    {
      "type": "node",
      "id": 151331031,
      "lat": 34.7967578,
      "lon": -92.4001549,
      "tags": {
        "ele": "183",
        "gnis:feature_id": "68611",
        "name": "Walton Heights",
        "place": "hamlet"
      }
    },
    {
      "type": "node",
      "id": 151331057,
      "lat": 34.6628706,
      "lon": -92.3079292,
      "tags": {
        "ele": "77",
        "gnis:feature_id": "57361",
        "name": "Berger",
        "place": "hamlet"
      }
    },
    {
      "type": "node",
      "id": 151331082,
      "lat": 36.2881304,
      "lon": -94.0285337,
      "tags": {
        "ele": "366",
        "gnis:feature_id": "75934",
        "name": "Oak Grove",
        "place": "hamlet"
      }
    },
    {
      "type": "node",
      "id": 151331087,
      "lat": 34.8414847,
      "lon": -90.9965076,
      "tags": {
        "ele": "61",
        "gnis:feature_id": "59505",
        "name": "South Plains",
        "place": "hamlet"
      }
    },
    {
      "type": "node",
      "id": 151331097,
      "lat": 36.1214559,
      "lon": -90.4342711,
      "tags": {
        "ele": "84",
        "gnis:feature_id": "57870",
        "name": "Halliday",
        "place": "hamlet"
      }
    },
    {
      "type": "node",
      "id": 151331105,
      "lat": 34.110377,
      "lon": -91.7592972,
      "tags": {
        "ele": "58",
        "gnis:feature_id": "78522",
        "name": "Tamo",
        "place": "hamlet"
      }
    },
    {
      "type": "node",
      "id": 151331366,
      "lat": 36.2231279,
      "lon": -93.5299102,
      "tags": {
        "ele": "409",
        "gnis:feature_id": "57114",
        "name": "Metalton",
        "place": "hamlet"
      }
    },
    {
      "type": "node",
      "id": 151331388,
      "lat": 35.6356396,
      "lon": -94.167428,
      "tags": {
        "ele": "229",
        "gnis:feature_id": "77771",
        "name": "Mountainburg",
        "place": "village",
        "population": "631",
        "wikidata": "Q79327",
        "wikipedia": "en:Mountainburg, Arkansas"
      }
    },
    {
      "type": "node",
      "id": 151331407,
      "lat": 36.0981301,
      "lon": -93.1585103,
      "tags": {
        "ele": "287",
        "gnis:feature_id": "69943",
        "name": "The Basin",
        "place": "hamlet"
      }
    },
    {
      "type": "node",
      "id": 151331421,
      "lat": 35.5353592,
      "lon": -90.5731629,
      "tags": {
        "ele": "64",
        "gnis:feature_id": "77916",
        "name": "Old Weona",
        "place": "hamlet"
      }
    },
    {
      "type": "node",
      "id": 151331429,
      "lat": 35.2815675,
      "lon": -92.4252045,
      "tags": {
        "ele": "115",
        "gnis:feature_id": "78166",
        "name": "Republican",
        "place": "hamlet"
      }
    },
    {
      "type": "node",
      "id": 151332451,
      "lat": 35.1131425,
      "lon": -93.053229,
      "tags": {
        "ele": "103",
        "gnis:feature_id": "57587",
        "name": "Cotton Town",
        "place": "hamlet"
      }
    },
    {
      "type": "node",
      "id": 151332457,
      "lat": 36.0834017,
      "lon": -90.5651084,
      "tags": {
        "ele": "118",
        "gnis:feature_id": "64839",
        "name": "Fairview",
        "place": "hamlet"
      }
    },
    {
      "type": "node",
      "id": 151332469,
      "lat": 34.948977,
      "lon": -91.9556982,
      "tags": {
        "ele": "99",
        "gnis:feature_id": "61311",
        "name": "Fulmer Field Estates",
        "place": "hamlet"
      }
    },
    {
      "type": "node",
      "id": 151332473,
      "lat": 35.0556496,
      "lon": -93.8696455,
      "tags": {
        "ele": "160",
        "gnis:feature_id": "72223",
        "name": "Grayson",
        "place": "hamlet"
      }
    },
    {
      "type": "node",
      "id": 151332530,
      "lat": 35.9861875,
      "lon": -93.0418402,
      "tags": {
        "ele": "273",
        "gnis:feature_id": "71025",
        "name": "Carver",
        "place": "hamlet"
      }
    },
    {
      "type": "node",
      "id": 151332535,
      "lat": 35.6453241,
      "lon": -91.264803,
      "tags": {
        "ele": "71",
        "gnis:feature_id": "76792",
        "name": "Diaz",
        "place": "village",
        "population": "1224",
        "wikidata": "Q79331",
        "wikipedia": "en:Diaz, Arkansas"
      }
    },
    {
      "type": "node",
      "id": 151332542,
      "lat": 34.5039898,
      "lon": -93.7435264,
      "tags": {
        "ele": "268",
        "gnis:feature_id": "63543",
        "name": "Mimosa",
        "place": "hamlet"
      }
    },
    {
      "type": "node",
      "id": 151332549,
      "lat": 35.7772984,
      "lon": -91.1637371,
      "tags": {
        "ele": "75",
        "gnis:feature_id": "58794",
        "name": "Vance",
        "place": "hamlet"
      }
    },
    {
      "type": "node",
      "id": 151332561,
      "lat": 35.378696,
      "lon": -90.6873326,
      "tags": {
        "ele": "79",
        "gnis:feature_id": "76352",
        "name": "Birdeye",
        "place": "hamlet"
      }
    },
    {
      "type": "node",
      "id": 151332571,
      "lat": 34.4756586,
      "lon": -90.643718,
      "tags": {
        "ele": "55",
        "gnis:feature_id": "58428",
        "name": "Preston Place",
        "place": "hamlet"
      }
    },
    {
      "type": "node",
      "id": 151332585,
      "lat": 34.0623237,
      "lon": -93.3387876,
      "tags": {
        "ele": "98",
        "gnis:feature_id": "58648",
        "name": "Smyrna",
        "place": "hamlet"
      }
    },
    {
      "type": "node",
      "id": 151332594,
      "lat": 35.6831337,
      "lon": -90.2625975,
      "tags": {
        "ele": "69",
        "gnis:feature_id": "66888",
        "name": "West Ridge",
        "place": "hamlet"
      }
    },
    {
      "type": "node",
      "id": 151333117,
      "lat": 35.0713677,
      "lon": -90.8148285,
      "tags": {
        "ele": "73",
        "gnis:feature_id": "83097",
        "name": "Caldwell",
        "name:ru": "Колдуэлл",
        "place": "village",
        "population": "451",
        "population:date": "2020",
        "postal_code": "72326",
        "wikidata": "Q2671104",
        "wikipedia": "en:Caldwell, Arkansas"
      }
    },
    {
      "type": "node",
      "id": 151333122,
      "lat": 35.1931444,
      "lon": -90.8995607,
      "tags": {
        "ele": "67",
        "gnis:feature_id": "57714",
        "name": "Ellis Chapel",
        "place": "hamlet"
      }
    },
    {
      "type": "node",
      "id": 151333145,
      "lat": 36.3334067,
      "lon": -93.9238091,
      "tags": {
        "ele": "408",
        "gnis:feature_id": "75394",
        "name": "Bland",
        "place": "hamlet"
      }
    },
    {
      "type": "node",
      "id": 151333150,
      "lat": 34.547878,
      "lon": -90.8531693,
      "tags": {
        "ele": "58",
        "gnis:feature_id": "78076",
        "name": "Poplar Grove",
        "place": "hamlet"
      }
    },
    {
      "type": "node",
      "id": 151333155,
      "lat": 34.9064783,
      "lon": -91.7734699,
      "tags": {
        "ele": "72",
        "gnis:feature_id": "61327",
        "name": "Waterproof",
        "place": "hamlet"
      }
    },
    {
      "type": "node",
      "id": 151333161,
      "lat": 35.5478597,
      "lon": -93.3543469,
      "tags": {
        "ele": "195",
        "gnis:feature_id": "73736",
        "name": "Strawberry",
        "place": "hamlet"
      }
    },
    {
      "type": "node",
      "id": 151333165,
      "lat": 35.9531336,
      "lon": -93.2421224,
      "tags": {
        "ele": "283",
        "gnis:feature_id": "77959",
        "name": "Parthenon",
        "place": "hamlet"
      }
    },
    {
      "type": "node",
      "id": 151333170,
      "lat": 33.4465032,
      "lon": -92.2190309,
      "tags": {
        "ele": "52",
        "gnis:feature_id": "77060",
        "name": "Gravelridge",
        "place": "hamlet"
      }
    },
    {
      "type": "node",
      "id": 151333624,
      "lat": 35.7053554,
      "lon": -90.0534237,
      "tags": {
        "ele": "70",
        "gnis:feature_id": "57589",
        "name": "Cottonwood Corner",
        "place": "hamlet"
      }
    },
    {
      "type": "node",
      "id": 151333872,
      "lat": 33.6367751,
      "lon": -92.1790317,
      "tags": {
        "ele": "76",
        "gnis:feature_id": "57111",
        "name": "McKinney",
        "place": "hamlet"
      }
    },
    {
      "type": "node",
      "id": 151333924,
      "lat": 33.4112328,
      "lon": -93.0696101,
      "tags": {
        "ele": "76",
        "gnis:feature_id": "55203",
        "name": "Stephens",
        "place": "village",
        "population": "1050",
        "population:date": "2006",
        "source:population": "US Census"
      }
    },
    {
      "type": "node",
      "id": 151334363,
      "lat": 35.4737632,
      "lon": -91.8185385,
      "tags": {
        "ele": "183",
        "gnis:feature_id": "58151",
        "name": "McJester",
        "place": "hamlet",
        "wikidata": "Q122545387"
      }
    },
    {
      "type": "node",
      "id": 151334369,
      "lat": 34.6084264,
      "lon": -92.4515456,
      "tags": {
        "ele": "142",
        "gnis:feature_id": "66067",
        "name": "Woodland Hills",
        "place": "hamlet"
      }
    },
    {
      "type": "node",
      "id": 151334378,
      "lat": 34.7862024,
      "lon": -92.4329339,
      "tags": {
        "ele": "127",
        "gnis:feature_id": "68316",
        "name": "Hickory Hills",
        "place": "hamlet"
      }
    },
    {
      "type": "node",
      "id": 151334382,
      "lat": 34.6195376,
      "lon": -92.2212595,
      "tags": {
        "ele": "76",
        "gnis:feature_id": "58726",
        "name": "Tafton",
        "place": "hamlet"
      }
    },
    {
      "type": "node",
      "id": 151334392,
      "lat": 35.7289661,
      "lon": -91.4251328,
      "tags": {
        "ele": "93",
        "gnis:feature_id": "68030",
        "name": "Mount Zion",
        "place": "hamlet"
      }
    },
    {
      "type": "node",
      "id": 151334399,
      "lat": 36.3920389,
      "lon": -90.7289538,
      "tags": {
        "ele": "88",
        "gnis:feature_id": "76749",
        "name": "Datto",
        "place": "hamlet",
        "population": "65",
        "population:date": "2020",
        "wikidata": "Q3317151",
        "wikipedia": "en:Datto, Arkansas"
      }
    },
    {
      "type": "node",
      "id": 151334408,
      "lat": 34.7534359,
      "lon": -94.2710475,
      "tags": {
        "ele": "306",
        "gnis:feature_id": "73875",
        "name": "Tintop",
        "place": "hamlet"
      }
    },
    {
      "type": "node",
      "id": 151334417,
      "lat": 35.8664707,
      "lon": -94.2918761,
      "tags": {
        "ele": "514",
        "gnis:feature_id": "72952",
        "name": "Onda",
        "place": "hamlet"
      }
    },
    {
      "type": "node",
      "id": 151334421,
      "lat": 34.4556456,
      "lon": -93.1615717,
      "tags": {
        "ele": "161",
        "gnis:feature_id": "73123",
        "name": "Pleasant Hill",
        "place": "hamlet"
      }
    },
    {
      "type": "node",
      "id": 151335398,
      "lat": 35.368691,
      "lon": -92.6276614,
      "tags": {
        "ele": "161",
        "gnis:feature_id": "58714",
        "name": "Sunnyside",
        "place": "hamlet"
      }
    },
    {
      "type": "node",
      "id": 151335410,
      "lat": 36.4484053,
      "lon": -93.9740892,
      "tags": {
        "ele": "454",
        "gnis:feature_id": "76997",
        "name": "Garfield",
        "place": "village",
        "population": "459",
        "population:date": "2006",
        "source:population": "US Census"
      }
    },
    {
      "type": "node",
      "id": 151335423,
      "lat": 35.5400816,
      "lon": -90.2314847,
      "tags": {
        "ele": "68",
        "gnis:feature_id": "58139",
        "name": "McClendons Corner",
        "place": "hamlet"
      }
    },
    {
      "type": "node",
      "id": 151335430,
      "lat": 35.6236898,
      "lon": -91.6059705,
      "tags": {
        "ele": "103",
        "gnis:feature_id": "77249",
        "name": "Huff",
        "place": "hamlet"
      }
    },
    {
      "type": "node",
      "id": 151335650,
      "lat": 35.2931427,
      "lon": -93.5793562,
      "tags": {
        "ele": "208",
        "gnis:feature_id": "73474",
        "name": "Sand Ridge",
        "place": "hamlet"
      }
    },
    {
      "type": "node",
      "id": 151335870,
      "lat": 34.0084433,
      "lon": -93.6971256,
      "tags": {
        "ele": "123",
        "gnis:feature_id": "58553",
        "name": "Roy",
        "place": "hamlet"
      }
    },
    {
      "type": "node",
      "id": 151336425,
      "lat": 35.9231282,
      "lon": -90.7020568,
      "tags": {
        "ele": "98",
        "gnis:feature_id": "78459",
        "name": "Sterling Springs",
        "place": "hamlet",
        "wikidata": "Q122595421"
      }
    },
    {
      "type": "node",
      "id": 151336501,
      "lat": 33.5720659,
      "lon": -93.8532397,
      "tags": {
        "ele": "78",
        "gnis:feature_id": "56962",
        "name": "Clipper",
        "place": "hamlet"
      }
    },
    {
      "type": "node",
      "id": 151336508,
      "lat": 36.0041201,
      "lon": -91.6605216,
      "tags": {
        "ele": "186",
        "gnis:feature_id": "54838",
        "name": "Sidney",
        "place": "village",
        "population": "192",
        "population:date": "2020",
        "wikidata": "Q2357897",
        "wikipedia": "en:Sidney, Arkansas"
      }
    },
    {
      "type": "node",
      "id": 151336512,
      "lat": 34.7825913,
      "lon": -92.4070995,
      "tags": {
        "ele": "168",
        "gnis:feature_id": "68472",
        "name": "Pleasant Valley",
        "place": "hamlet"
      }
    },
    {
      "type": "node",
      "id": 151336519,
      "lat": 33.8153947,
      "lon": -93.8529626,
      "tags": {
        "ele": "106",
        "gnis:feature_id": "62676",
        "name": "Schooley",
        "place": "hamlet"
      }
    },
    {
      "type": "node",
      "id": 151336524,
      "lat": 36.3853444,
      "lon": -92.4618277,
      "tags": {
        "ele": "277",
        "gnis:feature_id": "58176",
        "name": "Midway",
        "place": "hamlet"
      }
    },
    {
      "type": "node",
      "id": 151336533,
      "lat": 33.5984495,
      "lon": -93.2418348,
      "tags": {
        "ele": "105",
        "gnis:feature_id": "58287",
        "name": "Oak Grove",
        "place": "hamlet"
      }
    },
    {
      "type": "node",
      "id": 151336537,
      "lat": 34.6418008,
      "lon": -94.4298712,
      "tags": {
        "ele": "316",
        "gnis:feature_id": "72781",
        "name": "Mountain Fork",
        "place": "hamlet"
      }
    },
    {
      "type": "node",
      "id": 151336541,
      "lat": 35.8178347,
      "lon": -90.4352475,
      "tags": {
        "capital": "6",
        "ele": "69",
        "gnis:feature_id": "77429",
        "name": "Lake City",
        "place": "village",
        "population": "2014",
        "population:date": "2006",
        "source:population": "US Census"
      }
    },
    {
      "type": "node",
      "id": 151336564,
      "lat": 35.5323086,
      "lon": -94.2207638,
      "tags": {
        "ele": "244",
        "gnis:feature_id": "76768",
        "name": "Deans Market",
        "place": "hamlet"
      }
    },
    {
      "type": "node",
      "id": 151336831,
      "lat": 35.4325849,
      "lon": -93.6154676,
      "tags": {
        "ele": "118",
        "gnis:feature_id": "49922",
        "name": "Hartman",
        "place": "village",
        "population": "631",
        "population:date": "2006",
        "source:population": "US Census"
      }
    },
    {
      "type": "node",
      "id": 151337363,
      "lat": 34.9998213,
      "lon": -94.4360526,
      "tags": {
        "ele": "184",
        "gnis:feature_id": "70455",
        "name": "Apex",
        "place": "hamlet"
      }
    },
    {
      "type": "node",
      "id": 151337455,
      "lat": 35.7197994,
      "lon": -90.1264818,
      "tags": {
        "ele": "69",
        "gnis:feature_id": "57696",
        "name": "Eastview",
        "place": "hamlet"
      }
    },
    {
      "type": "node",
      "id": 151337469,
      "lat": 36.0311875,
      "lon": -93.3982387,
      "tags": {
        "ele": "677",
        "gnis:feature_id": "58695",
        "name": "Stoverville",
        "place": "hamlet"
      }
    },
    {
      "type": "node",
      "id": 151337641,
      "lat": 36.3611779,
      "lon": -92.4140489,
      "tags": {
        "ele": "265",
        "gnis:feature_id": "69442",
        "name": "Spring Lake Estates",
        "place": "hamlet"
      }
    },
    {
      "type": "node",
      "id": 151337791,
      "lat": 35.6503566,
      "lon": -90.710112,
      "tags": {
        "ele": "76",
        "gnis:feature_id": "57803",
        "name": "Gaulett",
        "place": "hamlet"
      }
    },
    {
      "type": "node",
      "id": 151337797,
      "lat": 33.1070765,
      "lon": -93.7229548,
      "tags": {
        "ele": "64",
        "gnis:feature_id": "57818",
        "name": "Gin City",
        "place": "hamlet"
      }
    },
    {
      "type": "node",
      "id": 151337802,
      "lat": 33.3765137,
      "lon": -93.7360129,
      "tags": {
        "ele": "70",
        "gnis:feature_id": "57107",
        "name": "Mayton",
        "place": "hamlet"
      }
    },
    {
      "type": "node",
      "id": 151337808,
      "lat": 35.2492549,
      "lon": -90.7106665,
      "tags": {
        "ele": "70",
        "gnis:feature_id": "77480",
        "name": "Levesque",
        "place": "hamlet"
      }
    },
    {
      "type": "node",
      "id": 151337814,
      "lat": 35.3786965,
      "lon": -90.1814831,
      "tags": {
        "ele": "69",
        "gnis:feature_id": "58043",
        "name": "Lambethville",
        "place": "hamlet"
      }
    },
    {
      "type": "node",
      "id": 151337820,
      "lat": 35.4714712,
      "lon": -91.2309596,
      "tags": {
        "ele": "67",
        "gnis:feature_id": "58621",
        "name": "Shoffner",
        "place": "hamlet"
      }
    },
    {
      "type": "node",
      "id": 151337831,
      "lat": 35.70897,
      "lon": -93.3446242,
      "tags": {
        "ele": "575",
        "gnis:feature_id": "73382",
        "name": "Rosetta",
        "place": "hamlet"
      }
    },
    {
      "type": "node",
      "id": 151338352,
      "lat": 35.6323045,
      "lon": -93.8340843,
      "tags": {
        "ele": "350",
        "gnis:feature_id": "72996",
        "name": "Paradise",
        "place": "hamlet"
      }
    },
    {
      "type": "node",
      "id": 151338451,
      "lat": 33.1220666,
      "lon": -91.4353951,
      "tags": {
        "ele": "32",
        "gnis:feature_id": "57722",
        "name": "Empire",
        "place": "hamlet"
      }
    },
    {
      "type": "node",
      "id": 151338492,
      "lat": 33.5328899,
      "lon": -91.3753961,
      "tags": {
        "ele": "41",
        "gnis:feature_id": "57869",
        "name": "Halley Junction",
        "place": "hamlet"
      }
    },
    {
      "type": "node",
      "id": 151338510,
      "lat": 35.4870271,
      "lon": -90.4439917,
      "tags": {
        "ele": "66",
        "gnis:feature_id": "58925",
        "name": "Yellow Banks",
        "place": "hamlet"
      }
    },
    {
      "type": "node",
      "id": 151338531,
      "lat": 34.140932,
      "lon": -91.9090249,
      "tags": {
        "ele": "62",
        "gnis:feature_id": "58032",
        "name": "Ladd",
        "place": "hamlet"
      }
    },
    {
      "type": "node",
      "id": 151338540,
      "lat": 35.6125793,
      "lon": -91.3626305,
      "tags": {
        "ele": "69",
        "gnis:feature_id": "58112",
        "name": "Macks",
        "place": "hamlet"
      }
    },
    {
      "type": "node",
      "id": 151338547,
      "lat": 35.8455248,
      "lon": -90.118883,
      "tags": {
        "ele": "73",
        "gnis:feature_id": "58352",
        "name": "Pettyville",
        "place": "hamlet"
      }
    },
    {
      "type": "node",
      "id": 151339084,
      "lat": 34.7620361,
      "lon": -92.4721019,
      "tags": {
        "ele": "161",
        "gnis:feature_id": "82842",
        "name": "Shady Grove",
        "place": "hamlet"
      }
    },
    {
      "type": "node",
      "id": 151339136,
      "lat": 34.4898262,
      "lon": -93.8704743,
      "tags": {
        "ele": "321",
        "gnis:feature_id": "70426",
        "name": "Alf",
        "place": "hamlet"
      }
    },
    {
      "type": "node",
      "id": 151339165,
      "lat": 35.77591,
      "lon": -91.6798622,
      "tags": {
        "ele": "142",
        "gnis:feature_id": "56847",
        "name": "Ruddell Hill",
        "place": "hamlet"
      }
    },
    {
      "type": "node",
      "id": 151339199,
      "lat": 36.3981233,
      "lon": -93.108233,
      "tags": {
        "ele": "307",
        "gnis:feature_id": "57183",
        "name": "Self",
        "place": "hamlet"
      }
    },
    {
      "type": "node",
      "id": 151339207,
      "lat": 36.2378445,
      "lon": -90.9073418,
      "tags": {
        "ele": "81",
        "gnis:feature_id": "57192",
        "name": "Skaggs",
        "place": "hamlet"
      }
    },
    {
      "type": "node",
      "id": 151339214,
      "lat": 34.8364793,
      "lon": -92.2312601,
      "tags": {
        "ele": "119",
        "gnis:feature_id": "58725",
        "name": "Sylvan Hills",
        "place": "hamlet"
      }
    },
    {
      "type": "node",
      "id": 151339247,
      "lat": 36.4642377,
      "lon": -93.8307518,
      "tags": {
        "ele": "339",
        "gnis:feature_id": "57478",
        "name": "Busch",
        "place": "hamlet"
      }
    },
    {
      "type": "node",
      "id": 151339262,
      "lat": 35.7436877,
      "lon": -91.8493111,
      "tags": {
        "ele": "94",
        "gnis:feature_id": "58162",
        "name": "Melrose",
        "place": "hamlet"
      }
    },
    {
      "type": "node",
      "id": 151339268,
      "lat": 35.1628673,
      "lon": -90.8023354,
      "tags": {
        "ele": "76",
        "gnis:feature_id": "61675",
        "name": "Wilkins",
        "place": "hamlet"
      }
    },
    {
      "type": "node",
      "id": 151339284,
      "lat": 33.0975162,
      "lon": -93.1936262,
      "tags": {
        "ele": "98",
        "gnis:feature_id": "48887",
        "name": "Emerson",
        "place": "village",
        "population": "293",
        "population:date": "2020",
        "wikidata": "Q2652915",
        "wikipedia": "en:Emerson, Arkansas"
      }
    },
    {
      "type": "node",
      "id": 151339295,
      "lat": 35.4525824,
      "lon": -91.3198506,
      "tags": {
        "ele": "64",
        "gnis:feature_id": "78426",
        "name": "Spriggs Mill",
        "place": "hamlet"
      }
    },
    {
      "type": "node",
      "id": 151339299,
      "lat": 35.599807,
      "lon": -94.1777064,
      "tags": {
        "ele": "339",
        "gnis:feature_id": "70952",
        "name": "Cain",
        "place": "hamlet"
      }
    },
    {
      "type": "node",
      "id": 151339310,
      "lat": 34.6112044,
      "lon": -92.3195963,
      "tags": {
        "ele": "127",
        "gnis:feature_id": "68352",
        "name": "Landmark",
        "place": "hamlet"
      }
    },
    {
      "type": "node",
      "id": 151339316,
      "lat": 36.0906253,
      "lon": -91.841536,
      "tags": {
        "ele": "238",
        "gnis:feature_id": "77421",
        "int_name": "no longer exists",
        "name": "LaCrosse",
        "place": "hamlet"
      }
    },
    {
      "type": "node",
      "id": 151339323,
      "lat": 35.675359,
      "lon": -93.7049134,
      "tags": {
        "ele": "258",
        "gnis:feature_id": "73027",
        "name": "Peanut",
        "place": "hamlet"
      }
    },
    {
      "type": "node",
      "id": 151339371,
      "lat": 33.6584542,
      "lon": -94.026857,
      "tags": {
        "ele": "95",
        "gnis:feature_id": "57096",
        "name": "Long",
        "place": "hamlet"
      }
    },
    {
      "type": "node",
      "id": 151340142,
      "lat": 35.2328641,
      "lon": -91.483742,
      "tags": {
        "ele": "63",
        "gnis:feature_id": "57125",
        "name": "Mitchell Corner",
        "place": "hamlet"
      }
    },
    {
      "type": "node",
      "id": 151340155,
      "lat": 35.2675809,
      "lon": -92.5576595,
      "tags": {
        "ele": "117",
        "gnis:feature_id": "55130",
        "name": "Springfield",
        "place": "hamlet"
      }
    },
    {
      "type": "node",
      "id": 151340175,
      "lat": 36.3342285,
      "lon": -90.3837152,
      "tags": {
        "ele": "105",
        "gnis:feature_id": "57423",
        "name": "Boydsville",
        "place": "hamlet"
      }
    },
    {
      "type": "node",
      "id": 151340404,
      "lat": 36.3559021,
      "lon": -92.9076719,
      "tags": {
        "ele": "274",
        "gnis:feature_id": "57236",
        "name": "Winington",
        "place": "hamlet"
      }
    },
    {
      "type": "node",
      "id": 151340411,
      "lat": 35.8117423,
      "lon": -91.2223501,
      "tags": {
        "ele": "77",
        "gnis:feature_id": "57534",
        "name": "Centerville",
        "place": "hamlet"
      }
    },
    {
      "type": "node",
      "id": 151340792,
      "lat": 35.9834132,
      "lon": -94.079646,
      "tags": {
        "ele": "392",
        "gnis:feature_id": "56931",
        "name": "Black Oak",
        "place": "hamlet"
      }
    },
    {
      "type": "node",
      "id": 151340800,
      "lat": 34.6570372,
      "lon": -92.3226519,
      "tags": {
        "ele": "77",
        "gnis:feature_id": "56941",
        "name": "Brittain",
        "place": "hamlet"
      }
    },
    {
      "type": "node",
      "id": 151340807,
      "lat": 34.0428891,
      "lon": -93.8412965,
      "tags": {
        "ele": "200",
        "gnis:feature_id": "56969",
        "name": "Corinth",
        "place": "hamlet"
      }
    },
    {
      "type": "node",
      "id": 151340884,
      "lat": 34.9553712,
      "lon": -91.1162334,
      "tags": {
        "ele": "64",
        "gnis:feature_id": "83253",
        "name": "Posey",
        "place": "hamlet"
      }
    },
    {
      "type": "node",
      "id": 151340973,
      "lat": 35.2400936,
      "lon": -94.3268796,
      "tags": {
        "ele": "148",
        "gnis:feature_id": "58302",
        "name": "Old Jenny Lind",
        "place": "hamlet"
      }
    },
    {
      "type": "node",
      "id": 151341044,
      "lat": 35.8939623,
      "lon": -90.7840037,
      "tags": {
        "ele": "119",
        "gnis:feature_id": "64696",
        "name": "Oak Ridge",
        "place": "hamlet"
      }
    },
    {
      "type": "node",
      "id": 151341059,
      "lat": 35.0642554,
      "lon": -91.5837441,
      "tags": {
        "ele": "62",
        "gnis:feature_id": "77369",
        "name": "Jasmine",
        "place": "hamlet"
      }
    },
    {
      "type": "node",
      "id": 151341398,
      "lat": 33.6293427,
      "lon": -91.7912327,
      "tags": {
        "capital": "6",
        "ele": "89",
        "gnis:feature_id": "52144",
        "name": "Monticello",
        "place": "town",
        "population": "9128",
        "population:date": "2006",
        "source:population": "US Census",
        "wikidata": "Q79419",
        "wikipedia": "en:Monticello, Arkansas"
      }
    },
    {
      "type": "node",
      "id": 151341405,
      "lat": 35.7975762,
      "lon": -91.6654176,
      "tags": {
        "ele": "157",
        "gnis:feature_id": "68025",
        "name": "Meadow Heights",
        "place": "hamlet"
      }
    },
    {
      "type": "node",
      "id": 151341417,
      "lat": 35.9934068,
      "lon": -92.5204394,
      "tags": {
        "ele": "273",
        "gnis:feature_id": "77126",
        "name": "Harriet",
        "place": "hamlet"
      }
    },
    {
      "type": "node",
      "id": 151341443,
      "lat": 33.6256678,
      "lon": -92.813218,
      "tags": {
        "ele": "36",
        "gnis:feature_id": "58014",
        "name": "Kent",
        "place": "hamlet"
      }
    },
    {
      "type": "node",
      "id": 151341458,
      "lat": 33.8874667,
      "lon": -91.4898378,
      "tags": {
        "ele": "50",
        "gnis:feature_id": "48697",
        "name": "Dumas",
        "place": "town",
        "population": "4001",
        "population:date": "2020",
        "wikidata": "Q79316",
        "wikipedia": "en:Dumas, Arkansas"
      }
    },
    {
      "type": "node",
      "id": 151341534,
      "lat": 33.5579004,
      "lon": -93.4063842,
      "tags": {
        "ele": "109",
        "gnis:feature_id": "76388",
        "name": "Bodcaw",
        "place": "hamlet",
        "population": "121",
        "population:date": "2020",
        "wikidata": "Q2235594",
        "wikipedia": "en:Bodcaw, Arkansas"
      }
    },
    {
      "type": "node",
      "id": 151341541,
      "lat": 35.5600806,
      "lon": -91.0523439,
      "tags": {
        "ele": "70",
        "gnis:feature_id": "58174",
        "name": "Midway",
        "place": "hamlet"
      }
    },
    {
      "type": "node",
      "id": 151341795,
      "lat": 36.3508983,
      "lon": -90.9954015,
      "tags": {
        "ele": "113",
        "gnis:feature_id": "57287",
        "name": "Attica",
        "place": "hamlet"
      }
    },
    {
      "type": "node",
      "id": 151341808,
      "lat": 33.9731559,
      "lon": -92.8796111,
      "tags": {
        "ele": "60",
        "gnis:feature_id": "57740",
        "name": "Fairview",
        "place": "hamlet"
      }
    },
    {
      "type": "node",
      "id": 151341827,
      "lat": 33.38706,
      "lon": -91.3084484,
      "tags": {
        "ele": "38",
        "gnis:feature_id": "77637",
        "name": "McMillan Corner",
        "place": "hamlet"
      }
    },
    {
      "type": "node",
      "id": 151341833,
      "lat": 36.3339507,
      "lon": -90.4084381,
      "tags": {
        "ele": "92",
        "gnis:feature_id": "62507",
        "name": "Lower Boydsville",
        "place": "hamlet"
      }
    },
    {
      "type": "node",
      "id": 151341841,
      "lat": 35.7770205,
      "lon": -90.8156712,
      "tags": {
        "ele": "77",
        "gnis:feature_id": "57813",
        "name": "Gibson",
        "place": "hamlet"
      }
    },
    {
      "type": "node",
      "id": 151341882,
      "lat": 34.9750943,
      "lon": -90.428156,
      "tags": {
        "ele": "61",
        "gnis:feature_id": "83243",
        "name": "Penjur",
        "place": "hamlet"
      }
    },
    {
      "type": "node",
      "id": 151342349,
      "lat": 33.4023477,
      "lon": -94.0429654,
      "tags": {
        "ele": "100",
        "gnis:feature_id": "1368785",
        "name": "South Texarkana",
        "place": "hamlet"
      }
    },
    {
      "type": "node",
      "id": 151342683,
      "lat": 36.2386782,
      "lon": -91.7276452,
      "tags": {
        "ele": "217",
        "gnis:feature_id": "56985",
        "name": "Day",
        "place": "hamlet"
      }
    },
    {
      "type": "node",
      "id": 151342725,
      "lat": 35.2942517,
      "lon": -91.4912425,
      "tags": {
        "ele": "64",
        "gnis:feature_id": "58917",
        "name": "Worden",
        "place": "hamlet"
      }
    },
    {
      "type": "node",
      "id": 151342793,
      "lat": 33.0551363,
      "lon": -92.6676556,
      "tags": {
        "ele": "57",
        "gnis:feature_id": "59762",
        "name": "New Caledonia",
        "place": "hamlet"
      }
    },
    {
      "type": "node",
      "id": 151342861,
      "lat": 34.6589811,
      "lon": -92.5873836,
      "tags": {
        "ele": "147",
        "gnis:feature_id": "57578",
        "name": "Congo",
        "place": "hamlet"
      }
    },
    {
      "type": "node",
      "id": 151342932,
      "lat": 35.5630897,
      "lon": -91.1097789,
      "tags": {
        "ele": "68",
        "gnis:feature_id": "57262",
        "name": "Amagon",
        "place": "hamlet",
        "population": "69",
        "wikidata": "Q2375863",
        "wikipedia": "en:Amagon, Arkansas"
      }
    },
    {
      "type": "node",
      "id": 151343546,
      "lat": 36.3178769,
      "lon": -93.2043877,
      "tags": {
        "ele": "413",
        "gnis:feature_id": "58489",
        "name": "Ridgeway",
        "place": "hamlet"
      }
    },
    {
      "type": "node",
      "id": 151343864,
      "lat": 34.7825913,
      "lon": -92.4348783,
      "tags": {
        "ele": "136",
        "gnis:feature_id": "68317",
        "name": "Hickory Ridge",
        "place": "hamlet"
      }
    },
    {
      "type": "node",
      "id": 151343870,
      "lat": 35.4318588,
      "lon": -91.8868754,
      "tags": {
        "ele": "168",
        "gnis:feature_id": "56197",
        "name": "West Pangburn",
        "place": "hamlet"
      }
    },
    {
      "type": "node",
      "id": 151343876,
      "lat": 35.9803486,
      "lon": -90.4234373,
      "tags": {
        "ele": "73",
        "gnis:feature_id": "58184",
        "name": "Miller",
        "place": "hamlet"
      }
    },
    {
      "type": "node",
      "id": 151343881,
      "lat": 34.6481557,
      "lon": -90.6398295,
      "tags": {
        "ele": "60",
        "gnis:feature_id": "58358",
        "name": "Phillips Bayou",
        "place": "hamlet"
      }
    },
    {
      "type": "node",
      "id": 151343894,
      "lat": 33.8342828,
      "lon": -93.8099055,
      "tags": {
        "ele": "133",
        "gnis:feature_id": "58923",
        "name": "Yancy",
        "place": "hamlet"
      }
    },
    {
      "type": "node",
      "id": 151343900,
      "lat": 35.4917446,
      "lon": -92.2968212,
      "tags": {
        "ele": "224",
        "gnis:feature_id": "68703",
        "name": "Sulphur Springs",
        "place": "hamlet"
      }
    },
    {
      "type": "node",
      "id": 151343917,
      "lat": 35.4713108,
      "lon": -93.4664819,
      "tags": {
        "capital": "6",
        "ele": "113",
        "gnis:feature_id": "76626",
        "name": "Clarksville",
        "place": "town",
        "population": "9381",
        "population:date": "2020",
        "wikidata": "Q79926",
        "wikipedia": "en:Clarksville, Arkansas"
      }
    },
    {
      "type": "node",
      "id": 151343923,
      "lat": 34.898434,
      "lon": -94.3871623,
      "tags": {
        "ele": "179",
        "gnis:feature_id": "71760",
        "name": "Gipson",
        "place": "hamlet"
      }
    },
    {
      "type": "node",
      "id": 151344351,
      "lat": 34.3362098,
      "lon": -91.4104007,
      "tags": {
        "ele": "61",
        "gnis:feature_id": "53039",
        "name": "Olena",
        "place": "hamlet"
      }
    },
    {
      "type": "node",
      "id": 151344916,
      "lat": 35.850076,
      "lon": -92.5021052,
      "tags": {
        "ele": "493",
        "gnis:feature_id": "57709",
        "name": "Elberta",
        "place": "hamlet"
      }
    },
    {
      "type": "node",
      "id": 151344923,
      "lat": 35.675279,
      "lon": -90.517369,
      "tags": {
        "ele": "69",
        "gnis:feature_id": "78590",
        "name": "Trumann",
        "place": "town",
        "population": "7399",
        "population:date": "2020",
        "wikidata": "Q80104",
        "wikipedia": "en:Trumann, Arkansas"
      }
    },
    {
      "type": "node",
      "id": 151344948,
      "lat": 36.2056243,
      "lon": -92.2320996,
      "tags": {
        "ele": "238",
        "gnis:feature_id": "69387",
        "name": "Hopewell",
        "place": "hamlet"
      }
    },
    {
      "type": "node",
      "id": 151344955,
      "lat": 33.6492828,
      "lon": -94.472983,
      "tags": {
        "ele": "98",
        "gnis:feature_id": "77444",
        "name": "Lanesport",
        "place": "hamlet"
      }
    },
    {
      "type": "node",
      "id": 151344967,
      "lat": 36.3359112,
      "lon": -94.4607707,
      "tags": {
        "ele": "377",
        "gnis:feature_id": "76769",
        "name": "Decatur",
        "place": "village",
        "population": "1619",
        "population:date": "2006",
        "source:population": "US Census"
      }
    },
    {
      "type": "node",
      "id": 151344975,
      "lat": 34.2087122,
      "lon": -91.2467849,
      "tags": {
        "ele": "55",
        "gnis:feature_id": "76779",
        "name": "Deluce",
        "place": "hamlet"
      }
    },
    {
      "type": "node",
      "id": 151344981,
      "lat": 35.8722967,
      "lon": -91.3606876,
      "tags": {
        "ele": "108",
        "gnis:feature_id": "77154",
        "name": "Hazel Grove",
        "place": "hamlet"
      }
    },
    {
      "type": "node",
      "id": 151344985,
      "lat": 34.8695362,
      "lon": -93.2054597,
      "tags": {
        "ele": "173",
        "gnis:feature_id": "65184",
        "name": "Ava",
        "place": "hamlet"
      }
    },
    {
      "type": "node",
      "id": 151344994,
      "lat": 35.1267523,
      "lon": -91.4538758,
      "tags": {
        "ele": "62",
        "gnis:feature_id": "57810",
        "name": "Georgetown",
        "place": "village",
        "population": "129",
        "wikidata": "Q2661270",
        "wikipedia": "en:Georgetown, Arkansas"
      }
    },
    {
      "type": "node",
      "id": 151344999,
      "lat": 35.8159091,
      "lon": -91.7134746,
      "tags": {
        "ele": "119",
        "gnis:feature_id": "58068",
        "name": "Limedale Junction",
        "place": "hamlet"
      }
    },
    {
      "type": "node",
      "id": 151345004,
      "lat": 36.3884058,
      "lon": -93.9068646,
      "tags": {
        "ele": "373",
        "gnis:feature_id": "58088",
        "name": "Lost Bridge Village",
        "place": "hamlet"
      }
    },
    {
      "type": "node",
      "id": 151345015,
      "lat": 36.2592304,
      "lon": -90.1581525,
      "tags": {
        "ele": "81",
        "gnis:feature_id": "82812",
        "name": "Holly Island Community",
        "place": "hamlet"
      }
    },
    {
      "type": "node",
      "id": 151345137,
      "lat": 34.4642565,
      "lon": -93.1337931,
      "tags": {
        "ele": "134",
        "gnis:feature_id": "1866994",
        "name": "Rockwell",
        "place": "hamlet"
      }
    },
    {
      "type": "node",
      "id": 151345453,
      "lat": 35.092974,
      "lon": -93.4477686,
      "tags": {
        "ele": "111",
        "gnis:feature_id": "76294",
        "name": "Belleville",
        "place": "village",
        "population": "441",
        "wikidata": "Q80154",
        "wikipedia": "en:Belleville, Arkansas"
      }
    },
    {
      "type": "node",
      "id": 151345559,
      "lat": 34.5114783,
      "lon": -93.2410211,
      "tags": {
        "ele": "149",
        "gnis:feature_id": "73430",
        "name": "Royal",
        "place": "hamlet"
      }
    },
    {
      "type": "node",
      "id": 151345673,
      "lat": 33.9264908,
      "lon": -92.1612553,
      "tags": {
        "ele": "82",
        "gnis:feature_id": "57210",
        "name": "Toledo",
        "place": "hamlet"
      }
    },
    {
      "type": "node",
      "id": 151345684,
      "lat": 33.464844,
      "lon": -93.5460106,
      "tags": {
        "ele": "82",
        "gnis:feature_id": "57301",
        "name": "Baker",
        "place": "hamlet"
      }
    },
    {
      "type": "node",
      "id": 151345693,
      "lat": 33.9756677,
      "lon": -93.7840712,
      "tags": {
        "ele": "125",
        "gnis:feature_id": "57380",
        "name": "Bingen",
        "place": "hamlet"
      }
    },
    {
      "type": "node",
      "id": 151345817,
      "lat": 34.7054868,
      "lon": -92.2527811,
      "tags": {
        "ele": "113",
        "gnis:feature_id": "57816",
        "name": "Gillam Park",
        "place": "hamlet"
      }
    },
    {
      "type": "node",
      "id": 151345872,
      "lat": 35.6574345,
      "lon": -92.317343,
      "tags": {
        "ele": "168",
        "gnis:feature_id": "54811",
        "name": "Shirley",
        "place": "village",
        "population": "248",
        "population:date": "2020",
        "wikidata": "Q928597",
        "wikipedia": "en:Shirley, Arkansas"
      }
    },
    {
      "type": "node",
      "id": 151345885,
      "lat": 36.1767389,
      "lon": -92.9104487,
      "tags": {
        "ele": "276",
        "gnis:feature_id": "57602",
        "name": "Crawford",
        "place": "hamlet"
      }
    },
    {
      "type": "node",
      "id": 151345891,
      "lat": 36.1436845,
      "lon": -93.1668442,
      "tags": {
        "ele": "416",
        "gnis:feature_id": "57785",
        "name": "Gaither",
        "place": "hamlet"
      }
    },
    {
      "type": "node",
      "id": 151346003,
      "lat": 36.0967344,
      "lon": -90.4834392,
      "tags": {
        "ele": "90",
        "gnis:feature_id": "58787",
        "name": "Unity",
        "place": "hamlet"
      }
    },
    {
      "type": "node",
      "id": 151346028,
      "lat": 34.7012029,
      "lon": -93.0615688,
      "tags": {
        "ele": "220",
        "gnis:feature_id": "72184",
        "name": "Jessieville",
        "place": "hamlet",
        "wikidata": "Q6187869",
        "wikipedia": "en:Jessieville, Arkansas"
      }
    },
    {
      "type": "node",
      "id": 151346036,
      "lat": 36.088403,
      "lon": -90.9278972,
      "tags": {
        "ele": "82",
        "gnis:feature_id": "76795",
        "name": "Dicus",
        "place": "hamlet"
      }
    },
    {
      "type": "node",
      "id": 151346070,
      "lat": 36.4347896,
      "lon": -93.4974092,
      "tags": {
        "ele": "357",
        "gnis:feature_id": "58118",
        "name": "Maple",
        "place": "hamlet"
      }
    },
    {
      "type": "node",
      "id": 151346075,
      "lat": 34.5553778,
      "lon": -90.8584471,
      "tags": {
        "ele": "58",
        "gnis:feature_id": "58119",
        "name": "Maple Corner",
        "place": "hamlet"
      }
    },
    {
      "type": "node",
      "id": 151346084,
      "lat": 33.7676059,
      "lon": -92.3929293,
      "tags": {
        "ele": "78",
        "gnis:feature_id": "61605",
        "name": "Ebenezer",
        "place": "hamlet"
      }
    },
    {
      "type": "node",
      "id": 151346323,
      "lat": 35.3973014,
      "lon": -92.4634906,
      "tags": {
        "ele": "194",
        "gnis:feature_id": "68690",
        "name": "Rabbit Ridge",
        "place": "hamlet"
      }
    },
    {
      "type": "node",
      "id": 151346364,
      "lat": 36.0072988,
      "lon": -93.1346202,
      "tags": {
        "ele": "364",
        "gnis:feature_id": "71633",
        "name": "Flatwoods",
        "place": "hamlet"
      }
    },
    {
      "type": "node",
      "id": 151346415,
      "lat": 35.6745226,
      "lon": -91.0315106,
      "tags": {
        "ele": "72",
        "gnis:feature_id": "58396",
        "name": "Pitts",
        "place": "hamlet"
      }
    },
    {
      "type": "node",
      "id": 151346452,
      "lat": 33.5156672,
      "lon": -92.1904199,
      "tags": {
        "ele": "69",
        "gnis:feature_id": "57011",
        "name": "Farmville",
        "place": "hamlet"
      }
    },
    {
      "type": "node",
      "id": 151346473,
      "lat": 35.0396212,
      "lon": -92.8989476,
      "tags": {
        "ele": "116",
        "gnis:feature_id": "45796",
        "name": "Adona",
        "place": "village",
        "population": "209",
        "wikidata": "Q2233495",
        "wikipedia": "en:Adona, Arkansas"
      }
    },
    {
      "type": "node",
      "id": 151346536,
      "lat": 35.3589708,
      "lon": -92.9593369,
      "tags": {
        "ele": "163",
        "gnis:feature_id": "58285",
        "name": "Oak Grove",
        "place": "hamlet"
      }
    },
    {
      "type": "node",
      "id": 151346554,
      "lat": 34.4456565,
      "lon": -91.000671,
      "tags": {
        "ele": "51",
        "gnis:feature_id": "57606",
        "name": "Creigh",
        "place": "hamlet"
      }
    },
    {
      "type": "node",
      "id": 151346558,
      "lat": 33.1354114,
      "lon": -92.7098801,
      "tags": {
        "ele": "72",
        "gnis:feature_id": "59798",
        "name": "Pickering",
        "place": "hamlet"
      }
    },
    {
      "type": "node",
      "id": 151346568,
      "lat": 35.8442414,
      "lon": -90.9009515,
      "tags": {
        "ele": "75",
        "gnis:feature_id": "58901",
        "name": "Winesburg",
        "place": "hamlet"
      }
    },
    {
      "type": "node",
      "id": 151346954,
      "lat": 33.9228795,
      "lon": -91.9304142,
      "tags": {
        "ele": "80",
        "gnis:feature_id": "77946",
        "name": "Palmyra",
        "place": "hamlet"
      }
    },
    {
      "type": "node",
      "id": 151347261,
      "lat": 35.1159203,
      "lon": -93.0812852,
      "tags": {
        "ele": "103",
        "gnis:feature_id": "77836",
        "name": "New Neely",
        "place": "hamlet",
        "wikidata": "Q7010585",
        "wikipedia": "en:New Neely, Arkansas"
      }
    },
    {
      "type": "node",
      "id": 151347942,
      "lat": 35.5167444,
      "lon": -92.3834895,
      "tags": {
        "ele": "183",
        "gnis:feature_id": "68668",
        "name": "Green Tree",
        "place": "hamlet"
      }
    },
    {
      "type": "node",
      "id": 151348014,
      "lat": 34.5292609,
      "lon": -92.2109816,
      "tags": {
        "ele": "76",
        "gnis:feature_id": "56536",
        "name": "Woodson",
        "place": "hamlet"
      }
    },
    {
      "type": "node",
      "id": 151348033,
      "lat": 33.7198283,
      "lon": -92.1412534,
      "tags": {
        "ele": "58",
        "gnis:feature_id": "57143",
        "name": "Orlando",
        "place": "hamlet"
      }
    },
    {
      "type": "node",
      "id": 151348134,
      "lat": 34.796202,
      "lon": -92.1962587,
      "tags": {
        "ele": "83",
        "gnis:feature_id": "57409",
        "name": "Booker",
        "place": "hamlet"
      }
    },
    {
      "type": "node",
      "id": 151348171,
      "lat": 34.5389846,
      "lon": -91.6617976,
      "tags": {
        "ele": "61",
        "gnis:feature_id": "47035",
        "name": "Brummitt",
        "place": "hamlet"
      }
    },
    {
      "type": "node",
      "id": 151348177,
      "lat": 35.5484146,
      "lon": -90.3348216,
      "tags": {
        "ele": "66",
        "gnis:feature_id": "57777",
        "name": "Frys Mill",
        "place": "hamlet"
      }
    },
    {
      "type": "node",
      "id": 151348185,
      "lat": 34.6550928,
      "lon": -92.3865432,
      "tags": {
        "ele": "98",
        "gnis:feature_id": "77568",
        "name": "Mabelvale",
        "place": "hamlet",
        "wikidata": "Q6721558"
      }
    },
    {
      "type": "node",
      "id": 151348196,
      "lat": 36.2920142,
      "lon": -93.1815677,
      "tags": {
        "ele": "337",
        "gnis:feature_id": "69288",
        "name": "Francis",
        "place": "hamlet"
      }
    },
    {
      "type": "node",
      "id": 151348212,
      "lat": 34.3437078,
      "lon": -91.9020809,
      "tags": {
        "ele": "64",
        "gnis:feature_id": "76872",
        "name": "Ellison",
        "place": "hamlet"
      }
    },
    {
      "type": "node",
      "id": 151348549,
      "lat": 35.9650798,
      "lon": -94.0504784,
      "tags": {
        "ele": "414",
        "gnis:feature_id": "78490",
        "name": "Sulphur City",
        "place": "hamlet"
      }
    },
    {
      "type": "node",
      "id": 151348553,
      "lat": 35.8709084,
      "lon": -92.3171009,
      "tags": {
        "ele": "260",
        "gnis:feature_id": "78559",
        "name": "Timbo",
        "place": "hamlet"
      }
    },
    {
      "type": "node",
      "id": 151348569,
      "lat": 34.7292588,
      "lon": -92.4734908,
      "tags": {
        "ele": "152",
        "gnis:feature_id": "58130",
        "name": "Martindale",
        "place": "hamlet"
      }
    },
    {
      "type": "node",
      "id": 151348580,
      "lat": 33.05179,
      "lon": -91.3181692,
      "tags": {
        "ele": "35",
        "gnis:feature_id": "61778",
        "name": "Wellford",
        "place": "hamlet"
      }
    },
    {
      "type": "node",
      "id": 151348591,
      "lat": 36.308407,
      "lon": -93.904364,
      "tags": {
        "ele": "386",
        "gnis:feature_id": "75985",
        "name": "Rambo Riviera",
        "place": "hamlet"
      }
    },
    {
      "type": "node",
      "id": 151349247,
      "lat": 36.3925675,
      "lon": -93.3149048,
      "tags": {
        "ele": "312",
        "gnis:feature_id": "48479",
        "name": "Denver",
        "place": "hamlet"
      }
    },
    {
      "type": "node",
      "id": 151349290,
      "lat": 36.3967317,
      "lon": -91.9826515,
      "tags": {
        "ele": "261",
        "gnis:feature_id": "58806",
        "name": "Viola",
        "place": "village",
        "population": "388",
        "population:date": "2006",
        "source:population": "US Census"
      }
    },
    {
      "type": "node",
      "id": 151349308,
      "lat": 35.2667603,
      "lon": -94.3785477,
      "tags": {
        "ele": "176",
        "gnis:feature_id": "56694",
        "name": "White Bluff",
        "place": "hamlet"
      }
    },
    {
      "type": "node",
      "id": 151349312,
      "lat": 33.9551039,
      "lon": -93.2898951,
      "tags": {
        "ele": "79",
        "gnis:feature_id": "76472",
        "name": "Burtsell",
        "place": "hamlet",
        "wikidata": "Q122554195"
      }
    },
    {
      "type": "node",
      "id": 151349320,
      "lat": 35.2986938,
      "lon": -92.0518141,
      "tags": {
        "ele": "222",
        "gnis:feature_id": "77136",
        "name": "Hart",
        "place": "hamlet"
      }
    },
    {
      "type": "node",
      "id": 151349325,
      "lat": 35.1486968,
      "lon": -92.9971159,
      "tags": {
        "ele": "92",
        "gnis:feature_id": "57235",
        "name": "Whitehall",
        "place": "hamlet"
      }
    },
    {
      "type": "node",
      "id": 151349330,
      "lat": 35.7914651,
      "lon": -91.7884764,
      "tags": {
        "ele": "196",
        "gnis:feature_id": "57367",
        "name": "Bethesda",
        "place": "hamlet"
      }
    },
    {
      "type": "node",
      "id": 151349335,
      "lat": 36.3225657,
      "lon": -91.9576507,
      "tags": {
        "ele": "276",
        "gnis:feature_id": "47257",
        "name": "Byron",
        "place": "hamlet"
      }
    },
    {
      "type": "node",
      "id": 151349339,
      "lat": 36.3320084,
      "lon": -90.7598383,
      "tags": {
        "ele": "87",
        "gnis:feature_id": "70190",
        "name": "Old Reyno",
        "place": "hamlet"
      }
    },
    {
      "type": "node",
      "id": 151349348,
      "lat": 33.2395635,
      "lon": -91.9620772,
      "tags": {
        "ele": "45",
        "gnis:feature_id": "78116",
        "name": "Pugh",
        "place": "hamlet"
      }
    },
    {
      "type": "node",
      "id": 151349352,
      "lat": 34.7509252,
      "lon": -92.4293225,
      "tags": {
        "ele": "149",
        "gnis:feature_id": "68451",
        "name": "Parkway Place",
        "place": "hamlet"
      }
    },
    {
      "type": "node",
      "id": 151349820,
      "lat": 35.569201,
      "lon": -90.0445018,
      "tags": {
        "ele": "73",
        "gnis:feature_id": "58899",
        "name": "Wilson",
        "place": "village",
        "population": "766",
        "wikidata": "Q2254974",
        "wikipedia": "en:Wilson, Arkansas"
      }
    },
    {
      "type": "node",
      "id": 151349827,
      "lat": 35.7081364,
      "lon": -93.188787,
      "tags": {
        "ele": "571",
        "gnis:feature_id": "71389",
        "name": "Dillen",
        "place": "hamlet"
      }
    },
    {
      "type": "node",
      "id": 151349846,
      "lat": 34.173154,
      "lon": -91.8543007,
      "tags": {
        "ele": "62",
        "gnis:feature_id": "77853",
        "name": "Noble Lake",
        "place": "hamlet"
      }
    },
    {
      "type": "node",
      "id": 151349890,
      "lat": 35.6781337,
      "lon": -91.0276216,
      "tags": {
        "ele": "72",
        "gnis:feature_id": "52834",
        "name": "North Pitts",
        "place": "hamlet"
      }
    },
    {
      "type": "node",
      "id": 151350411,
      "lat": 33.570388,
      "lon": -91.6970722,
      "tags": {
        "ele": "60",
        "gnis:feature_id": "71351",
        "name": "Deane",
        "place": "hamlet"
      }
    },
    {
      "type": "node",
      "id": 151350465,
      "lat": 33.225189,
      "lon": -91.126853,
      "tags": {
        "ele": "37",
        "gnis:feature_id": "58037",
        "name": "Lakeport",
        "place": "hamlet"
      }
    },
    {
      "type": "node",
      "id": 151350495,
      "lat": 33.5171845,
      "lon": -93.2986922,
      "tags": {
        "ele": "110",
        "gnis:feature_id": "56411",
        "name": "Willisville",
        "place": "hamlet",
        "population": "148",
        "wikidata": "Q2580619",
        "wikipedia": "en:Willisville, Arkansas"
      }
    },
    {
      "type": "node",
      "id": 151350524,
      "lat": 35.7084156,
      "lon": -94.1315929,
      "tags": {
        "ele": "500",
        "gnis:feature_id": "65724",
        "name": "Maddux Spring",
        "place": "hamlet"
      }
    },
    {
      "type": "node",
      "id": 151350529,
      "lat": 36.4570064,
      "lon": -90.8415095,
      "tags": {
        "ele": "129",
        "gnis:feature_id": "58715",
        "name": "Supply",
        "place": "hamlet"
      }
    },
    {
      "type": "node",
      "id": 151350534,
      "lat": 34.9403671,
      "lon": -92.8951706,
      "tags": {
        "ele": "102",
        "gnis:feature_id": "73226",
        "name": "Ragsdale",
        "place": "hamlet"
      }
    },
    {
      "type": "node",
      "id": 151350539,
      "lat": 35.7584134,
      "lon": -93.8876959,
      "tags": {
        "ele": "724",
        "gnis:feature_id": "77763",
        "name": "Mountain Crest",
        "place": "hamlet"
      }
    },
    {
      "type": "node",
      "id": 151350545,
      "lat": 35.4212003,
      "lon": -94.2943776,
      "tags": {
        "ele": "161",
        "gnis:feature_id": "58286",
        "name": "Oak Grove",
        "place": "hamlet"
      }
    },
    {
      "type": "node",
      "id": 151350551,
      "lat": 35.2676162,
      "lon": -90.5550872,
      "tags": {
        "ele": "63",
        "gnis:feature_id": "58329",
        "name": "Parkin",
        "place": "village",
        "population": "794",
        "wikidata": "Q79274",
        "wikipedia": "en:Parkin, Arkansas"
      }
    },
    {
      "type": "node",
      "id": 151350558,
      "lat": 35.112031,
      "lon": -93.01045,
      "tags": {
        "ele": "98",
        "gnis:feature_id": "58437",
        "name": "Pontoon",
        "place": "hamlet"
      }
    },
    {
      "type": "node",
      "id": 151350563,
      "lat": 34.7684249,
      "lon": -92.3098735,
      "tags": {
        "ele": "79",
        "gnis:feature_id": "58443",
        "name": "Pulaski",
        "place": "hamlet"
      }
    },
    {
      "type": "node",
      "id": 151350572,
      "lat": 34.4959375,
      "lon": -93.8835304,
      "tags": {
        "ele": "293",
        "gnis:feature_id": "78948",
        "name": "Sulphur Springs",
        "place": "hamlet"
      }
    },
    {
      "type": "node",
      "id": 151350999,
      "lat": 35.9047959,
      "lon": -91.6351399,
      "tags": {
        "ele": "125",
        "gnis:feature_id": "54561",
        "name": "Sandtown",
        "place": "hamlet"
      }
    },
    {
      "type": "node",
      "id": 151351105,
      "lat": 35.5303908,
      "lon": -90.417473,
      "tags": {
        "ele": "67",
        "gnis:feature_id": "58125",
        "name": "Marked Tree",
        "place": "town",
        "population": "2286",
        "population:date": "2020",
        "wikidata": "Q1846944",
        "wikipedia": "en:Marked Tree, Arkansas"
      }
    },
    {
      "type": "node",
      "id": 151351115,
      "lat": 34.1737218,
      "lon": -94.018527,
      "tags": {
        "ele": "208",
        "gnis:feature_id": "57730",
        "name": "Euclid",
        "place": "hamlet"
      }
    },
    {
      "type": "node",
      "id": 151351120,
      "lat": 35.6278551,
      "lon": -92.2398761,
      "tags": {
        "ele": "368",
        "gnis:feature_id": "58331",
        "name": "Partain",
        "place": "hamlet"
      }
    },
    {
      "type": "node",
      "id": 151351173,
      "lat": 36.2133418,
      "lon": -93.4856523,
      "tags": {
        "ele": "441",
        "gnis:feature_id": "78226",
        "name": "Rudd",
        "place": "hamlet"
      }
    },
    {
      "type": "node",
      "id": 151351178,
      "lat": 35.2664762,
      "lon": -90.4814921,
      "tags": {
        "ele": "66",
        "gnis:feature_id": "58603",
        "name": "Shannonville",
        "place": "hamlet"
      }
    },
    {
      "type": "node",
      "id": 151351181,
      "lat": 36.4946025,
      "lon": -91.5428211,
      "tags": {
        "ele": "161",
        "gnis:feature_id": "77585",
        "name": "Mammoth Spring",
        "place": "village",
        "population": "929",
        "wikidata": "Q79517",
        "wikipedia": "en:Mammoth Spring, Arkansas"
      }
    },
    {
      "type": "node",
      "id": 151351194,
      "lat": 33.3834493,
      "lon": -92.1509721,
      "tags": {
        "ele": "49",
        "gnis:feature_id": "77272",
        "name": "Ingalls",
        "place": "hamlet"
      }
    },
    {
      "type": "node",
      "id": 151351204,
      "lat": 33.9531697,
      "lon": -94.4363189,
      "tags": {
        "ele": "95",
        "gnis:feature_id": "74078",
        "name": "West Otis",
        "place": "hamlet"
      }
    },
    {
      "type": "node",
      "id": 151351262,
      "lat": 35.0303648,
      "lon": -91.950421,
      "tags": {
        "ele": "74",
        "gnis:feature_id": "56036",
        "name": "Ward",
        "place": "village",
        "population": "3508",
        "population:date": "2006",
        "source:population": "US Census"
      }
    },
    {
      "type": "node",
      "id": 151351265,
      "lat": 34.1145405,
      "lon": -92.9404482,
      "tags": {
        "ele": "86",
        "gnis:feature_id": "50655",
        "name": "Joan",
        "place": "hamlet"
      }
    },
    {
      "type": "node",
      "id": 151351270,
      "lat": 36.2189606,
      "lon": -93.0807313,
      "tags": {
        "ele": "349",
        "gnis:feature_id": "69270",
        "name": "Chapman",
        "place": "hamlet"
      }
    },
    {
      "type": "node",
      "id": 151351278,
      "lat": 33.8898365,
      "lon": -93.7726819,
      "tags": {
        "ele": "124",
        "gnis:feature_id": "57559",
        "name": "Clow",
        "place": "hamlet"
      }
    },
    {
      "type": "node",
      "id": 151351285,
      "lat": 34.9903652,
      "lon": -92.0551458,
      "tags": {
        "ele": "93",
        "gnis:feature_id": "61243",
        "name": "Deer Creek Subdivision",
        "place": "hamlet"
      }
    },
    {
      "type": "node",
      "id": 151351401,
      "lat": 33.5380207,
      "lon": -92.4668693,
      "tags": {
        "capital": "6",
        "ele": "61",
        "gnis:feature_id": "49808",
        "name": "Hampton",
        "place": "village",
        "population": "1324",
        "wikidata": "Q79332",
        "wikipedia": "en:Hampton, Arkansas"
      }
    },
    {
      "type": "node",
      "id": 151351667,
      "lat": 33.1156879,
      "lon": -93.5126746,
      "tags": {
        "ele": "73",
        "gnis:feature_id": "62493",
        "name": "Walker Creek",
        "place": "hamlet"
      }
    },
    {
      "type": "node",
      "id": 151351673,
      "lat": 35.8061884,
      "lon": -92.7840556,
      "tags": {
        "ele": "298",
        "gnis:feature_id": "59396",
        "name": "Bohannon",
        "place": "hamlet"
      }
    },
    {
      "type": "node",
      "id": 151351688,
      "lat": 35.2083972,
      "lon": -90.5601042,
      "tags": {
        "ele": "63",
        "gnis:feature_id": "57690",
        "name": "Duvall",
        "place": "hamlet"
      }
    },
    {
      "type": "node",
      "id": 151351695,
      "lat": 36.0309099,
      "lon": -93.25629,
      "tags": {
        "ele": "641",
        "gnis:feature_id": "77743",
        "name": "Mount Sherman",
        "place": "hamlet"
      }
    },
    {
      "type": "node",
      "id": 151351715,
      "lat": 33.0953302,
      "lon": -92.2699733,
      "tags": {
        "ele": "37",
        "gnis:feature_id": "77448",
        "name": "Lapile",
        "place": "hamlet"
      }
    },
    {
      "type": "node",
      "id": 151351773,
      "lat": 35.541469,
      "lon": -91.4959667,
      "tags": {
        "ele": "155",
        "gnis:feature_id": "57298",
        "name": "Bailey",
        "place": "hamlet"
      }
    },
    {
      "type": "node",
      "id": 151351782,
      "lat": 36.107287,
      "lon": -93.7135439,
      "tags": {
        "ele": "433",
        "gnis:feature_id": "57887",
        "name": "Harmony",
        "place": "hamlet"
      }
    },
    {
      "type": "node",
      "id": 151351791,
      "lat": 33.1656769,
      "lon": -91.9415204,
      "tags": {
        "ele": "46",
        "gnis:feature_id": "58274",
        "name": "North Crossett",
        "place": "village",
        "population": "2756",
        "population:date": "2020",
        "wikidata": "Q263438",
        "wikipedia": "en:North Crossett, Arkansas"
      }
    },