{
  "version": 0.6,
  "generator": "Overpass API 0.7.62.5 1bd436f1",
  "osm3s": {
    "timestamp_osm_base": "2025-04-08T18:44:27Z",
    "timestamp_areas_base": "2025-02-06T02:17:44Z",
    "copyright": "The data included in this document is from www.openstreetmap.org. The data is made available under ODbL."
  },
  "elements": [
    {
      "type": "node",
      "id": 151321634,
      "lat": 46.76192,
      "lon": -97.55593,
      "tags": {
        "ele": "345",
        "gnis:feature_id": "1027669",
        "name": "Alice",
        "place": "village",
        "population": "49",
        "population:date": "2006",
        "source:population": "US Census",
        "wikidata": "Q28121",
        "wikipedia": "en:Alice, North Dakota"
      }
    },
    {
      "type": "node",
      "id": 151322967,
      "lat": 47.7466686,
      "lon": -99.3867909,
      "tags": {
        "ele": "472",
        "gnis:feature_id": "1033835",
        "name": "Bremen",
        "place": "hamlet",
        "population": "59",
        "population:date": "2006",
        "source:population": "US Census"
      }
    },
    {
      "type": "node",
      "id": 151322979,
      "lat": 47.9252104,
      "lon": -97.0306325,
      "tags": {
        "capital": "6",
        "ele": "253",
        "gnis:feature_id": "1029197",
        "name": "Grand Forks",
        "name:en": "Grand Forks",
        "name:ru": "Гранд-Форкс",
        "name:sr": "Гранд Форкс",
        "name:uk": "Гранд-Форкс",
        "name:zh": "大福克斯",
        "place": "city",
        "population": "50372",
        "population:date": "2006",
        "source:population": "US Census",
        "wikidata": "Q34144",
        "wikipedia": "en:Grand Forks, North Dakota"
      }
    },
    {
      "type": "node",
      "id": 151322989,
      "lat": 48.267787,
      "lon": -100.842644,
      "tags": {
        "ele": "460",
        "gnis:feature_id": "1029218",
        "name": "Granville",
        "name:zh": "加连威老道",
        "place": "village",
        "population": "251",
        "population:date": "2006",
        "source:population": "US Census",
        "wikidata": "Q2322138",
        "wikipedia": "en:Granville, North Dakota"
      }
    },
    {
      "type": "node",
      "id": 151323109,
      "lat": 46.069681,
      "lon": -96.901748,
      "tags": {
        "ele": "326",
        "gnis:feature_id": "1034907",
        "name": "Hankinson",
        "place": "town",
        "population": "1018",
        "population:date": "2006",
        "source:population": "US Census",
        "wikidata": "Q2278238"
      }
    },
    {
      "type": "node",
      "id": 151323345,
      "lat": 46.9322011,
      "lon": -97.9131563,
      "tags": {
        "ele": "427",
        "gnis:feature_id": "1033898",
        "name": "Peak",
        "place": "hamlet"
      }
    },
    {
      "type": "node",
      "id": 151323350,
      "lat": 47.158748,
      "lon": -100.786644,
      "tags": {
        "ele": "662",
        "gnis:feature_id": "1036350",
        "name": "Wilton",
        "place": "village",
        "population": "509",
        "population:date": "2006",
        "source:population": "US Census",
        "wikidata": "Q2068677",
        "wikipedia": "en:Wilton, North Dakota"
      }
    },
    {
      "type": "node",
      "id": 151323363,
      "lat": 48.012765,
      "lon": -97.3634154,
      "tags": {
        "ele": "262",
        "gnis:feature_id": "1030186",
        "name": "Mekinock",
        "place": "village",
        "population": "2152",
        "population:date": "2020",
        "wikidata": "Q6810578",
        "wikipedia": "en:Mekinock, North Dakota"
      }
    },
    {
      "type": "node",
      "id": 151323614,
      "lat": 46.3652816,
      "lon": -102.1551577,
      "tags": {
        "ele": "726",
        "gnis:feature_id": "1028207",
        "name": "Burt",
        "place": "hamlet"
      }
    },
    {
      "type": "node",
      "id": 151324152,
      "lat": 47.953346,
      "lon": -102.134892,
      "tags": {
        "ele": "589",
        "gnis:feature_id": "1030639",
        "name": "Parshall",
        "name:en": "Parshall",
        "name:hid": "dibiarugareesh",
        "name:zh": "巴歇尔",
        "place": "village",
        "population": "1028",
        "population:date": "2006",
        "source:population": "US Census",
        "wikidata": "Q2310217",
        "wikipedia": "en:Parshall, North Dakota"
      }
    },
    {
      "type": "node",
      "id": 151324160,
      "lat": 48.3361249,
      "lon": -100.9557048,
      "tags": {
        "ele": "464",
        "gnis:feature_id": "1033907",
        "name": "Rising",
        "place": "hamlet"
      }
    },
    {
      "type": "node",
      "id": 151324401,
      "lat": 48.9498631,
      "lon": -103.6227088,
      "tags": {
        "ele": "648",
        "gnis:feature_id": "1028422",
        "name": "Colgan",
        "place": "hamlet"
      }
    },
    {
      "type": "node",
      "id": 151324675,
      "lat": 46.3288597,
      "lon": -99.0956648,
      "tags": {
        "ele": "627",
        "gnis:feature_id": "1029046",
        "name": "Fredonia",
        "place": "hamlet",
        "population": "45",
        "population:date": "2006",
        "source:population": "US Census",
        "wikidata": "Q2315752",
        "wikipedia": "en:Fredonia, North Dakota"
      }
    },
    {
      "type": "node",
      "id": 151324734,
      "lat": 48.96913,
      "lon": -97.248351,
      "tags": {
        "ele": "237",
        "gnis:feature_id": "1030666",
        "name": "Pembina",
        "name:zh": "彭比纳",
        "place": "village",
        "population": "590",
        "population:date": "2006",
        "source:population": "US Census",
        "wikidata": "Q2087860",
        "wikipedia": "en:Pembina, North Dakota"
      }
    },
    {
      "type": "node",
      "id": 151325020,
      "lat": 47.3230344,
      "lon": -97.0295296,
      "tags": {
        "ele": "275",
        "gnis:feature_id": "1029725",
        "name": "Kelso",
        "place": "hamlet",
        "population": "87",
        "population:date": "2006",
        "source:population": "US Census"
      }
    },
    {
      "type": "node",
      "id": 151325490,
      "lat": 47.807797,
      "lon": -103.441027,
      "tags": {
        "ele": "687",
        "gnis:feature_id": "1027736",
        "name": "Arnegard",
        "name:zh": "阿纳加德",
        "place": "village",
        "population": "282",
        "wikidata": "Q1884160",
        "wikipedia": "en:Arnegard, North Dakota"
      }
    },
    {
      "type": "node",
      "id": 151326127,
      "lat": 48.05612,
      "lon": -100.929317,
      "tags": {
        "ele": "461",
        "gnis:feature_id": "1032637",
        "name": "Velva",
        "name:zh": "韦尔瓦",
        "place": "village",
        "population": "951",
        "population:date": "2006",
        "source:population": "US Census",
        "wikidata": "Q2278261",
        "wikipedia": "en:Velva, North Dakota"
      }
    },
    {
      "type": "node",
      "id": 151326334,
      "lat": 47.485831,
      "lon": -100.443184,
      "tags": {
        "capital": "6",
        "ele": "586",
        "gnis:feature_id": "1030134",
        "name": "McClusky",
        "name:zh": "麦克拉斯基",
        "place": "town",
        "population": "337",
        "population:date": "2006",
        "source:population": "US Census",
        "wikidata": "Q544128",
        "wikipedia": "en:McClusky, North Dakota"
      }
    },
    {
      "type": "node",
      "id": 151327118,
      "lat": 48.7902841,
      "lon": -99.2462492,
      "tags": {
        "ele": "471",
        "gnis:feature_id": "1037265",
        "name": "Rock Lake",
        "name:zh": "罗克莱克",
        "place": "hamlet",
        "population": "21",
        "population:date": "2006",
        "source:population": "US Census",
        "wikidata": "Q514811",
        "wikipedia": "en:Rocklake, North Dakota"
      }
    },
    {
      "type": "node",
      "id": 151327123,
      "lat": 46.265879,
      "lon": -96.608863,
      "tags": {
        "capital": "6",
        "ele": "294",
        "gnis:feature_id": "1033621",
        "name": "Wahpeton",
        "place": "town",
        "population": "7907",
        "population:date": "2006",
        "source:population": "US Census",
        "wikidata": "Q1996092",
        "wikipedia": "en:Wahpeton, North Dakota"
      }
    },
    {
      "type": "node",
      "id": 151327709,
      "lat": 46.3410794,
      "lon": -98.1939888,
      "tags": {
        "ele": "427",
        "gnis:feature_id": "1033646",
        "name": "Independence",
        "place": "hamlet"
      }
    },
    {
      "type": "node",
      "id": 151327759,
      "lat": 47.4602767,
      "lon": -99.2762264,
      "tags": {
        "ele": "488",
        "gnis:feature_id": "1033748",
        "name": "Dover",
        "place": "hamlet"
      }
    },
    {
      "type": "node",
      "id": 151327832,
      "lat": 48.4164142,
      "lon": -103.8385379,
      "tags": {
        "ele": "731",
        "gnis:feature_id": "1028076",
        "name": "Bonetraill",
        "place": "hamlet",
        "population": "25",
        "population:date": "2006",
        "source:population": "US Census"
      }
    },
    {
      "type": "node",
      "id": 151327842,
      "lat": 47.1486257,
      "lon": -103.307405,
      "tags": {
        "ele": "838",
        "gnis:feature_id": "1034889",
        "name": "Gorham",
        "place": "hamlet"
      }
    },
    {
      "type": "node",
      "id": 151328560,
      "lat": 47.4416567,
      "lon": -97.8150938,
      "tags": {
        "ele": "427",
        "gnis:feature_id": "1033785",
        "name": "Pickert",
        "place": "hamlet"
      }
    },
    {
      "type": "node",
      "id": 151328878,
      "lat": 47.9247214,
      "lon": -98.8162234,
      "tags": {
        "ele": "460",
        "gnis:feature_id": "1032494",
        "name": "Tokio",
        "place": "hamlet"
      }
    },
    {
      "type": "node",
      "id": 151328934,
      "lat": 46.6177484,
      "lon": -97.3712032,
      "tags": {
        "ele": "325",
        "gnis:feature_id": "1034795",
        "name": "Coburn",
        "place": "hamlet",
        "population": "54",
        "population:date": "2006",
        "source:population": "US Census"
      }
    },
    {
      "type": "node",
      "id": 151328943,
      "lat": 47.1597055,
      "lon": -97.5712038,
      "tags": {
        "ele": "359",
        "gnis:feature_id": "1030614",
        "name": "Page",
        "place": "village",
        "population": "202",
        "population:date": "2006",
        "source:population": "US Census",
        "wikidata": "Q1022777",
        "wikipedia": "en:Page, North Dakota"
      }
    },
    {
      "type": "node",
      "id": 151328949,
      "lat": 46.9491684,
      "lon": -101.5818146,
      "tags": {
        "ele": "661",
        "gnis:feature_id": "1028058",
        "name": "Bluegrass",
        "place": "hamlet"
      }
    },
    {
      "type": "node",
      "id": 151329754,
      "lat": 46.0085815,
      "lon": -98.1253803,
      "tags": {
        "ele": "397",
        "gnis:feature_id": "1030039",
        "name": "Ludden",
        "place": "hamlet",
        "population": "27",
        "population:date": "2006",
        "source:population": "US Census",
        "wikidata": "Q2217324",
        "wikipedia": "en:Ludden, North Dakota"
      }
    },
    {
      "type": "node",
      "id": 151330383,
      "lat": 48.8514581,
      "lon": -98.9375696,
      "tags": {
        "ele": "493",
        "gnis:feature_id": "1028245",
        "name": "Calvin",
        "name:zh": "卡尔文",
        "place": "hamlet",
        "population": "22",
        "population:date": "2006",
        "source:population": "US Census",
        "wikidata": "Q2447220",
        "wikipedia": "en:Calvin, North Dakota"
      }
    },
    {
      "type": "node",
      "id": 151330411,
      "lat": 46.9005626,
      "lon": -102.0454416,
      "tags": {
        "ele": "660",
        "gnis:feature_id": "1029380",
        "name": "Hebron",
        "place": "village",
        "population": "749",
        "population:date": "2006",
        "source:population": "US Census",
        "wikidata": "Q28131",
        "wikipedia": "en:Hebron, North Dakota"
      }
    },
    {
      "type": "node",
      "id": 151330686,
      "lat": 47.140824,
      "lon": -100.279002,
      "tags": {
        "ele": "580",
        "gnis:feature_id": "1032845",
        "name": "Wing",
        "place": "village",
        "population": "117",
        "population:date": "2006",
        "source:population": "US Census",
        "wikidata": "Q2005604",
        "wikipedia": "en:Wing, North Dakota"
      }
    },
    {
      "type": "node",
      "id": 151330760,
      "lat": 47.9516711,
      "lon": -100.5345865,
      "tags": {
        "ele": "492",
        "gnis:feature_id": "1027800",
        "name": "Balfour",
        "name:zh": "贝尔福",
        "place": "hamlet",
        "population": "18",
        "population:date": "2006",
        "source:population": "US Census",
        "wikidata": "Q2191610",
        "wikipedia": "en:Balfour, North Dakota"
      }
    },
    {
      "type": "node",
      "id": 151330904,
      "lat": 47.3480408,
      "lon": -97.4106449,
      "tags": {
        "ele": "322",
        "gnis:feature_id": "1028396",
        "name": "Clifford",
        "place": "hamlet",
        "population": "50",
        "population:date": "2006",
        "source:population": "US Census",
        "wikidata": "Q1907401",
        "wikipedia": "en:Clifford, North Dakota"
      }
    },
    {
      "type": "node",
      "id": 151330963,
      "lat": 47.353624,
      "lon": -102.620462,
      "tags": {
        "ele": "667",
        "gnis:feature_id": "1028746",
        "name": "Dunn Center",
        "place": "village",
        "population": "117",
        "population:date": "2006",
        "source:population": "US Census",
        "wikidata": "Q518947",
        "wikipedia": "en:Dunn Center, North Dakota"
      }
    },
    {
      "type": "node",
      "id": 151331652,
      "lat": 48.6186362,
      "lon": -102.1126638,
      "tags": {
        "ele": "625",
        "gnis:feature_id": "1029728",
        "name": "Kenaston",
        "place": "hamlet"
      }
    },
    {
      "type": "node",
      "id": 151332032,
      "lat": 45.9646813,
      "lon": -96.6903515,
      "tags": {
        "ele": "313",
        "gnis:feature_id": "1029789",
        "name": "La Mars",
        "place": "hamlet"
      }
    },
    {
      "type": "node",
      "id": 151332365,
      "lat": 46.6777529,
      "lon": -97.8103807,
      "tags": {
        "ele": "408",
        "gnis:feature_id": "1030421",
        "name": "Nome",
        "place": "hamlet",
        "population": "65",
        "population:date": "2006",
        "source:population": "US Census",
        "wikidata": "Q28413",
        "wikipedia": "en:Nome, North Dakota"
      }
    },
    {
      "type": "node",
      "id": 151332372,
      "lat": 48.5824988,
      "lon": -98.230665,
      "tags": {
        "ele": "503",
        "gnis:feature_id": "1037270",
        "name": "Hove Mobile Park",
        "place": "hamlet"
      }
    },
    {
      "type": "node",
      "id": 151332396,
      "lat": 48.1508349,
      "lon": -99.3943015,
      "tags": {
        "ele": "476",
        "gnis:feature_id": "1033743",
        "name": "Comstock",
        "place": "hamlet"
      }
    },
    {
      "type": "node",
      "id": 151332404,
      "lat": 47.0933121,
      "lon": -97.3845333,
      "tags": {
        "ele": "339",
        "gnis:feature_id": "1033757",
        "name": "Erie Junction",
        "place": "hamlet"
      }
    },
    {
      "type": "node",
      "id": 151333489,
      "lat": 47.4502759,
      "lon": -99.8201206,
      "tags": {
        "ele": "569",
        "gnis:feature_id": "1028349",
        "name": "Chaseley",
        "place": "hamlet",
        "population": "48",
        "population:date": "2006",
        "source:population": "US Census"
      }
    },
    {
      "type": "node",
      "id": 151334136,
      "lat": 48.1513804,
      "lon": -97.6442523,
      "tags": {
        "ele": "314",
        "gnis:feature_id": "1029619",
        "name": "Inkster",
        "name:zh": "英克斯特",
        "place": "hamlet",
        "population": "94",
        "population:date": "2006",
        "source:population": "US Census",
        "wikidata": "Q2315713",
        "wikipedia": "en:Inkster, North Dakota"
      }
    },
    {
      "type": "node",
      "id": 151334194,
      "lat": 47.30612,
      "lon": -102.204342,
      "tags": {
        "ele": "609",
        "gnis:feature_id": "1028693",
        "name": "Dodge",
        "place": "village",
        "population": "124",
        "population:date": "2006",
        "source:population": "US Census",
        "wikidata": "Q2178399",
        "wikipedia": "en:Dodge, North Dakota"
      }
    },
    {
      "type": "node",
      "id": 151334642,
      "lat": 48.7063905,
      "lon": -100.3551371,
      "tags": {
        "ele": "461",
        "gnis:feature_id": "1030570",
        "name": "Omemee",
        "place": "hamlet"
      }
    },
    {
      "type": "node",
      "id": 151334660,
      "lat": 48.3994611,
      "lon": -101.8204403,
      "tags": {
        "ele": "634",
        "gnis:feature_id": "1029326",
        "name": "Hartland",
        "place": "hamlet"
      }
    },
    {
      "type": "node",
      "id": 151334779,
      "lat": 47.444181,
      "lon": -102.8910204,
      "tags": {
        "ele": "971",
        "gnis:feature_id": "1033880",
        "name": "Medicine Hole",
        "place": "hamlet"
      }
    },
    {
      "type": "node",
      "id": 151335472,
      "lat": 46.923313,
      "lon": -98.003155,
      "tags": {
        "capital": "6",
        "ele": "371",
        "gnis:feature_id": "1032618",
        "name": "Valley City",
        "place": "town",
        "population": "6388",
        "population:date": "2006",
        "source:population": "US Census",
        "wikidata": "Q1407484",
        "wikipedia": "en:Valley City, North Dakota"
      }
    },
    {
      "type": "node",
      "id": 151335663,
      "lat": 46.8677856,
      "lon": -102.6946244,
      "tags": {
        "ele": "718",
        "gnis:feature_id": "1029860",
        "name": "Lehigh",
        "place": "hamlet"
      }
    },
    {
      "type": "node",
      "id": 151336397,
      "lat": 48.8772124,
      "lon": -97.4761908,
      "tags": {
        "ele": "249",
        "gnis:feature_id": "1027828",
        "name": "Bathgate",
        "name:zh": "巴斯盖特",
        "place": "hamlet",
        "population": "60",
        "population:date": "2006",
        "source:population": "US Census",
        "wikidata": "Q2171461",
        "wikipedia": "en:Bathgate, North Dakota"
      }
    },
    {
      "type": "node",
      "id": 151336581,
      "lat": 48.2364,
      "lon": -101.13349,
      "tags": {
        "ele": "498",
        "gnis:feature_id": "1032399",
        "name": "Surrey",
        "name:zh": "萨里",
        "place": "village",
        "population": "868",
        "population:date": "2006",
        "source:population": "US Census",
        "wikidata": "Q523979",
        "wikipedia": "en:Surrey, North Dakota"
      }
    },
    {
      "type": "node",
      "id": 151336977,
      "lat": 46.623883,
      "lon": -100.6517901,
      "tags": {
        "ele": "505",
        "gnis:feature_id": "1029567",
        "name": "Huff",
        "place": "hamlet"
      }
    },
    {
      "type": "node",
      "id": 151337486,
      "lat": 48.3694583,
      "lon": -101.5712744,
      "tags": {
        "ele": "502",
        "gnis:feature_id": "1029039",
        "name": "Foxholm",
        "place": "hamlet",
        "population": "84",
        "population:date": "2006",
        "source:population": "US Census"
      }
    },
    {
      "type": "node",
      "id": 151337626,
      "lat": 47.9739046,
      "lon": -102.5460155,
      "tags": {
        "ele": "646",
        "gnis:feature_id": "1031354",
        "name": "Sanish",
        "place": "hamlet"
      }
    },
    {
      "type": "node",
      "id": 151337633,
      "lat": 46.8593039,
      "lon": -97.2217536,
      "tags": {
        "ele": "284",
        "gnis:feature_id": "1033853",
        "name": "Everest",
        "place": "hamlet",
        "population": "86",
        "population:date": "2006",
        "source:population": "US Census"
      }
    },
    {
      "type": "node",
      "id": 151337758,
      "lat": 46.00275,
      "lon": -98.527046,
      "tags": {
        "capital": "6",
        "ele": "443",
        "gnis:feature_id": "1028850",
        "name": "Ellendale",
        "place": "town",
        "population": "1490",
        "population:date": "2006",
        "source:population": "US Census",
        "wikidata": "Q959555",
        "wikipedia": "en:Ellendale, North Dakota"
      }
    },
    {
      "type": "node",
      "id": 151338771,
      "lat": 47.8383369,
      "lon": -100.9334809,
      "tags": {
        "ele": "636",
        "gnis:feature_id": "1031045",
        "name": "Ruso",
        "name:zh": "鲁索",
        "place": "hamlet",
        "population": "6",
        "population:date": "2006",
        "source:population": "US Census",
        "wikidata": "Q729570",
        "wikipedia": "en:Ruso, North Dakota"
      }
    },
    {
      "type": "node",
      "id": 151338890,
      "lat": 46.7174769,
      "lon": -97.9762117,
      "tags": {
        "ele": "372",
        "gnis:feature_id": "1033744",
        "name": "Daily",
        "place": "hamlet"
      }
    },
    {
      "type": "node",
      "id": 151338914,
      "lat": 48.1563981,
      "lon": -100.8668134,
      "tags": {
        "ele": "482",
        "gnis:feature_id": "1032097",
        "name": "Simcoe",
        "place": "hamlet"
      }
    },
    {
      "type": "node",
      "id": 151338920,
      "lat": 46.6566415,
      "lon": -97.8923241,
      "tags": {
        "ele": "415",
        "gnis:feature_id": "1033753",
        "name": "Eastedge",
        "place": "hamlet"
      }
    },
    {
      "type": "node",
      "id": 151338924,
      "lat": 46.762494,
      "lon": -100.700403,
      "tags": {
        "ele": "514",
        "gnis:feature_id": "1035868",
        "name": "Lincoln",
        "place": "village",
        "population": "2431",
        "population:date": "2006",
        "source:population": "US Census",
        "wikidata": "Q2283554",
        "wikipedia": "en:Lincoln, North Dakota"
      }
    },
    {
      "type": "node",
      "id": 151339239,
      "lat": 48.1666684,
      "lon": -100.0370779,
      "tags": {
        "ele": "473",
        "gnis:feature_id": "1027801",
        "name": "Balta",
        "name:zh": "巴尔塔",
        "place": "hamlet",
        "population": "64",
        "population:date": "2006",
        "source:population": "US Census",
        "wikidata": "Q2310098",
        "wikipedia": "en:Balta, North Dakota"
      }
    },
    {
      "type": "node",
      "id": 151339952,
      "lat": 47.5786079,
      "lon": -98.4548213,
      "tags": {
        "ele": "470",
        "gnis:feature_id": "1030296",
        "name": "Mose",
        "place": "hamlet"
      }
    },
    {
      "type": "node",
      "id": 151340065,
      "lat": 46.67998,
      "lon": -98.8601056,
      "tags": {
        "ele": "497",
        "gnis:feature_id": "1033912",
        "name": "Sharlow",
        "place": "hamlet",
        "population": "66",
        "population:date": "2006",
        "source:population": "US Census"
      }
    },
    {
      "type": "node",
      "id": 151340521,
      "lat": 46.10691,
      "lon": -97.782045,
      "tags": {
        "ele": "397",
        "gnis:feature_id": "1028415",
        "name": "Cogswell",
        "name:pronunciation": "'kɑɡzwəl",
        "place": "village",
        "population": "153",
        "population:date": "2006",
        "source:population": "US Census",
        "wikidata": "Q2033398",
        "wikipedia": "en:Cogswell, North Dakota"
      }
    },
    {
      "type": "node",
      "id": 151341304,
      "lat": 47.1471966,
      "lon": -96.9678613,
      "tags": {
        "ele": "270",
        "gnis:feature_id": "1029081",
        "name": "Gardner",
        "place": "hamlet",
        "population": "84",
        "population:date": "2006",
        "source:population": "US Census",
        "wikidata": "Q2229719",
        "wikipedia": "en:Gardner, North Dakota"
      }
    },
    {
      "type": "node",
      "id": 151341468,
      "lat": 46.8525062,
      "lon": -101.9243255,
      "tags": {
        "ele": "647",
        "gnis:feature_id": "1033752",
        "name": "Eagle Nest",
        "place": "hamlet"
      }
    },
    {
      "type": "node",
      "id": 151341510,
      "lat": 46.5260853,
      "lon": -98.8956607,
      "tags": {
        "ele": "530",
        "gnis:feature_id": "1033647",
        "name": "Jud",
        "place": "hamlet",
        "population": "70",
        "population:date": "2006",
        "source:population": "US Census",
        "wikidata": "Q2445937",
        "wikipedia": "en:Jud, North Dakota"
      }
    },
    {
      "type": "node",
      "id": 151341736,
      "lat": 48.413337,
      "lon": -98.45428,
      "tags": {
        "ele": "464",
        "gnis:feature_id": "1028811",
        "name": "Edmore",
        "name:zh": "埃德莫尔",
        "place": "village",
        "population": "236",
        "population:date": "2006",
        "source:population": "US Census",
        "wikidata": "Q2442983",
        "wikipedia": "en:Edmore, North Dakota"
      }
    },
    {
      "type": "node",
      "id": 151341741,
      "lat": 48.1688908,
      "lon": -99.9184655,
      "tags": {
        "ele": "482",
        "gnis:feature_id": "1032087",
        "name": "Silva",
        "place": "hamlet"
      }
    },
    {
      "type": "node",
      "id": 151341877,
      "lat": 46.342505,
      "lon": -101.4909733,
      "tags": {
        "ele": "732",
        "gnis:feature_id": "1028136",
        "name": "Brisbane",
        "place": "hamlet"
      }
    },
    {
      "type": "node",
      "id": 151341888,
      "lat": 48.1536119,
      "lon": -98.9676266,
      "tags": {
        "ele": "447",
        "gnis:feature_id": "1033845",
        "name": "Darby",
        "place": "hamlet"
      }
    },
    {
      "type": "node",
      "id": 151341893,
      "lat": 47.0735886,
      "lon": -97.3289774,
      "tags": {
        "ele": "320",
        "gnis:feature_id": "1033879",
        "name": "Mason",
        "place": "hamlet"
      }
    },
    {
      "type": "node",
      "id": 151342884,
      "lat": 48.442517,
      "lon": -101.714606,
      "tags": {
        "ele": "517",
        "gnis:feature_id": "1028284",
        "name": "Carpio",
        "name:zh": "卡皮奥",
        "place": "village",
        "population": "140",
        "population:date": "2006",
        "source:population": "US Census",
        "wikidata": "Q2441963",
        "wikipedia": "en:Carpio, North Dakota"
      }
    },
    {
      "type": "node",
      "id": 151342905,
      "lat": 46.3288496,
      "lon": -102.0638364,
      "tags": {
        "ele": "716",
        "gnis:feature_id": "1027893",
        "name": "Bentley",
        "place": "hamlet"
      }
    },
    {
      "type": "node",
      "id": 151343668,
      "lat": 48.6572478,
      "lon": -101.7011798,
      "tags": {
        "ele": "499",
        "gnis:feature_id": "1029240",
        "name": "Greene",
        "place": "hamlet"
      }
    },
    {
      "type": "node",
      "id": 151343909,
      "lat": 48.4705459,
      "lon": -97.513138,
      "tags": {
        "ele": "260",
        "gnis:feature_id": "1030355",
        "name": "Nash",
        "place": "hamlet"
      }
    },
    {
      "type": "node",
      "id": 151344180,
      "lat": 46.7486228,
      "lon": -103.1893445,
      "tags": {
        "ele": "827",
        "gnis:feature_id": "1035327",
        "name": "Gaylord",
        "place": "hamlet"
      }
    },
    {
      "type": "node",
      "id": 151344888,
      "lat": 48.4352752,
      "lon": -100.089302,
      "tags": {
        "ele": "458",
        "gnis:feature_id": "1033873",
        "name": "Leverich",
        "place": "hamlet"
      }
    },
    {
      "type": "node",
      "id": 151345185,
      "lat": 48.317241,
      "lon": -102.390452,
      "tags": {
        "capital": "6",
        "ele": "684",
        "gnis:feature_id": "1032284",
        "name": "Stanley",
        "name:zh": "斯坦利",
        "place": "town",
        "population": "1206",
        "population:date": "2006",
        "source:population": "US Census",
        "wikidata": "Q1999227",
        "wikipedia": "en:Stanley, North Dakota"
      }
    },
    {
      "type": "node",
      "id": 151346522,
      "lat": 46.1750064,
      "lon": -103.2348986,
      "tags": {
        "ele": "872",
        "gnis:feature_id": "1033837",
        "name": "Buffalo Springs",
        "place": "hamlet"
      }
    },
    {
      "type": "node",
      "id": 151346529,
      "lat": 47.6399973,
      "lon": -99.0295575,
      "tags": {
        "ele": "465",
        "gnis:feature_id": "1033850",
        "name": "Dundas",
        "place": "hamlet"
      }
    },
    {
      "type": "node",
      "id": 151346788,
      "lat": 46.3874603,
      "lon": -96.8095244,
      "tags": {
        "ele": "290",
        "gnis:feature_id": "1029073",
        "name": "Galchutt",
        "place": "hamlet"
      }
    },
    {
      "type": "node",
      "id": 151347310,
      "lat": 48.5453002,
      "lon": -102.0115513,
      "tags": {
        "ele": "629",
        "gnis:feature_id": "1028477",
        "name": "Coulee",
        "place": "hamlet"
      }
    },
    {
      "type": "node",
      "id": 151347684,
      "lat": 46.3472234,
      "lon": -101.1737474,
      "tags": {
        "ele": "578",
        "gnis:feature_id": "1029044",
        "name": "Freda",
        "place": "hamlet",
        "population": "11",
        "population:date": "2006",
        "source:population": "US Census"
      }
    },
    {
      "type": "node",
      "id": 151348598,
      "lat": 46.256918,
      "lon": -99.557057,
      "tags": {
        "ele": "620",
        "gnis:feature_id": "1032855",
        "name": "Wishek",
        "place": "village",
        "population": "980",
        "population:date": "2006",
        "source:population": "US Census",
        "wikidata": "Q2085795",
        "wikipedia": "en:Wishek, North Dakota"
      }
    },
    {
      "type": "node",
      "id": 151348605,
      "lat": 48.8077724,
      "lon": -97.7967591,
      "tags": {
        "ele": "312",
        "gnis:feature_id": "1033917",
        "name": "Svold",
        "place": "hamlet"
      }
    },
    {
      "type": "node",
      "id": 151348627,
      "lat": 45.9788483,
      "lon": -96.6006267,
      "tags": {
        "ele": "297",
        "gnis:feature_id": "1033741",
        "name": "Blackmer",
        "place": "hamlet"
      }
    },
    {
      "type": "node",
      "id": 151348769,
      "lat": 46.9344315,
      "lon": -98.4117588,
      "tags": {
        "ele": "449",
        "gnis:feature_id": "1033922",
        "name": "Urbana",
        "place": "hamlet"
      }
    },
    {
      "type": "node",
      "id": 151350983,
      "lat": 48.8637813,
      "lon": -103.8882221,
      "tags": {
        "ele": "667",
        "gnis:feature_id": "1027671",
        "name": "Alkabo",
        "place": "hamlet"
      }
    },
    {
      "type": "node",
      "id": 151351642,
      "lat": 46.266627,
      "lon": -97.13231,
      "tags": {
        "ele": "322",
        "gnis:feature_id": "1035254",
        "name": "Wyndmere",
        "name:pronunciation": "'waɪndmɪɹ",
        "place": "village",
        "population": "491",
        "population:date": "2006",
        "source:population": "US Census",
        "wikidata": "Q2442966",
        "wikipedia": "en:Wyndmere, North Dakota"
      }
    },
    {
      "type": "node",
      "id": 151352798,
      "lat": 47.4983191,
      "lon": -97.3703689,
      "tags": {
        "ele": "300",
        "gnis:feature_id": "1030786",
        "name": "Portland",
        "name:zh": "波特兰",
        "place": "village",
        "population": "565",
        "population:date": "2006",
        "source:population": "US Census",
        "wikidata": "Q1917186",
        "wikipedia": "en:Portland, North Dakota"
      }
    },
    {
      "type": "node",
      "id": 151352833,
      "lat": 46.3898528,
      "lon": -101.7003571,
      "tags": {
        "ele": "706",
        "gnis:feature_id": "1029386",
        "name": "Heil",
        "place": "hamlet"
      }
    },
    {
      "type": "node",
      "id": 151354328,
      "lat": 47.4889052,
      "lon": -103.927426,
      "tags": {
        "ele": "695",
        "gnis:feature_id": "1035183",
        "name": "Homesteaders Gap",
        "old_name": "Squaw Gap",
        "place": "hamlet"
      }
    },
    {
      "type": "node",
      "id": 151355520,
      "lat": 47.8826593,
      "lon": -100.240959,
      "tags": {
        "ele": "494",
        "gnis:feature_id": "1027700",
        "name": "Anamoose",
        "name:zh": "阿纳穆斯",
        "place": "village",
        "population": "260",
        "population:date": "2006",
        "source:population": "US Census",
        "wikidata": "Q957246",
        "wikipedia": "en:Anamoose, North Dakota"
      }
    },
    {
      "type": "node",
      "id": 151355527,
      "lat": 46.6780313,
      "lon": -97.968712,
      "tags": {
        "ele": "364",
        "gnis:feature_id": "1029718",
        "name": "Kathryn",
        "place": "hamlet",
        "population": "56",
        "population:date": "2006",
        "source:population": "US Census",
        "wikidata": "Q28409",
        "wikipedia": "en:Kathryn, North Dakota"
      }
    },
    {
      "type": "node",
      "id": 151355536,
      "lat": 46.371388,
      "lon": -101.0179119,
      "tags": {
        "ele": "535",
        "gnis:feature_id": "1032489",
        "name": "Timmer",
        "place": "hamlet"
      }
    },
    {
      "type": "node",
      "id": 151355545,
      "lat": 48.0205632,
      "lon": -100.8415372,
      "tags": {
        "ele": "484",
        "gnis:feature_id": "1032653",
        "name": "Voltaire",
        "name:zh": "伏尔泰",
        "place": "hamlet",
        "population": "47",
        "population:date": "2006",
        "source:population": "US Census",
        "wikidata": "Q939195",
        "wikipedia": "en:Voltaire, North Dakota"
      }
    },
    {
      "type": "node",
      "id": 151355555,
      "lat": 46.220174,
      "lon": -101.097315,
      "tags": {
        "ele": "552",
        "gnis:feature_id": "1030781",
        "name": "Porcupine",
        "place": "village"
      }
    },
    {
      "type": "node",
      "id": 151355566,
      "lat": 46.6838671,
      "lon": -98.0945419,
      "tags": {
        "ele": "445",
        "gnis:feature_id": "1029335",
        "name": "Hastings",
        "place": "hamlet"
      }
    },
    {
      "type": "node",
      "id": 151356591,
      "lat": 48.288888,
      "lon": -99.437635,
      "tags": {
        "ele": "461",
        "gnis:feature_id": "1029856",
        "name": "Leeds",
        "name:zh": "利兹",
        "place": "village",
        "population": "452",
        "population:date": "2006",
        "source:population": "US Census",
        "wikidata": "Q2365261",
        "wikipedia": "en:Leeds, North Dakota"
      }
    },
    {
      "type": "node",
      "id": 151356874,
      "lat": 48.5738865,
      "lon": -99.7798658,
      "tags": {
        "ele": "488",
        "gnis:feature_id": "1030351",
        "name": "Nanson",
        "place": "hamlet"
      }
    },
    {
      "type": "node",
      "id": 151357646,
      "lat": 47.802241,
      "lon": -103.283247,
      "tags": {
        "capital": "6",
        "ele": "646",
        "gnis:feature_id": "1032701",
        "name": "Watford City",
        "name:zh": "沃特福德市",
        "place": "town",
        "population": "6207",
        "wikidata": "Q1998384",
        "wikipedia": "en:Watford City, North Dakota"
      }
    },
    {
      "type": "node",
      "id": 151357727,
      "lat": 48.0933353,
      "lon": -98.7526139,
      "tags": {
        "ele": "452",
        "gnis:feature_id": "1033767",
        "name": "Keith",
        "place": "hamlet"
      }
    },
    {
      "type": "node",
      "id": 151357733,
      "lat": 46.8672355,
      "lon": -103.3915713,
      "tags": {
        "ele": "788",
        "gnis:feature_id": "1033916",
        "name": "Sully Springs",
        "place": "hamlet"
      }
    },
    {
      "type": "node",
      "id": 151357994,
      "lat": 46.1544142,
      "lon": -98.5553778,
      "tags": {
        "ele": "452",
        "gnis:feature_id": "1035525",
        "name": "Boynton",
        "place": "hamlet"
      }
    },
    {
      "type": "node",
      "id": 151358111,
      "lat": 48.5969371,
      "lon": -97.6695334,
      "tags": {
        "ele": "277",
        "gnis:feature_id": "1028559",
        "name": "Crystal",
        "name:zh": "克里斯特尔",
        "place": "village",
        "population": "157",
        "population:date": "2006",
        "source:population": "US Census",
        "wikidata": "Q2310201",
        "wikipedia": "en:Crystal, North Dakota"
      }
    },
    {
      "type": "node",
      "id": 151359359,
      "lat": 46.874967,
      "lon": -96.900362,
      "tags": {
        "ele": "275",
        "name": "West Fargo",
        "place": "town",
        "population": "38626",
        "population:date": "2020",
        "source:population": "US Census",
        "wikidata": "Q1001721",
        "wikipedia": "en:West Fargo, North Dakota"
      }
    },
    {
      "type": "node",
      "id": 151361218,
      "lat": 46.9141806,
      "lon": -103.6374138,
      "tags": {
        "ele": "736",
        "gnis:feature_id": "1035090",
        "name": "Rider",
        "place": "hamlet"
      }
    },
    {
      "type": "node",
      "id": 151363110,
      "lat": 48.6294735,
      "lon": -102.3726707,
      "tags": {
        "ele": "714",
        "gnis:feature_id": "1033736",
        "name": "Vanville",
        "place": "hamlet",
        "population": "27",
        "population:date": "2006",
        "source:population": "US Census"
      }
    },
    {
      "type": "node",
      "id": 151363359,
      "lat": 46.893876,
      "lon": -99.299833,
      "tags": {
        "ele": "551",
        "gnis:feature_id": "1030183",
        "name": "Medina",
        "place": "village",
        "population": "305",
        "population:date": "2006",
        "source:population": "US Census",
        "wikidata": "Q2442489",
        "wikipedia": "en:Medina, North Dakota"
      }
    },
    {
      "type": "node",
      "id": 151363595,
      "lat": 47.679999,
      "lon": -99.137895,
      "tags": {
        "capital": "6",
        "ele": "467",
        "gnis:feature_id": "1030398",
        "name": "New Rockford",
        "name:zh": "新罗克福德",
        "place": "town",
        "population": "1309",
        "population:date": "2006",
        "source:population": "US Census",
        "wikidata": "Q182623",
        "wikipedia": "en:New Rockford, North Dakota"
      }
    },
    {
      "type": "node",
      "id": 151363643,
      "lat": 48.0058252,
      "lon": -97.7100884,
      "tags": {
        "ele": "348",
        "gnis:feature_id": "1030133",
        "name": "McCanna",
        "place": "hamlet"
      }
    },
    {
      "type": "node",
      "id": 151363815,
      "lat": 47.1191585,
      "lon": -99.5195561,
      "tags": {
        "ele": "563",
        "gnis:feature_id": "1030695",
        "name": "Pettibone",
        "place": "hamlet",
        "population": "76",
        "population:date": "2006",
        "source:population": "US Census",
        "wikidata": "Q2445926",
        "wikipedia": "en:Pettibone, North Dakota"
      }
    },
    {
      "type": "node",
      "id": 151364093,
      "lat": 48.2520335,
      "lon": -103.4629214,
      "tags": {
        "ele": "631",
        "gnis:feature_id": "1032222",
        "name": "Spring Brook",
        "name:zh": "春溪",
        "place": "hamlet",
        "wikidata": "Q2443011",
        "wikipedia": "en:Springbrook, North Dakota"
      }
    },
    {
      "type": "node",
      "id": 151364095,
      "lat": 47.7341547,
      "lon": -97.5667543,
      "tags": {
        "ele": "340",
        "gnis:feature_id": "1030496",
        "name": "Northwood",
        "name:zh": "诺斯伍德",
        "place": "village",
        "population": "864",
        "population:date": "2006",
        "source:population": "US Census",
        "wikidata": "Q2135432",
        "wikipedia": "en:Northwood, North Dakota"
      }
    },
    {
      "type": "node",
      "id": 151364099,
      "lat": 47.1427682,
      "lon": -99.7812206,
      "tags": {
        "ele": "546",
        "gnis:feature_id": "1030936",
        "name": "Robinson",
        "place": "hamlet",
        "population": "63",
        "population:date": "2006",
        "source:population": "US Census",
        "wikidata": "Q181884",
        "wikipedia": "en:Robinson, North Dakota"
      }
    },
    {
      "type": "node",
      "id": 151364504,
      "lat": 48.1211183,
      "lon": -100.7390319,
      "tags": {
        "ele": "471",
        "gnis:feature_id": "1032639",
        "name": "Verendrye",
        "place": "hamlet"
      }
    },
    {
      "type": "node",
      "id": 151364524,
      "lat": 48.904199,
      "lon": -102.780453,
      "tags": {
        "ele": "589",
        "gnis:feature_id": "1028426",
        "name": "Columbus",
        "name:zh": "哥伦布",
        "place": "village",
        "population": "127",
        "population:date": "2006",
        "source:population": "US Census",
        "wikidata": "Q2315759",
        "wikipedia": "en:Columbus, North Dakota"
      }
    },
    {
      "type": "node",
      "id": 151364526,
      "lat": 46.1652468,
      "lon": -98.4270443,
      "tags": {
        "ele": "440",
        "gnis:feature_id": "1029067",
        "name": "Fullerton",
        "place": "hamlet",
        "population": "78",
        "population:date": "2006",
        "source:population": "US Census",
        "url": "http://fullertonnd.com/",
        "wikidata": "Q2447016",
        "wikipedia": "en:Fullerton, North Dakota"
      }
    },
    {
      "type": "node",
      "id": 151364619,
      "lat": 46.651915,
      "lon": -97.245647,
      "tags": {
        "ele": "321",
        "gnis:feature_id": "1029864",
        "name": "Leonard",
        "place": "village",
        "population": "235",
        "population:date": "2006",
        "source:population": "US Census",
        "wikidata": "Q1842454",
        "wikipedia": "en:Leonard, North Dakota"
      }
    },
    {
      "type": "node",
      "id": 151364837,
      "lat": 47.3925145,
      "lon": -103.2479655,
      "tags": {
        "ele": "811",
        "gnis:feature_id": "1034897",
        "name": "Grassy Butte",
        "place": "hamlet"
      }
    },
    {
      "type": "node",
      "id": 151365388,
      "lat": 48.6039502,
      "lon": -103.7984751,
      "tags": {
        "ele": "645",
        "gnis:feature_id": "1029297",
        "name": "Hanks",
        "place": "hamlet"
      }
    },
    {
      "type": "node",
      "id": 151365551,
      "lat": 48.7455495,
      "lon": -97.9345443,
      "tags": {
        "ele": "370",
        "gnis:feature_id": "1028436",
        "name": "Concrete",
        "place": "hamlet"
      }
    },
    {
      "type": "node",
      "id": 151365564,
      "lat": 48.5619462,
      "lon": -99.2831941,
      "tags": {
        "ele": "461",
        "gnis:feature_id": "1028442",
        "name": "Considine",
        "place": "hamlet"
      }
    },
    {
      "type": "node",
      "id": 151365574,
      "lat": 48.94584,
      "lon": -98.995961,
      "tags": {
        "ele": "483",
        "gnis:feature_id": "1031357",
        "name": "Sarles",
        "name:zh": "萨利斯",
        "place": "hamlet",
        "population": "19",
        "population:date": "2006",
        "source:population": "US Census",
        "wikidata": "Q2420678",
        "wikipedia": "en:Sarles, North Dakota"
      }
    },
    {
      "type": "node",
      "id": 151365601,
      "lat": 47.0049744,
      "lon": -97.2189763,
      "tags": {
        "ele": "290",
        "gnis:feature_id": "1027695",
        "name": "Amenia",
        "place": "hamlet",
        "population": "88",
        "population:date": "2006",
        "source:population": "US Census",
        "wikidata": "Q784494",
        "wikipedia": "en:Amenia, North Dakota"
      }
    },
    {
      "type": "node",
      "id": 151365920,
      "lat": 48.2706438,
      "lon": -99.1975801,
      "tags": {
        "ele": "442",
        "gnis:feature_id": "1028374",
        "name": "Churchs Ferry",
        "name:zh": "彻奇斯费里",
        "place": "hamlet",
        "population": "71",
        "population:date": "2006",
        "source:population": "US Census",
        "wikidata": "Q304414",
        "wikipedia": "en:Churchs Ferry, North Dakota"
      }
    },
    {
      "type": "node",
      "id": 151367556,
      "lat": 46.4177836,
      "lon": -101.564865,
      "tags": {
        "capital": "6",
        "ele": "701",
        "gnis:feature_id": "1028290",
        "name": "Carson",
        "place": "village",
        "population": "276",
        "population:date": "2006",
        "source:population": "US Census",
        "wikidata": "Q731708",
        "wikipedia": "en:Carson, North Dakota"
      }
    },
    {
      "type": "node",
      "id": 151367766,
      "lat": 47.4574751,
      "lon": -96.8856372,
      "tags": {
        "ele": "262",
        "gnis:feature_id": "1028232",
        "name": "Caledonia",
        "place": "hamlet",
        "population": "37",
        "wikidata": "Q959725",
        "wikipedia": "en:Caledonia, North Dakota"
      }
    },
    {
      "type": "node",
      "id": 151368820,
      "lat": 46.5569551,
      "lon": -103.7918663,
      "tags": {
        "ele": "770",
        "gnis:feature_id": "1035208",
        "name": "Three V Crossing",
        "place": "hamlet"
      }
    },
    {
      "type": "node",
      "id": 151368895,
      "lat": 48.1824994,
      "lon": -99.3240238,
      "tags": {
        "ele": "476",
        "gnis:feature_id": "1028134",
        "name": "Brinsmade",
        "name:zh": "布林斯梅德",
        "place": "hamlet",
        "population": "29",
        "population:date": "2006",
        "source:population": "US Census",
        "wikidata": "Q2355617",
        "wikipedia": "en:Brinsmade, North Dakota"
      }
    },
    {
      "type": "node",
      "id": 151368900,
      "lat": 46.9797113,
      "lon": -98.5064822,
      "tags": {
        "ele": "457",
        "gnis:feature_id": "1033866",
        "name": "Johnson",
        "place": "hamlet"
      }
    },
    {
      "type": "node",
      "id": 151368911,
      "lat": 47.8572261,
      "lon": -101.5029412,
      "tags": {
        "ele": "626",
        "gnis:feature_id": "1028705",
        "name": "Douglas",
        "name:zh": "道格拉斯",
        "place": "hamlet",
        "population": "60",
        "population:date": "2006",
        "source:population": "US Census",
        "wikidata": "Q2226686",
        "wikipedia": "en:Douglas, North Dakota"
      }
    },
    {
      "type": "node",
      "id": 151369808,
      "lat": 47.3583365,
      "lon": -101.646833,
      "tags": {
        "ele": "614",
        "gnis:feature_id": "1032540",
        "name": "Truax",
        "place": "hamlet"
      }
    },
    {
      "type": "node",
      "id": 151372047,
      "lat": 48.1225024,
      "lon": -98.745948,
      "tags": {
        "ele": "453",
        "gnis:feature_id": "1033852",
        "name": "Essex",
        "place": "hamlet"
      }
    },
    {
      "type": "node",
      "id": 151372114,
      "lat": 47.82722,
      "lon": -98.440102,
      "tags": {
        "ele": "447",
        "gnis:feature_id": "1032497",
        "name": "Tolna",
        "name:zh": "托尔瑙",
        "place": "village",
        "population": "183",
        "population:date": "2006",
        "source:population": "US Census",
        "wikidata": "Q2443508",
        "wikipedia": "en:Tolna, North Dakota"
      }
    },
    {
      "type": "node",
      "id": 151372133,
      "lat": 48.071388,
      "lon": -99.252357,
      "tags": {
        "capital": "6",
        "ele": "446",
        "gnis:feature_id": "1034197",
        "name": "Minnewaukan",
        "name:zh": "明尼沃肯",
        "place": "town",
        "population": "297",
        "population:date": "2006",
        "source:population": "US Census",
        "wikidata": "Q2019987",
        "wikipedia": "en:Minnewaukan, North Dakota"
      }
    },
    {
      "type": "node",
      "id": 151372853,
      "lat": 47.290842,
      "lon": -102.064617,
      "tags": {
        "ele": "596",
        "gnis:feature_id": "1029155",
        "name": "Golden Valley",
        "place": "village",
        "population": "171",
        "population:date": "2006",
        "source:population": "US Census",
        "wikidata": "Q2444406",
        "wikipedia": "en:Golden Valley, North Dakota"
      }
    },
    {
      "type": "node",
      "id": 151372876,
      "lat": 48.5811502,
      "lon": -103.4694026,
      "tags": {
        "ele": "647",
        "gnis:feature_id": "1027663",
        "name": "Alamo",
        "name:zh": "阿拉摩",
        "place": "hamlet",
        "population": "49",
        "population:date": "2006",
        "source:population": "US Census",
        "wikidata": "Q2310118",
        "wikipedia": "en:Alamo, North Dakota"
      }
    },
    {
      "type": "node",
      "id": 151374457,
      "lat": 48.8180421,
      "lon": -97.2275695,
      "tags": {
        "ele": "243",
        "gnis:feature_id": "1029690",
        "name": "Joliette",
        "place": "hamlet",
        "population": "83",
        "population:date": "2006",
        "source:population": "US Census"
      }
    },
    {
      "type": "node",
      "id": 151374572,
      "lat": 46.70692,
      "lon": -97.719825,
      "tags": {
        "ele": "370",
        "gnis:feature_id": "1030035",
        "name": "Lucca",
        "place": "hamlet"
      }
    },
    {
      "type": "node",
      "id": 151378806,
      "lat": 46.5555233,
      "lon": -97.2381462,
      "tags": {
        "ele": "315",
        "gnis:feature_id": "1033904",
        "name": "Power",
        "place": "hamlet"
      }
    },
    {
      "type": "node",
      "id": 151378871,
      "lat": 48.2174934,
      "lon": -97.7906451,
      "tags": {
        "ele": "349",
        "gnis:feature_id": "1029001",
        "name": "Fordville",
        "name:zh": "福特维尔",
        "place": "village",
        "population": "241",
        "population:date": "2006",
        "source:population": "US Census",
        "wikidata": "Q969824",
        "wikipedia": "en:Fordville, North Dakota"
      }
    },
    {
      "type": "node",
      "id": 151379928,
      "lat": 47.497499,
      "lon": -101.371271,
      "tags": {
        "ele": "600",
        "gnis:feature_id": "1030914",
        "name": "Riverdale",
        "name:zh": "里弗代尔",
        "place": "village",
        "population": "267",
        "population:date": "2006",
        "source:population": "US Census",
        "wikidata": "Q2373536",
        "wikipedia": "en:Riverdale, North Dakota"
      }
    },
    {
      "type": "node",
      "id": 151380262,
      "lat": 47.918875,
      "lon": -97.3650837,
      "tags": {
        "ele": "273",
        "gnis:feature_id": "1028876",
        "name": "Emerado",
        "name:zh": "埃默拉多",
        "place": "village",
        "population": "470",
        "population:date": "2006",
        "source:population": "US Census",
        "wikidata": "Q2071837",
        "wikipedia": "en:Emerado, North Dakota"
      }
    },
    {
      "type": "node",
      "id": 151380305,
      "lat": 46.0588475,
      "lon": -96.7281311,
      "tags": {
        "ele": "300",
        "gnis:feature_id": "1033894",
        "name": "Oswald",
        "place": "hamlet"
      }
    },
    {
      "type": "node",
      "id": 151380684,
      "lat": 48.9826245,
      "lon": -97.5519408,
      "tags": {
        "ele": "251",
        "gnis:feature_id": "1030364",
        "name": "Neche",
        "name:zh": "尼奇",
        "place": "village",
        "population": "416",
        "population:date": "2006",
        "source:population": "US Census",
        "wikidata": "Q2443547",
        "wikipedia": "en:Neche, North Dakota"
      }
    },
    {
      "type": "node",
      "id": 151380716,
      "lat": 47.4988866,
      "lon": -101.1751532,
      "tags": {
        "ele": "610",
        "gnis:feature_id": "1033908",
        "name": "Riverdale Junction",
        "place": "hamlet"
      }
    },
    {
      "type": "node",
      "id": 151382183,
      "lat": 48.3397413,
      "lon": -102.2290557,
      "tags": {
        "ele": "673",
        "gnis:feature_id": "1030621",
        "name": "Palermo",
        "name:zh": "巴勒莫",
        "place": "hamlet",
        "population": "69",
        "population:date": "2006",
        "source:population": "US Census",
        "wikidata": "Q979667",
        "wikipedia": "en:Palermo, North Dakota"
      }
    },
    {
      "type": "node",
      "id": 151382909,
      "lat": 48.7588829,
      "lon": -97.9498222,
      "tags": {
        "ele": "382",
        "gnis:feature_id": "1029299",
        "name": "Hanks Corner",
        "place": "hamlet"
      }
    },
    {
      "type": "node",
      "id": 151384020,
      "lat": 48.2960972,
      "lon": -97.254795,
      "tags": {
        "ele": "246",
        "gnis:feature_id": "1032686",
        "name": "Warsaw",
        "place": "hamlet",
        "wikidata": "Q3474512",
        "wikipedia": "en:Warsaw, North Dakota"
      }
    },
    {
      "type": "node",
      "id": 151384556,
      "lat": 48.070578,
      "lon": -103.836871,
      "tags": {
        "ele": "579",
        "gnis:feature_id": "1032516",
        "name": "Trenton",
        "place": "village",
        "population": "533",
        "population:date": "2006",
        "source:population": "US Census",
        "wikidata": "Q3608982"
      }
    },
    {
      "type": "node",
      "id": 151385647,
      "lat": 48.8958373,
      "lon": -98.6026208,
      "tags": {
        "ele": "478",
        "gnis:feature_id": "1032665",
        "name": "Wales",
        "name:zh": "威尔士",
        "place": "hamlet",
        "population": "26",
        "population:date": "2006",
        "source:population": "US Census",
        "wikidata": "Q2316274",
        "wikipedia": "en:Wales, North Dakota"
      }
    },
    {
      "type": "node",
      "id": 151385673,
      "lat": 47.1380647,
      "lon": -102.332956,
      "tags": {
        "ele": "604",
        "gnis:feature_id": "1030104",
        "name": "Marshall",
        "place": "hamlet"
      }
    },
    {
      "type": "node",
      "id": 151386405,
      "lat": 46.5208041,
      "lon": -97.9262128,
      "tags": {
        "ele": "346",
        "gnis:feature_id": "1029016",
        "name": "Fort Ransom",
        "place": "hamlet",
        "population": "98",
        "population:date": "2006",
        "source:population": "US Census",
        "wikidata": "Q1027778",
        "wikipedia": "en:Fort Ransom, North Dakota"
      }
    },
    {
      "type": "node",
      "id": 151387529,
      "lat": 46.5285804,
      "lon": -97.4956482,
      "tags": {
        "ele": "336",
        "gnis:feature_id": "1034686",
        "name": "Anselm",
        "place": "hamlet"
      }
    },
    {
      "type": "node",
      "id": 151388180,
      "lat": 46.826415,
      "lon": -100.889704,
      "tags": {
        "capital": "6",
        "ele": "502",
        "name": "Mandan",
        "place": "town",
        "population": "17449",
        "population:date": "2006",
        "source:population": "US Census",
        "wikidata": "Q28419",
        "wikipedia": "en:Mandan, North Dakota"
      }
    },
    {
      "type": "node",
      "id": 151389056,
      "lat": 46.6799681,
      "lon": -100.2940401,
      "tags": {
        "ele": "536",
        "gnis:feature_id": "1030264",
        "name": "Moffit",
        "place": "hamlet",
        "wikidata": "Q6890368",
        "wikipedia": "en:Moffit, North Dakota"
      }
    },
    {
      "type": "node",
      "id": 151389441,
      "lat": 46.922755,
      "lon": -97.673989,
      "tags": {
        "ele": "357",
        "gnis:feature_id": "1036349",
        "name": "Tower City",
        "place": "village",
        "population": "236",
        "population:date": "2006",
        "source:population": "US Census",
        "wikidata": "Q48791",
        "wikipedia": "en:Tower City, North Dakota"
      }
    },
    {
      "type": "node",
      "id": 151389484,
      "lat": 46.1652369,
      "lon": -96.9773059,
      "tags": {
        "ele": "313",
        "gnis:feature_id": "1034993",
        "name": "Mantador",
        "place": "hamlet",
        "population": "67",
        "population:date": "2006",
        "source:population": "US Census",
        "wikidata": "Q2442957",
        "wikipedia": "en:Mantador, North Dakota"
      }
    },
    {
      "type": "node",
      "id": 151389933,
      "lat": 47.821114,
      "lon": -101.29877,
      "tags": {
        "ele": "638",
        "gnis:feature_id": "1030122",
        "name": "Max",
        "name:zh": "马克斯",
        "place": "village",
        "population": "260",
        "population:date": "2006",
        "source:population": "US Census",
        "wikidata": "Q2446778",
        "wikipedia": "en:Max, North Dakota"
      }
    },
    {
      "type": "node",
      "id": 151389944,
      "lat": 46.6736056,
      "lon": -100.782072,
      "tags": {
        "ele": "506",
        "gnis:feature_id": "1031381",
        "name": "Schmidt",
        "place": "hamlet"
      }
    },
    {
      "type": "node",
      "id": 151389962,
      "lat": 47.7513934,
      "lon": -101.8362766,
      "tags": {
        "ele": "640",
        "gnis:feature_id": "1030991",
        "name": "Roseglen",
        "place": "hamlet",
        "population": "54",
        "population:date": "2006",
        "source:population": "US Census"
      }
    },
    {
      "type": "node",
      "id": 151390860,
      "lat": 46.78193,
      "lon": -98.56315,
      "tags": {
        "ele": "424",
        "gnis:feature_id": "1032898",
        "name": "Ypsilanti",
        "place": "village",
        "population": "155",
        "population:date": "2006",
        "source:population": "US Census",
        "wikidata": "Q4136984"
      }
    },
    {
      "type": "node",
      "id": 151390873,
      "lat": 46.0752372,
      "lon": -97.0525856,
      "tags": {
        "ele": "347",
        "gnis:feature_id": "1033799",
        "name": "Stiles",
        "place": "hamlet"
      }
    },
    {
      "type": "node",
      "id": 151392002,
      "lat": 46.0227498,
      "lon": -98.2359354,
      "tags": {
        "ele": "416",
        "gnis:feature_id": "1029254",
        "name": "Guelph",
        "place": "hamlet"
      }
    },
    {
      "type": "node",
      "id": 151392048,
      "lat": 46.1544193,
      "lon": -96.8044799,
      "tags": {
        "ele": "297",
        "gnis:feature_id": "1029232",
        "name": "Great Bend",
        "place": "village",
        "population": "114",
        "population:date": "2006",
        "source:population": "US Census",
        "wikidata": "Q672501",
        "wikipedia": "en:Great Bend, North Dakota"
      }
    },
    {
      "type": "node",
      "id": 151392659,
      "lat": 48.397244,
      "lon": -102.938238,
      "tags": {
        "ele": "684",
        "gnis:feature_id": "1032490",
        "name": "Tioga",
        "name:zh": "泰奥加",
        "place": "village",
        "population": "1093",
        "population:date": "2006",
        "source:population": "US Census",
        "wikidata": "Q2016802",
        "wikipedia": "en:Tioga, North Dakota"
      }
    },
    {
      "type": "node",
      "id": 151393318,
      "lat": 47.8188781,
      "lon": -97.6142539,
      "tags": {
        "ele": "343",
        "gnis:feature_id": "1029727",
        "name": "Kempton",
        "place": "hamlet"
      }
    },
    {
      "type": "node",
      "id": 151393337,
      "lat": 46.9460909,
      "lon": -97.9967658,
      "tags": {
        "ele": "378",
        "gnis:feature_id": "1030487",
        "name": "North Valley City",
        "place": "hamlet"
      }
    },
    {
      "type": "node",
      "id": 151395589,
      "lat": 47.371987,
      "lon": -102.754122,
      "tags": {
        "ele": "698",
        "gnis:feature_id": "1029739",
        "name": "Killdeer",
        "place": "village",
        "population": "683",
        "population:date": "2006",
        "source:population": "US Census",
        "wikidata": "Q2021464",
        "wikipedia": "en:Killdeer, North Dakota"
      }
    },
    {
      "type": "node",
      "id": 151395901,
      "lat": 46.7899935,
      "lon": -100.692347,
      "tags": {
        "ele": "506",
        "gnis:feature_id": "1033900",
        "name": "Pierce",
        "place": "hamlet"
      }
    },
    {
      "type": "node",
      "id": 151396339,
      "lat": 46.1480618,
      "lon": -103.1429501,
      "tags": {
        "ele": "847",
        "gnis:feature_id": "1032008",
        "name": "Scranton",
        "place": "village",
        "population": "280",
        "population:date": "2006",
        "source:population": "US Census",
        "wikidata": "Q954451",
        "wikipedia": "en:Scranton, North Dakota"
      }
    },
    {
      "type": "node",
      "id": 151397081,
      "lat": 48.7289124,
      "lon": -101.8273851,
      "tags": {
        "ele": "565",
        "gnis:feature_id": "1032496",
        "name": "Tolley",
        "name:zh": "托利",
        "place": "hamlet",
        "population": "59",
        "population:date": "2006",
        "source:population": "US Census",
        "wikidata": "Q2429755",
        "wikipedia": "en:Tolley, North Dakota"
      }
    },
    {
      "type": "node",
      "id": 151397143,
      "lat": 48.889754,
      "lon": -102.8585114,
      "tags": {
        "ele": "588",
        "gnis:feature_id": "1029840",
        "name": "Larson",
        "place": "hamlet",
        "wikidata": "Q3301345",
        "wikipedia": "en:Larson, North Dakota"
      }
    },
    {
      "type": "node",
      "id": 151397157,
      "lat": 47.286397,
      "lon": -101.92267,
      "tags": {
        "ele": "563",
        "gnis:feature_id": "1032903",
        "name": "Zap",
        "place": "village",
        "population": "215",
        "population:date": "2006",
        "source:population": "US Census",
        "wikidata": "Q927478",
        "wikipedia": "en:Zap, North Dakota"
      }
    },
    {
      "type": "node",
      "id": 151397844,
      "lat": 48.700837,
      "lon": -100.4976393,
      "tags": {
        "ele": "447",
        "gnis:feature_id": "1029080",
        "name": "Gardena",
        "name:zh": "加迪纳",
        "place": "hamlet",
        "population": "36",
        "population:date": "2006",
        "source:population": "US Census",
        "wikidata": "Q2483274",
        "wikipedia": "en:Gardena, North Dakota"
      }
    },
    {
      "type": "node",
      "id": 151397862,
      "lat": 46.1183391,
      "lon": -103.0798921,
      "tags": {
        "ele": "842",
        "gnis:feature_id": "1029089",
        "name": "Gascoyne",
        "place": "hamlet",
        "population": "21",
        "population:date": "2006",
        "source:population": "US Census",
        "wikidata": "Q2447080",
        "wikipedia": "en:Gascoyne, North Dakota"
      }
    },
    {
      "type": "node",
      "id": 151397989,
      "lat": 46.623028,
      "lon": -97.601486,
      "tags": {
        "ele": "331",
        "gnis:feature_id": "1036347",
        "name": "Enderlin",
        "place": "village",
        "population": "1028",
        "population:date": "2006",
        "source:population": "US Census",
        "wikidata": "Q2310033",
        "wikipedia": "en:Enderlin, North Dakota"
      }
    },
    {
      "type": "node",
      "id": 151398027,
      "lat": 47.715816,
      "lon": -97.2967534,
      "tags": {
        "ele": "299",
        "gnis:feature_id": "1029501",
        "name": "Holmes",
        "place": "hamlet"
      }
    },
    {
      "type": "node",
      "id": 151398760,
      "lat": 46.3838669,
      "lon": -99.7073329,
      "tags": {
        "ele": "602",
        "gnis:feature_id": "1030679",
        "name": "Peters",
        "place": "hamlet"
      }
    },
    {
      "type": "node",
      "id": 151399370,
      "lat": 47.464999,
      "lon": -99.399561,
      "tags": {
        "ele": "498",
        "gnis:feature_id": "1032426",
        "name": "Sykeston",
        "name:zh": "赛克斯顿",
        "place": "village",
        "population": "135",
        "population:date": "2006",
        "source:population": "US Census",
        "wikidata": "Q21849",
        "wikipedia": "en:Sykeston, North Dakota"
      }
    },
    {
      "type": "node",
      "id": 151400743,
      "lat": 47.0410893,
      "lon": -97.4906456,
      "tags": {
        "ele": "367",
        "gnis:feature_id": "1027775",
        "name": "Ayr",
        "place": "hamlet",
        "population": "21",
        "population:date": "2006",
        "source:population": "US Census",
        "wikidata": "Q2447136",
        "wikipedia": "en:Ayr, North Dakota"
      }
    },
    {
      "type": "node",
      "id": 151404532,
      "lat": 47.9970097,
      "lon": -97.8681358,
      "tags": {
        "ele": "444",
        "gnis:feature_id": "1030403",
        "name": "Niagara",
        "name:zh": "尼亚加拉",
        "place": "hamlet",
        "population": "53",
        "population:date": "2006",
        "source:population": "US Census",
        "wikidata": "Q1833712",
        "wikipedia": "en:Niagara, North Dakota"
      }
    },
    {
      "type": "node",
      "id": 151404799,
      "lat": 48.345833,
      "lon": -100.405412,
      "tags": {
        "capital": "6",
        "ele": "450",
        "gnis:feature_id": "1032511",
        "name": "Towner",
        "name:zh": "陶纳",
        "place": "village",
        "population": "509",
        "population:date": "2006",
        "source:population": "US Census",
        "wikidata": "Q1998298",
        "wikipedia": "en:Towner, North Dakota"
      }
    },
    {
      "type": "node",
      "id": 151405109,
      "lat": 46.2325063,
      "lon": -103.6554735,
      "tags": {
        "ele": "973",
        "gnis:feature_id": "1030890",
        "name": "Rhame",
        "place": "village",
        "population": "172",
        "population:date": "2006",
        "source:population": "US Census",
        "wikidata": "Q2315769",
        "wikipedia": "en:Rhame, North Dakota"
      }
    },
    {
      "type": "node",
      "id": 151405950,
      "lat": 46.8794568,
      "lon": -103.0965667,
      "tags": {
        "ele": "766",
        "gnis:feature_id": "1033930",
        "name": "Zenith",
        "place": "hamlet"
      }
    },
    {
      "type": "node",
      "id": 151406198,
      "lat": 47.8266671,
      "lon": -100.1151307,
      "tags": {
        "ele": "498",
        "gnis:feature_id": "1030105",
        "name": "Martin",
        "name:zh": "马丁",
        "place": "hamlet",
        "population": "80",
        "population:date": "2006",
        "source:population": "US Census",
        "wikidata": "Q2177502",
        "wikipedia": "en:Martin, North Dakota"
      }
    },
    {
      "type": "node",
      "id": 151407061,
      "lat": 47.3619395,
      "lon": -101.0945936,
      "tags": {
        "ele": "564",
        "gnis:feature_id": "1028942",
        "name": "Falkirk",
        "place": "hamlet"
      }
    },
    {
      "type": "node",
      "id": 151407199,
      "lat": 46.6148803,
      "lon": -96.8146546,
      "tags": {
        "ele": "281",
        "gnis:feature_id": "1033773",
        "name": "Lithia",
        "place": "hamlet"
      }
    },
    {
      "type": "node",
      "id": 151407234,
      "lat": 46.1660721,
      "lon": -97.2850912,
      "tags": {
        "ele": "327",
        "gnis:feature_id": "1029292",
        "name": "Hamlin",
        "place": "hamlet"
      }
    },
    {
      "type": "node",
      "id": 151408704,
      "lat": 48.3694386,
      "lon": -97.8645372,
      "tags": {
        "ele": "364",
        "gnis:feature_id": "1030750",
        "name": "Pleasant Valley",
        "place": "hamlet"
      }
    },
    {
      "type": "node",
      "id": 151408711,
      "lat": 47.729179,
      "lon": -102.676024,
      "tags": {
        "alt_name:hid": "Adixoodagoorahareesh",
        "ele": "663",
        "gnis:feature_id": "1030079",
        "name": "Mandaree",
        "name:en": "Mandaree",
        "name:hid": "adiʔixoodagi arunahaneesh",
        "place": "village",
        "wikidata": "Q2107907",
        "wikipedia": "en:Mandaree, North Dakota"
      }
    },
    {
      "type": "node",
      "id": 151408788,
      "lat": 46.5369203,
      "lon": -98.4678716,
      "tags": {
        "ele": "413",
        "gnis:feature_id": "1033635",
        "name": "Dickey",
        "place": "hamlet",
        "population": "52",
        "population:date": "2006",
        "source:population": "US Census",
        "wikidata": "Q2338349",
        "wikipedia": "en:Dickey, North Dakota"
      }
    },
    {
      "type": "node",
      "id": 151408790,
      "lat": 48.090006,
      "lon": -100.62042,
      "tags": {
        "ele": "470",
        "gnis:feature_id": "1029714",
        "name": "Karlsruhe",
        "name:zh": "卡尔斯鲁厄",
        "place": "village",
        "population": "110",
        "population:date": "2006",
        "source:population": "US Census",
        "wikidata": "Q1026577",
        "wikipedia": "en:Karlsruhe, North Dakota"
      }
    },
    {
      "type": "node",
      "id": 151409870,
      "lat": 46.6812739,
      "lon": -102.5609991,
      "tags": {
        "ele": "790",
        "gnis:feature_id": "1029858",
        "name": "Lefor",
        "place": "hamlet"
      }
    },
    {
      "type": "node",
      "id": 151411400,
      "lat": 47.9047773,
      "lon": -97.6238516,
      "tags": {
        "ele": "341",
        "gnis:feature_id": "1029836",
        "name": "Larimore",
        "name:zh": "拉里莫尔",
        "place": "village",
        "population": "1289",
        "population:date": "2006",
        "source:population": "US Census",
        "wikidata": "Q1954198",
        "wikipedia": "en:Larimore, North Dakota"
      }
    },
    {
      "type": "node",
      "id": 151413213,
      "lat": 46.8769459,
      "lon": -99.4742666,
      "tags": {
        "ele": "558",
        "gnis:feature_id": "1028561",
        "name": "Crystal Springs",
        "place": "hamlet",
        "population": "40",
        "population:date": "2006",
        "source:population": "US Census"
      }
    },
    {
      "type": "node",
      "id": 151414088,
      "lat": 46.56784,
      "lon": -97.122334,
      "tags": {
        "ele": "289",
        "gnis:feature_id": "1027816",
        "name": "Barrie",
        "place": "village",
        "population": "178",
        "population:date": "2020",
        "wikidata": "Q9036208"
      }
    },
    {
      "type": "node",
      "id": 151414103,
      "lat": 47.3555494,
      "lon": -98.3287072,
      "tags": {
        "ele": "444",
        "gnis:feature_id": "1030888",
        "name": "Revere",
        "place": "hamlet"
      }
    },
    {
      "type": "node",
      "id": 151414182,
      "lat": 46.360359,
      "lon": -98.712049,
      "tags": {
        "ele": "477",
        "gnis:feature_id": "1033639",
        "name": "Edgeley",
        "place": "village",
        "population": "562",
        "population:date": "2006",
        "source:population": "US Census",
        "wikidata": "Q2445962",
        "wikipedia": "en:Edgeley, North Dakota"
      }
    },
    {
      "type": "node",
      "id": 151414219,
      "lat": 47.9839546,
      "lon": -98.868054,
      "tags": {
        "ele": "446",
        "gnis:feature_id": "1031235",
        "name": "St. Michael",
        "place": "village"
      }
    },
    {
      "type": "node",
      "id": 151415806,
      "lat": 48.6222422,
      "lon": -101.4907169,
      "tags": {
        "ele": "506",
        "gnis:feature_id": "1033840",
        "name": "Chola",
        "place": "hamlet"
      }
    },
    {
      "type": "node",
      "id": 151415822,
      "lat": 47.7202778,
      "lon": -99.2717892,
      "tags": {
        "ele": "468",
        "gnis:feature_id": "1033883",
        "name": "Munster",
        "place": "hamlet",
        "population": "73",
        "population:date": "2006",
        "source:population": "US Census"
      }
    },
    {
      "type": "node",
      "id": 151415842,
      "lat": 48.3889115,
      "lon": -103.0560166,
      "tags": {
        "ele": "716",
        "gnis:feature_id": "1032450",
        "name": "Temple",
        "place": "hamlet"
      }
    },
    {
      "type": "node",
      "id": 151416062,
      "lat": 48.3872474,
      "lon": -103.6560305,
      "tags": {
        "ele": "632",
        "gnis:feature_id": "1033778",
        "name": "Marmon",
        "place": "hamlet"
      }
    },
    {
      "type": "node",
      "id": 151417997,
      "lat": 48.1697231,
      "lon": -98.9842947,
      "tags": {
        "ele": "444",
        "gnis:feature_id": "1029200",
        "name": "Grand Harbor",
        "place": "village",
        "population": "220",
        "population:date": "2020",
        "wikidata": "Q10762719"
      }
    },
    {
      "type": "node",
      "id": 151418109,
      "lat": 48.6461314,
      "lon": -101.2179363,
      "tags": {
        "ele": "465",
        "gnis:feature_id": "1033863",
        "name": "Hurd",
        "place": "hamlet"
      }
    },
    {
      "type": "node",
      "id": 151418818,
      "lat": 48.909464,
      "lon": -101.020712,
      "tags": {
        "ele": "458",
        "gnis:feature_id": "1032755",
        "name": "Westhope",
        "name:zh": "韦斯特霍普",
        "place": "village",
        "population": "487",
        "population:date": "2006",
        "source:population": "US Census",
        "wikidata": "Q2039047",
        "wikipedia": "en:Westhope, North Dakota"
      }
    },
    {
      "type": "node",
      "id": 151418868,
      "lat": 48.8713958,
      "lon": -99.3729164,
      "tags": {
        "ele": "497",
        "gnis:feature_id": "1033830",
        "name": "Amourdale",
        "place": "hamlet"
      }
    },
    {
      "type": "node",
      "id": 151419020,
      "lat": 47.4730695,
      "lon": -102.8649093,
      "tags": {
        "ele": "757",
        "gnis:feature_id": "1030533",
        "name": "Oakdale",
        "place": "hamlet"
      }
    },
    {
      "type": "node",
      "id": 151420296,
      "lat": 48.669174,
      "lon": -98.832631,
      "tags": {
        "ele": "487",
        "gnis:feature_id": "1030338",
        "name": "Munich",
        "name:zh": "慕尼黑",
        "place": "village",
        "population": "222",
        "population:date": "2006",
        "source:population": "US Census",
        "wikidata": "Q1300313",
        "wikipedia": "en:Munich, North Dakota"
      }
    },
    {
      "type": "node",
      "id": 151420566,
      "lat": 46.4858059,
      "lon": -98.2014877,
      "tags": {
        "ele": "441",
        "gnis:feature_id": "1033740",
        "name": "Benson Corner",
        "place": "hamlet"
      }
    },
    {
      "type": "node",
      "id": 151421567,
      "lat": 45.9741705,
      "lon": -102.4709914,
      "tags": {
        "ele": "776",
        "gnis:feature_id": "1029356",
        "name": "Haynes",
        "place": "hamlet",
        "population": "17",
        "population:date": "2006",
        "source:population": "US Census",
        "wikidata": "Q28158",
        "wikipedia": "en:Haynes, North Dakota"
      }
    },
    {
      "type": "node",
      "id": 151423210,
      "lat": 47.0458247,
      "lon": -98.6578785,
      "tags": {
        "ele": "464",
        "gnis:feature_id": "1029057",
        "name": "Fried",
        "place": "hamlet",
        "population": "168",
        "population:date": "2006",
        "source:population": "US Census"
      }
    },
    {
      "type": "node",
      "id": 151424340,
      "lat": 47.049168,
      "lon": -101.5551504,
      "tags": {
        "ele": "639",
        "gnis:feature_id": "1033895",
        "name": "Otter Creek",
        "place": "hamlet"
      }
    },
    {
      "type": "node",
      "id": 151424361,
      "lat": 46.813878,
      "lon": -100.2915,
      "tags": {
        "ele": "557",
        "gnis:feature_id": "1032304",
        "name": "Sterling",
        "place": "village",
        "population": "218",
        "population:date": "2006",
        "source:population": "US Census",
        "wikidata": "Q14708390",
        "wikipedia": "en:Sterling, North Dakota"
      }
    },
    {
      "type": "node",
      "id": 151424392,
      "lat": 46.8558401,
      "lon": -102.2026687,
      "tags": {
        "ele": "738",
        "gnis:feature_id": "1027707",
        "name": "Antelope",
        "place": "hamlet"
      }
    },
    {
      "type": "node",
      "id": 151424426,
      "lat": 46.6030326,
      "lon": -98.9992751,
      "tags": {
        "ele": "583",
        "gnis:feature_id": "1033625",
        "name": "Alfred",
        "place": "hamlet",
        "wikidata": "Q4722170",
        "wikipedia": "en:Alfred, North Dakota"
      }
    },
    {
      "type": "node",
      "id": 151424469,
      "lat": 48.9372256,
      "lon": -100.0509619,
      "tags": {
        "ele": "653",
        "gnis:feature_id": "1033869",
        "name": "Kelvin",
        "place": "hamlet"
      }
    },
    {
      "type": "node",
      "id": 151426278,
      "lat": 47.1052665,
      "lon": -98.3173158,
      "tags": {
        "ele": "447",
        "gnis:feature_id": "1029852",
        "name": "Leal",
        "place": "hamlet",
        "population": "34",
        "population:date": "2006",
        "source:population": "US Census",
        "wikidata": "Q28442",
        "wikipedia": "en:Leal, North Dakota"
      }
    },
    {
      "type": "node",
      "id": 151426380,
      "lat": 47.4766619,
      "lon": -100.25957,
      "tags": {
        "ele": "619",
        "gnis:feature_id": "1028658",
        "name": "Denhoff",
        "place": "hamlet",
        "population": "22",
        "population:date": "2006",
        "source:population": "US Census"
      }
    },
    {
      "type": "node",
      "id": 151427087,
      "lat": 46.301914,
      "lon": -98.948162,
      "tags": {
        "ele": "601",
        "gnis:feature_id": "1033648",
        "name": "Kulm",
        "place": "village",
        "population": "380",
        "population:date": "2006",
        "source:population": "US Census",
        "wikidata": "Q2125036",
        "wikipedia": "en:Kulm, North Dakota"
      }
    },
    {
      "type": "node",
      "id": 151427248,
      "lat": 46.8021971,
      "lon": -97.4331484,
      "tags": {
        "ele": "323",
        "gnis:feature_id": "1028874",
        "name": "Embden",
        "place": "hamlet",
        "wikidata": "Q4138211"
      }
    },
    {
      "type": "node",
      "id": 151427368,
      "lat": 47.4783319,
      "lon": -99.5478963,
      "tags": {
        "ele": "520",
        "gnis:feature_id": "1029377",
        "name": "Heaton",
        "place": "hamlet"
      }
    },
    {
      "type": "node",
      "id": 151427477,
      "lat": 47.4608222,
      "lon": -97.7195368,
      "tags": {
        "ele": "382",
        "gnis:feature_id": "1032050",
        "name": "Sherbrooke",
        "place": "hamlet",
        "population": "51",
        "population:date": "2006",
        "source:population": "US Census"
      }
    },
    {
      "type": "node",
      "id": 151427867,
      "lat": 47.542218,
      "lon": -98.2381519,
      "tags": {
        "ele": "449",
        "gnis:feature_id": "1029659",
        "name": "Jessie",
        "place": "hamlet"
      }
    },
    {
      "type": "node",
      "id": 151428478,
      "lat": 47.920575,
      "lon": -104.0310439,
      "tags": {
        "ele": "578",
        "gnis:feature_id": "1028704",
        "name": "Dore",
        "place": "hamlet"
      }
    },
    {
      "type": "node",
      "id": 151428509,
      "lat": 48.4197136,
      "lon": -97.600918,
      "tags": {
        "ele": "269",
        "gnis:feature_id": "1030080",
        "name": "Mandt",
        "place": "hamlet"
      }
    },
    {
      "type": "node",
      "id": 151428530,
      "lat": 48.3311305,
      "lon": -102.6365694,
      "tags": {
        "ele": "698",
        "gnis:feature_id": "1030084",
        "name": "Manitou",
        "place": "hamlet",
        "population": "47",
        "population:date": "2006",
        "source:population": "US Census"
      }
    },
    {
      "type": "node",
      "id": 151430473,
      "lat": 46.2950062,
      "lon": -103.9207615,
      "tags": {
        "ele": "826",
        "gnis:feature_id": "1034994",
        "name": "Marmarth",
        "place": "village",
        "population": "126",
        "population:date": "2006",
        "source:population": "US Census",
        "wikidata": "Q1893073",
        "wikipedia": "en:Marmarth, North Dakota"
      }
    },
    {
      "type": "node",
      "id": 151432495,
      "lat": 46.1727475,
      "lon": -98.5945448,
      "tags": {
        "ele": "460",
        "gnis:feature_id": "1030270",
        "name": "Monango",
        "place": "hamlet",
        "population": "26",
        "population:date": "2006",
        "source:population": "US Census",
        "wikidata": "Q2325140",
        "wikipedia": "en:Monango, North Dakota"
      }
    },
    {
      "type": "node",
      "id": 151434064,
      "lat": 48.0111053,
      "lon": -98.0014885,
      "tags": {
        "ele": "467",
        "gnis:feature_id": "1030683",
        "name": "Petersburg",
        "name:zh": "圣彼得堡",
        "place": "village",
        "population": "171",
        "population:date": "2006",
        "source:population": "US Census",
        "wikidata": "Q2310139",
        "wikipedia": "en:Petersburg, North Dakota"
      }
    },
    {
      "type": "node",
      "id": 151434468,
      "lat": 47.1435993,
      "lon": -99.9945518,
      "tags": {
        "ele": "567",
        "gnis:feature_id": "1032557",
        "name": "Tuttle",
        "place": "hamlet",
        "population": "94",
        "population:date": "2006",
        "source:population": "US Census",
        "wikidata": "Q2445970",
        "wikipedia": "en:Tuttle, North Dakota"
      }
    },
    {
      "type": "node",
      "id": 151434491,
      "lat": 46.034141,
      "lon": -99.371503,
      "tags": {
        "capital": "6",
        "ele": "614",
        "gnis:feature_id": "1027755",
        "name": "Ashley",
        "place": "town",
        "population": "775",
        "population:date": "2006",
        "source:population": "US Census",
        "wikidata": "Q725727",
        "wikipedia": "en:Ashley, North Dakota"
      }
    },
    {
      "type": "node",
      "id": 151440462,
      "lat": 47.354454,
      "lon": -102.336012,
      "tags": {
        "ele": "624",
        "gnis:feature_id": "1029281",
        "name": "Halliday",
        "place": "village",
        "population": "215",
        "population:date": "2006",
        "source:population": "US Census",
        "wikidata": "Q2447168",
        "wikipedia": "en:Halliday, North Dakota"
      }
    },
    {
      "type": "node",
      "id": 151440478,
      "lat": 47.4402634,
      "lon": -97.3889793,
      "tags": {
        "ele": "308",
        "gnis:feature_id": "1033795",
        "name": "Roseville",
        "place": "hamlet",
        "population": "81",
        "population:date": "2020",
        "wikidata": "Q9044161"
      }
    },
    {
      "type": "node",
      "id": 151441838,
      "lat": 46.8455584,
      "lon": -101.6354264,
      "tags": {
        "ele": "641",
        "gnis:feature_id": "1033847",
        "name": "Dengate",
        "place": "hamlet"
      }
    },
    {
      "type": "node",
      "id": 151441852,
      "lat": 46.4025087,
      "lon": -103.7385318,
      "tags": {
        "ele": "926",
        "gnis:feature_id": "1035735",
        "name": "Mound",
        "place": "hamlet",
        "population": "8",
        "population:date": "2006",
        "source:population": "US Census"
      }
    },
    {
      "type": "node",
      "id": 151444662,
      "lat": 45.9971851,
      "lon": -99.5495619,
      "tags": {
        "ele": "632",
        "gnis:feature_id": "1032638",
        "name": "Venturia",
        "place": "hamlet",
        "population": "20",
        "population:date": "2006",
        "source:population": "US Census",
        "wikidata": "Q651693",
        "wikipedia": "en:Venturia, North Dakota"
      }
    },
    {
      "type": "node",
      "id": 151444680,
      "lat": 46.053019,
      "lon": -97.508984,
      "tags": {
        "ele": "372",
        "gnis:feature_id": "1031055",
        "name": "Rutland",
        "name:pronunciation": "'ɹʌtlənd",
        "place": "village",
        "population": "204",
        "population:date": "2006",
        "source:population": "US Census",
        "wikidata": "Q592831"
      }
    },
    {
      "type": "node",
      "id": 151444699,
      "lat": 46.7244092,
      "lon": -96.841473,
      "tags": {
        "ele": "277",
        "gnis:feature_id": "1031096",
        "name": "Saint Benedict",
        "place": "hamlet"
      }
    },
    {
      "type": "node",
      "id": 151445074,
      "lat": 46.910544,
      "lon": -98.708436,
      "tags": {
        "capital": "6",
        "ele": "429",
        "gnis:feature_id": "1029648",
        "name": "Jamestown",
        "place": "town",
        "population": "15422",
        "wikidata": "Q1052658",
        "wikipedia": "en:Jamestown, North Dakota"
      }
    },
    {
      "type": "node",
      "id": 151445442,
      "lat": 48.368888,
      "lon": -99.996246,
      "tags": {
        "capital": "6",
        "ele": "472",
        "gnis:feature_id": "1031031",
        "name": "Rugby",
        "name:zh": "拉格比",
        "place": "town",
        "population": "2647",
        "population:date": "2006",
        "source:population": "US Census",
        "wikidata": "Q168420",
        "wikipedia": "en:Rugby, North Dakota"
      }
    },
    {
      "type": "node",
      "id": 151445460,
      "lat": 48.344466,
      "lon": -103.165185,
      "tags": {
        "ele": "693",
        "gnis:feature_id": "1030849",
        "name": "Ray",
        "name:zh": "瑞",
        "place": "village",
        "population": "530",
        "population:date": "2006",
        "source:population": "US Census",
        "wikidata": "Q2385061",
        "wikipedia": "en:Ray, North Dakota"
      }
    },
    {
      "type": "node",
      "id": 151445638,
      "lat": 48.9142,
      "lon": -103.29491,
      "tags": {
        "capital": "6",
        "ele": "598",
        "gnis:feature_id": "1028544",
        "name": "Crosby",
        "name:zh": "克罗斯比",
        "place": "town",
        "population": "991",
        "population:date": "2006",
        "source:population": "US Census",
        "wikidata": "Q1772493",
        "wikipedia": "en:Crosby, North Dakota"
      }
    },
    {
      "type": "node",
      "id": 151448155,
      "lat": 46.1830618,
      "lon": -103.3949061,
      "tags": {
        "capital": "6",
        "ele": "903",
        "gnis:feature_id": "1028099",
        "name": "Bowman",
        "place": "town",
        "population": "1487",
        "population:date": "2006",
        "source:population": "US Census",
        "wikidata": "Q2087899",
        "wikipedia": "en:Bowman, North Dakota"
      }
    },
    {
      "type": "node",
      "id": 151448190,
      "lat": 46.8150051,
      "lon": -101.829877,
      "tags": {
        "ele": "634",
        "gnis:feature_id": "1029133",
        "name": "Glen Ullin",
        "place": "village",
        "population": "824",
        "population:date": "2006",
        "source:population": "US Census",
        "wikidata": "Q28164",
        "wikipedia": "en:Glen Ullin, North Dakota"
      }
    },
    {
      "type": "node",
      "id": 151448916,
      "lat": 46.9139028,
      "lon": -103.5243536,
      "tags": {
        "capital": "6",
        "ele": "691",
        "name": "Medora",
        "place": "village",
        "population": "95",
        "population:date": "2006",
        "source:population": "US Census",
        "wikidata": "Q2018799",
        "wikipedia": "en:Medora, North Dakota"
      }
    },
    {
      "type": "node",
      "id": 151449130,
      "lat": 47.4563686,
      "lon": -97.0700868,
      "tags": {
        "ele": "276",
        "gnis:feature_id": "1033801",
        "name": "Taft",
        "place": "hamlet"
      }
    },
    {
      "type": "node",
      "id": 151451155,
      "lat": 48.6608333,
      "lon": -100.3276357,
      "tags": {
        "ele": "449",
        "gnis:feature_id": "1033739",
        "name": "Belmar",
        "place": "hamlet"
      }
    },
    {
      "type": "node",
      "id": 151452218,
      "lat": 47.5155537,
      "lon": -99.1384461,
      "tags": {
        "ele": "480",
        "gnis:feature_id": "1033762",
        "name": "Guptill",
        "place": "hamlet"
      }
    },
    {
      "type": "node",
      "id": 151453436,
      "lat": 48.5815654,
      "lon": -100.72832,
      "tags": {
        "ele": "441",
        "gnis:feature_id": "1032608",
        "name": "Upham",
        "name:zh": "阿珀姆",
        "place": "village",
        "population": "142",
        "population:date": "2006",
        "source:population": "US Census",
        "wikidata": "Q2315780",
        "wikipedia": "en:Upham, North Dakota"
      }
    },
    {
      "type": "node",
      "id": 151453705,
      "lat": 46.8244398,
      "lon": -101.1548611,
      "tags": {
        "ele": "542",
        "gnis:feature_id": "1033918",
        "name": "Sweet Briar",
        "place": "hamlet"
      }
    },
    {
      "type": "node",
      "id": 151454024,
      "lat": 48.6263945,
      "lon": -99.0973586,
      "tags": {
        "ele": "464",
        "gnis:feature_id": "1028818",
        "name": "Egeland",
        "name:zh": "埃格兰",
        "place": "hamlet",
        "population": "41",
        "population:date": "2006",
        "source:population": "US Census",
        "wikidata": "Q1975097",
        "wikipedia": "en:Egeland, North Dakota"
      }
    },
    {
      "type": "node",
      "id": 151454135,
      "lat": 48.0237653,
      "lon": -98.1235095,
      "tags": {
        "ele": "462",
        "gnis:feature_id": "1037262",
        "name": "Michigan City",
        "name:ta": "மிச்சிகன்",
        "name:zh": "密歇根城",
        "place": "village",
        "population": "294",
        "wikidata": "Q2310114",
        "wikipedia": "en:Michigan City, North Dakota"
      }
    },
    {
      "type": "node",
      "id": 151454331,
      "lat": 48.4908325,
      "lon": -98.2312186,
      "tags": {
        "ele": "493",
        "gnis:feature_id": "1028922",
        "name": "Fairdale",
        "name:zh": "费尔代尔",
        "place": "hamlet",
        "population": "46",
        "population:date": "2006",
        "source:population": "US Census",
        "wikidata": "Q2442932",
        "wikipedia": "en:Fairdale, North Dakota"
      }
    },
    {
      "type": "node",
      "id": 151455536,
      "lat": 46.760533,
      "lon": -97.790382,
      "tags": {
        "ele": "391",
        "gnis:feature_id": "1028958",
        "name": "Fingal",
        "place": "village",
        "population": "122",
        "population:date": "2006",
        "source:population": "US Census",
        "wikidata": "Q28452",
        "wikipedia": "en:Fingal, North Dakota"
      }
    },
    {
      "type": "node",
      "id": 151455641,
      "lat": 46.1997146,
      "lon": -97.9617279,
      "tags": {
        "ele": "404",
        "gnis:feature_id": "1028532",
        "name": "Crete",
        "name:pronunciation": "kɹiːt",
        "place": "hamlet"
      }
    },
    {
      "type": "node",
      "id": 151455684,
      "lat": 48.6352785,
      "lon": -99.6187555,
      "tags": {
        "ele": "505",
        "gnis:feature_id": "1030349",
        "name": "Mylo",
        "name:zh": "迈洛",
        "place": "hamlet",
        "population": "19",
        "population:date": "2006",
        "source:population": "US Census",
        "wikidata": "Q2173591",
        "wikipedia": "en:Mylo, North Dakota"
      }
    },
    {
      "type": "node",
      "id": 151455806,
      "lat": 48.6688857,
      "lon": -98.1512186,
      "tags": {
        "ele": "494",
        "gnis:feature_id": "1030583",
        "name": "Osnabrock",
        "name:zh": "奥斯纳布罗克",
        "place": "village",
        "population": "154",
        "population:date": "2006",
        "source:population": "US Census",
        "wikidata": "Q280668",
        "wikipedia": "en:Osnabrock, North Dakota"
      }
    },
    {
      "type": "node",
      "id": 151457286,
      "lat": 48.2567558,
      "lon": -101.5637233,
      "tags": {
        "ele": "589",
        "gnis:feature_id": "1028663",
        "name": "Des Lacs",
        "name:zh": "德拉克斯",
        "place": "village",
        "population": "192",
        "population:date": "2006",
        "source:population": "US Census",
        "wikidata": "Q945752",
        "wikipedia": "en:Des Lacs, North Dakota"
      }
    },
    {
      "type": "node",
      "id": 151458814,
      "lat": 47.9192587,
      "lon": -97.4995543,
      "tags": {
        "ele": "306",
        "gnis:feature_id": "1027748",
        "name": "Arvilla",
        "place": "village",
        "population": "280",
        "wikidata": "Q4802458",
        "wikipedia": "en:Arvilla, North Dakota"
      }
    },
    {
      "type": "node",
      "id": 151458830,
      "lat": 47.4016559,
      "lon": -97.7889841,
      "tags": {
        "ele": "412",
        "gnis:feature_id": "1028019",
        "name": "Blabon",
        "place": "hamlet"
      }
    },
    {
      "type": "node",
      "id": 151459219,
      "lat": 46.9380417,
      "lon": -98.3331474,
      "tags": {
        "ele": "449",
        "gnis:feature_id": "1028797",
        "name": "Eckelson",
        "place": "hamlet",
        "population": "87",
        "population:date": "2006",
        "source:population": "US Census"
      }
    },
    {
      "type": "node",
      "id": 151459997,
      "lat": 47.2447092,
      "lon": -97.6564854,
      "tags": {
        "ele": "360",
        "gnis:feature_id": "1028423",
        "name": "Colgate",
        "place": "hamlet",
        "population": "81",
        "population:date": "2006",
        "source:population": "US Census"
      }
    },
    {
      "type": "node",
      "id": 151460288,
      "lat": 47.5513787,
      "lon": -98.8034095,
      "tags": {
        "ele": "461",
        "gnis:feature_id": "1029191",
        "name": "Grace City",
        "name:zh": "格雷斯市",
        "place": "hamlet",
        "population": "69",
        "population:date": "2006",
        "source:population": "US Census",
        "wikidata": "Q2447090",
        "wikipedia": "en:Grace City, North Dakota"
      }
    },
    {
      "type": "node",
      "id": 151462329,
      "lat": 46.1058393,
      "lon": -102.9454423,
      "tags": {
        "ele": "857",
        "gnis:feature_id": "1030866",
        "name": "Reeder",
        "place": "village",
        "population": "160",
        "population:date": "2006",
        "source:population": "US Census",
        "wikidata": "Q28139",
        "wikipedia": "en:Reeder, North Dakota"
      }
    },
    {
      "type": "node",
      "id": 151462391,
      "lat": 47.160549,
      "lon": -100.6362375,
      "tags": {
        "ele": "622",
        "gnis:feature_id": "1033915",
        "name": "Still",
        "place": "hamlet"
      }
    },
    {
      "type": "node",
      "id": 151464851,
      "lat": 48.1235175,
      "lon": -102.2238426,
      "tags": {
        "ele": "674",
        "gnis:feature_id": "1028899",
        "name": "Epworth",
        "place": "hamlet"
      }
    },
    {
      "type": "node",
      "id": 151464914,
      "lat": 45.9946886,
      "lon": -97.7762126,
      "tags": {
        "ele": "393",
        "gnis:feature_id": "1028113",
        "name": "Brampton",
        "name:pronunciation": "'bɹæmptən",
        "place": "hamlet",
        "population": "64",
        "population:date": "2006",
        "source:population": "US Census"
      }
    },
    {
      "type": "node",
      "id": 151466673,
      "lat": 47.3222102,
      "lon": -97.7223196,
      "tags": {
        "ele": "378",
        "gnis:feature_id": "1029526",
        "name": "Hope",
        "place": "village",
        "population": "265",
        "population:date": "2006",
        "source:population": "US Census",
        "wikidata": "Q2121949",
        "wikipedia": "en:Hope, North Dakota"
      }
    },
    {
      "type": "node",
      "id": 151467500,
      "lat": 46.8005404,
      "lon": -98.7398256,
      "tags": {
        "ele": "462",
        "gnis:feature_id": "1033771",
        "name": "Kloze",
        "place": "hamlet"
      }
    },
    {
      "type": "node",
      "id": 151467683,
      "lat": 48.1425023,
      "lon": -98.6601124,
      "tags": {
        "ele": "455",
        "gnis:feature_id": "1033794",
        "name": "Rohrville",
        "place": "hamlet"
      }
    },
    {
      "type": "node",
      "id": 151467715,
      "lat": 48.0716668,
      "lon": -98.9295668,
      "tags": {
        "ele": "443",
        "gnis:feature_id": "1035899",
        "name": "Lakewood Park",
        "place": "hamlet"
      }
    },
    {
      "type": "node",
      "id": 151468061,
      "lat": 46.9360994,
      "lon": -98.4956481,
      "tags": {
        "ele": "452",
        "gnis:feature_id": "1032217",
        "name": "Spiritwood",
        "place": "hamlet",
        "population": "29",
        "population:date": "2020",
        "source:population": "US Census",
        "wikidata": "Q4137007"
      }
    },
    {
      "type": "node",
      "id": 151468093,
      "lat": 46.9238808,
      "lon": -100.7534625,
      "tags": {
        "ele": "577",
        "gnis:feature_id": "1027739",
        "name": "Arnold",
        "place": "hamlet"
      }
    },
    {
      "type": "node",
      "id": 151468097,
      "lat": 48.7627549,
      "lon": -101.299206,
      "tags": {
        "ele": "472",
        "gnis:feature_id": "1030882",
        "name": "Renville",
        "place": "hamlet",
        "population": "29",
        "population:date": "2006",
        "source:population": "US Census"
      }
    },
    {
      "type": "node",
      "id": 151468105,
      "lat": 47.2369226,
      "lon": -97.001473,
      "tags": {
        "ele": "273",
        "gnis:feature_id": "1029206",
        "name": "Grandin",
        "place": "village",
        "population": "163",
        "population:date": "2006",
        "source:population": "US Census",
        "wikidata": "Q780305",
        "wikipedia": "en:Grandin, North Dakota"
      }
    },
    {
      "type": "node",
      "id": 151468308,
      "lat": 47.7463957,
      "lon": -102.0432219,
      "tags": {
        "ele": "575",
        "gnis:feature_id": "1030846",
        "name": "Raub",
        "place": "hamlet"
      }
    },